     2.10           OBSERVATION DATA    G (GPS)             RINEX VERSION / TYPE
GPB2RIN v7.00       1                   2-¶þÔÂ-15 10:21     PGM / RUN BY / DATE 
2                                                           MARKER NAME         
1                   1                                       OBSERVER / AGENCY   
                    Trimble Real-Time                       REC # / TYPE / VERS 
                                                            ANT # / TYPE        
 -2274089.6329  5011657.3137  3212967.8181                  APPROX POSITION XYZ 
        0.0000        0.0000        0.0000                  ANTENNA: DELTA H/E/N
     1     1                                                WAVELENGTH FACT L1/2
     5    C1    L1    L2    P2    D1                        # / TYPES OF OBSERV 
     1.000                                                  INTERVAL            
  2015     1    28     5    54   14.0000000                 TIME OF FIRST OBS   
                                                            END OF HEADER       
 15  1 28  5 54 14.0000000  0  7G24G12G22G18G14G15G21               
  20485055.628       71037.5781      47859.344    20485054.215        -895.776  
  23395845.723     -110138.6411          0.000           0.000        2903.057  
  22719148.904     -276317.1991    -183518.820    22719143.574        3036.485  
  20708979.459     -163668.5861    -107228.305    20708974.867        1759.424  
  23426110.856     -194510.5551    -119111.082    23426109.908        2110.903  
  22552922.653      168861.7111     111735.590    22552919.044       -1870.078  
  21263313.179      106642.0121      69529.211    21263309.100       -1188.872  
 15  1 28  5 54 15.0000000  0  7G24G12G22G18G14G15G21               
  20485226.296       71933.723       48557.641    20485224.817        -896.694  
  23395293.816     -113041.566           0.000           0.000        2902.686  
  22718570.697     -279353.512     -185884.781    22718565.531        3036.045  
  20708644.672     -165427.773     -108599.102    20708640.106        1758.838  
  23425709.130     -196621.281     -120755.801    23425707.995        2110.371  
  22553278.199      170731.980      113192.941    22553274.987       -1870.464  
  21263539.463      107831.402       70456.000    21263535.454       -1189.839  
 15  1 28  5 54 16.0000000  0  7G24G12G22G18G14G15G21               
  20485396.754       72830.719       49256.594    20485395.384        -897.397  
  23394741.360     -115944.047           0.000           0.000        2902.246  
  22717993.492     -282389.445     -188250.430    22717987.684        3035.796  
  20708309.772     -167186.391     -109969.449    20708305.369        1758.447  
  23425308.008     -198731.586     -122400.195    23425306.792        2110.098  
  22553634.194      172602.613      114650.574    22553631.109       -1870.796  
  21263765.963      109021.621       71383.438    21263762.245       -1190.679  
 15  1 28  5 54 17.0000000  0  7G24G12G22G18G14G15G21               
  20485567.838       73728.590       49956.230    20485566.270        -898.296  
  23394188.380     -118846.082           0.000           0.000        2901.748  
  22717415.369     -285425.047     -190615.828    22717409.902        3035.444  
  20707975.455     -168944.422     -111339.340    20707970.717        1757.710  
  23424906.646     -200841.457     -124044.246    23424905.227        2109.673  
  22553990.429      174473.551      116108.445    22553987.052       -1871.108  
  21263992.721      110212.645       72311.508    21263988.705       -1191.499  
 15  1 28  5 54 18.0000000  0  7G24G12G22G18G14G15G21               
  20485738.976       74627.387       50656.590    20485737.492        -899.316  
  23393636.008     -121747.570           0.000           0.000        2901.133  
  22716837.958     -288460.207     -192980.883    22716832.304        3035.000  
  20707640.990     -170701.816     -112708.734    20707636.278        1757.090  
  23424504.913     -202950.781     -125687.867    23424503.557        2109.048  
  22554346.373      176344.879      117566.617    22554342.941       -1871.514  
  21264219.619      111404.527       73240.242    21264215.995       -1192.393  
 15  1 28  5 54 19.0000000  0  7G24G12G22G18G14G15G21               
  20485910.356       75527.105       51357.668    20485908.640        -900.195  
  23393083.961     -124648.570           0.000           0.000        2900.874  
  22716260.532     -291494.949     -195345.613    22716254.839        3034.546  
  20707306.754     -172458.598     -114077.660    20707302.057        1756.533  
  23424103.050     -205059.656     -127331.137    23424102.470        2108.716  
  22554703.119      178216.582      119025.082    22554699.412       -1871.816  
  21264446.150      112597.301       74169.684    21264442.554       -1193.208  
 15  1 28  5 54 20.0000000  0  7G24G12G22G18G14G15G21               
  20486081.708       76427.715       52059.445    20486080.347        -901.148  
  23392532.157     -127549.031           0.000           0.000        2900.229  
  22715683.301     -294529.297     -197710.043    22715677.357        3034.121  
  20706972.479     -174214.746     -115446.086    20706967.894        1755.815  
  23423702.038     -207168.059     -128974.043    23423701.306        2108.135  
  22555058.846      180088.660      120483.840    22555055.470       -1872.256  
  21264673.687      113790.934       75099.785    21264670.232       -1193.999  
 15  1 28  5 54 21.0000000  0  7G24G12G22G18G14G15G21               
  20486253.293       77329.254       52761.945    20486251.607        -901.987  
  23391980.901     -130448.930           0.000           0.000        2899.727  
  22715105.812     -297563.180     -200074.105    22715099.844        3033.642  
  20706638.654     -175970.254     -116814.016    20706633.814        1755.161  
  23423300.815     -209275.918     -130616.520    23423300.739        2107.598  
  22555415.190      181961.137      121942.914    22555412.206       -1872.646  
  21264900.952      114985.480       76030.598    21264897.086       -1195.000  
 15  1 28  5 54 22.0000000  0  7G24G12G22G18G14G15G21               
  20486425.119       78231.742       53465.172    20486423.441        -902.979  
  23391428.755     -133348.309           0.000           0.000        2899.395  
  22714528.129     -300596.652     -202437.855    22714522.684        3033.262  
  20706304.449     -177725.113     -118181.438    20706299.882        1754.502  
  23422900.156     -211383.270     -132258.609    23422899.823        2107.134  
  22555771.685      183834.047      123402.324    22555768.007       -1873.140  
  21265128.146      116180.918       76962.102    21265124.643       -1195.894  
 15  1 28  5 54 23.0000000  0  7G24G12G22G18G14G15G21               
  20486596.678       79135.215       54169.176    20486595.039        -903.955  
  23390877.684     -136247.102           0.000           0.000        2898.628  
  22713951.362     -303629.625     -204801.211    22713945.571        3032.793  
  20705970.572     -179479.258     -119548.309    20705966.210        1753.735  
  23422499.184     -213490.070     -133900.273    23422498.495        2106.660  
  22556128.280      185707.398      124862.074    22556124.903       -1873.545  
  21265356.009      117377.297       77894.348    21265352.275       -1196.885  
 15  1 28  5 54 24.0000000  0  7G24G12G22G18G14G15G21               
  20486768.995       80039.625       54873.910    20486767.434        -904.829  
  23390326.103     -139145.336           0.000           0.000        2898.081  
  22713373.785     -306662.195     -207164.246    22713368.335        3032.461  
  20705637.084     -181232.781     -120914.688    20705632.563        1753.252  
  23422098.551     -215596.348     -135541.523    23422097.467        2106.177  
  22556484.520      187581.164      126322.156    22556481.283       -1873.926  
  21265584.132      118574.574       78827.289    21265580.414       -1197.656  
 15  1 28  5 54 25.0000000  0  7G24G12G22G18G14G15G21               
  20486941.121       80944.930       55579.348    20486940.058        -905.840  
  23389774.615     -142043.121           0.000           0.000        2897.593  
  22712797.310     -309694.332     -209526.941    22712791.416        3031.860  
  20705303.794     -182985.691     -122280.594    20705298.449        1752.671  
  23421697.712     -217702.160     -137182.414    23421696.792        2105.522  
  22556840.963      189455.273      127782.504    22556837.806       -1874.316  
  21265811.803      119772.695       79760.891    21265808.317       -1198.564  
 15  1 28  5 54 26.0000000  0  7G24G12G22G18G14G15G21               
  20487113.829       81851.148       56285.488    20487112.107        -906.694  
  23389223.636     -144940.387           0.000           0.000        2897.138  
  22712220.376     -312726.074     -211889.328    22712214.439        3031.636  
  20704969.899     -184737.926     -123645.977    20704965.356        1752.017  
  23421297.195     -219807.441     -138822.883    23421296.567        2105.073  
  22557198.000      191329.789      129243.168    22557194.273       -1874.629  
  21266040.127      120971.723       80695.191    21266036.493       -1199.414  
 15  1 28  5 54 27.0000000  0  7G24G12G22G18G14G15G21               
  20487286.030       82758.316       56992.379    20487284.830        -907.617  
  23388671.657     -147837.027           0.000           0.000        2896.338  
  22711643.982     -315757.328     -214251.340    22711637.414        3031.147  
  20704636.565     -186489.523     -125010.863    20704631.887        1751.318  
  23420896.336     -221912.211     -140462.965    23420895.868        2104.580  
  22557554.892      193204.730      130704.164    22557551.303       -1875.024  
  21266268.580      122171.652       81630.199    21266264.313       -1200.298  
 15  1 28  5 54 28.0000000  0  7G24G12G22G18G14G15G21               
  20487458.617       83666.406       57699.980    20487457.507        -908.550  
  23388120.539     -150733.152           0.000           0.000        2895.737  
  22711066.995     -318788.172     -216613.031    22711061.066        3030.561  
  20704304.203     -188240.473     -126375.238    20704299.312        1750.640  
  23420496.181     -224016.461     -142102.641    23420495.335        2103.989  
  22557911.904      195080.059      132165.457    22557908.367       -1875.537  
  21266497.085      123372.473       82565.898    21266493.078       -1201.318  
 15  1 28  5 54 29.0000000  0  7G24G12G22G18G14G15G21               
  20487631.607       84575.449       58408.320    20487630.377        -909.497  
  23387569.872     -153628.762           0.000           0.000        2895.240  
  22710490.750     -321818.574     -218974.383    22710484.169        3030.093  
  20703970.515     -189990.770     -127739.105    20703965.822        1749.976  
  23420096.201     -226120.215     -143741.922    23420095.203        2103.423  
  22558268.690      196955.809      133627.086    22558265.090       -1875.996  
  21266725.774      124574.195       83502.305    21266721.918       -1202.231  
 15  1 28  5 54 30.0000000  0  7G24G12G22G18G14G15G21               
  20487804.727       85485.387       59117.371    20487803.886        -910.444  
  23387018.230     -156523.855           0.000           0.000        2895.000  
  22709913.422     -324848.570     -221335.422    22709907.619        3029.683  
  20703637.596     -191740.461     -129102.496    20703632.651        1749.390  
  23419696.064     -228223.465     -145380.809    23419694.927        2102.876  
  22558625.426      198831.918      135088.984    22558622.010       -1876.299  
  21266954.682      125776.773       84439.379    21266950.490       -1202.998  
 15  1 28  5 54 31.0000000  0  7G24G12G22G18G14G15G21               
  20487977.946       86396.160       59827.066    20487976.910        -911.138  
  23386467.602     -159418.469           0.000           0.000        2894.521  
  22709336.641     -327878.250     -223696.211    22709330.899        3029.531  
  20703304.852     -193489.582     -130465.445    20703299.893        1748.936  
  23419295.992     -230326.301     -147019.379    23419294.727        2102.754  
  22558983.052      200708.336      136551.129    22558979.547       -1876.538  
  21267183.461      126980.152       85377.070    21267179.885       -1203.667  
 15  1 28  5 54 32.0000000  0  7G24G12G22G18G14G15G21               
  20488151.583       87307.680       60537.336    20488150.523        -911.968  
  23385917.729     -162312.727           0.000           0.000        2893.945  
  22708760.573     -330907.656     -226056.785    22708754.656        3029.209  
  20702972.359     -195238.258     -131828.047    20702966.951        1748.403  
  23418895.364     -232428.789     -148657.684    23418894.584        2102.280  
  22559339.611      202584.969      138013.438    22559336.567       -1876.768  
  21267412.531      128184.238       86315.324    21267408.831       -1204.434  
 15  1 28  5 54 33.0000000  0  7G24G12G22G18G14G15G21               
  20488325.121       88220.066       61248.293    20488324.023        -912.866  
  23385367.327     -165206.547           0.000           0.000        2893.642  
  22708184.235     -333936.703     -228417.070    22708178.198        3028.882  
  20702639.416     -196986.352     -133190.195    20702634.208        1747.749  
  23418494.614     -234530.840     -150295.645    23418494.584        2101.709  
  22559696.703      204461.957      139476.027    22559693.759       -1877.143  
  21267641.608      129389.156       87254.223    21267638.390       -1205.396  
 15  1 28  5 54 34.0000000  0  7G24G12G22G18G14G15G21               
  20488498.883       89133.359       61959.941    20488497.499        -913.784  
  23384815.686     -168099.805           0.000           0.000        2893.018  
  22707608.045     -336965.324     -230777.039    22707601.480        3028.291  
  20702306.641     -198733.789     -134551.832    20702301.715        1747.056  
  23418095.921     -236632.457     -151933.270    23418094.402        2101.367  
  22560054.122      206339.324      140938.910    22560050.804       -1877.622  
  21267871.668      130594.941       88193.789    21267867.853       -1206.284  
 15  1 28  5 54 35.0000000  0  7G24G12G22G18G14G15G21               
  20488673.027       90047.625       62672.355    20488671.654        -914.722  
  23384265.105     -170992.504           0.000           0.000        2892.456  
  22707031.566     -339993.473     -233136.637    22707025.548        3027.895  
  20701974.537     -200480.551     -135912.945    20701969.475        1746.436  
  23417695.807     -238733.484     -153570.426    23417694.465        2100.688  
  22560411.311      208217.113      142402.121    22560408.084       -1878.032  
  21268101.049      131801.668       89134.094    21268097.254       -1207.280  
 15  1 28  5 54 36.0000000  0  7G24G12G22G18G14G15G21               
  20488847.244       90962.832       63385.504    20488845.753        -915.635  
  23383715.081     -173884.680           0.000           0.000        2891.943  
  22706455.444     -343021.199     -235495.914    22706449.390        3027.461  
  20701642.165     -202226.680     -137273.570    20701637.017        1745.815  
  23417295.808     -240834.008     -155207.195    23417295.118        2100.288  
  22560768.961      210095.301      143865.645    22560765.481       -1878.394  
  21268330.447      133009.262       90075.078    21268327.068       -1208.081  
 15  1 28  5 54 37.0000000  0  7G24G12G22G18G14G15G21               
  20489021.790       91878.992       64099.395    20489020.459        -916.641  
  23383165.054     -176776.305           0.000           0.000        2891.411  
  22705879.229     -346048.488     -237854.836    22705873.376        3027.056  
  20701310.224     -203972.137     -138633.660    20701305.014        1745.068  
  23416895.946     -242933.996     -156843.539    23416895.342        2099.717  
  22561126.222      211973.902      145329.488    22561123.059       -1878.892  
  21268560.432      134217.773       91016.777    21268557.080       -1208.931  
 15  1 28  5 54 38.0000000  0  7G24G12G22G18G14G15G21               
  20489196.288       92796.023       64813.965    20489194.822        -917.441  
  23382614.785     -179667.426           0.000           0.000        2890.874  
  22705302.866     -349075.387     -240213.461    22705297.561        3026.768  
  20700977.782     -205716.988     -139993.289    20700972.760        1744.585  
  23416496.369     -245033.520     -158479.531    23416495.463        2099.360  
  22561483.905      213852.867      146793.613    22561481.063       -1879.063  
  21268790.732      135427.148       91959.137    21268787.128       -1209.712  
 15  1 28  5 54 39.0000000  0  7G24G12G22G18G14G15G21               
  20489371.104       93713.871       65529.172    20489369.221        -918.198  
  23382065.451     -182558.090           0.000           0.000        2890.298  
  22704727.678     -352101.953     -242571.824    22704721.586        3026.440  
  20700645.989     -207461.305     -141352.500    20700640.970        1744.072  
  23416097.101     -247132.664     -160115.227    23416096.517        2098.940  
  22561841.674      215732.125      148257.969    22561838.527       -1879.355  
  21269021.415      136637.309       92902.109    21269017.573       -1210.527  
 15  1 28  5 54 40.0000000  0  7G24G12G22G18G14G15G21               
  20489545.851       94632.609       66245.070    20489544.423        -919.116  
  23381514.853     -185448.301           0.000           0.000        2889.932  
  22704151.537     -355128.148     -244929.891    22704145.796        3026.079  
  20700313.779     -209205.020     -142711.234    20700308.978        1743.428  
  23415697.951     -249231.316     -161750.535    23415697.226        2098.457  
  22562199.209      217611.730      149722.602    22562195.983       -1879.785  
  21269252.184      137848.297       93845.738    21269248.016       -1211.328  
 15  1 28  5 54 41.0000000  0  7G24G12G22G18G14G15G21               
  20489720.742       95552.188       66961.629    20489719.206        -919.941  
  23380964.425     -188338.012           0.000           0.000        2889.458  
  22703576.119     -358153.945     -247287.648    22703569.751        3025.664  
  20699982.659     -210948.152     -144069.523    20699977.549        1742.822  
  23415298.444     -251329.516     -163385.492    23415297.371        2097.910  
  22562557.306      219491.680      151187.492    22562553.847       -1880.039  
  21269482.448      139060.133       94790.023    21269478.479       -1212.163  
 15  1 28  5 54 42.0000000  0  7G24G12G22G18G14G15G21               
  20489895.882       96472.590       67678.820    20489894.301        -920.815  
  23380414.886     -191227.305           0.000           0.000        2889.219  
  22702999.969     -361179.430     -249645.156    22702994.181        3025.396  
  20699651.239     -212690.730     -145427.375    20699646.221        1742.300  
  23414899.322     -253427.340     -165020.148    23414898.369        2097.593  
  22562915.040      221371.926      152652.617    22562911.552       -1880.337  
  21269712.999      140272.746       95734.918    21269709.602       -1212.964  
 15  1 28  5 54 43.0000000  0  7G24G12G22G18G14G15G21               
  20490071.062       97393.875       68396.703    20490069.920        -921.611  
  23379864.515     -194116.094           0.000           0.000        2888.667  
  22702424.352     -364204.508     -252002.359    22702418.277        3024.922  
  20699319.890     -214432.707     -146784.762    20699314.764        1741.821  
  23414499.384     -255524.684     -166654.438    23414499.117        2097.275  
  22563272.753      223252.559      154118.043    22563269.570       -1880.806  
  21269943.944      141486.227       96680.488    21269940.259       -1213.809  
 15  1 28  5 54 44.0000000  0  7G24G12G22G18G14G15G21               
  20490246.907       98316.008       69115.258    20490244.874        -922.583  
  23379315.050     -197004.426           0.000           0.000        2887.998  
  22701848.525     -367229.270     -254359.313    22701842.529        3024.604  
  20698988.048     -216174.129     -148141.715    20698983.138        1741.118  
  23414100.879     -257621.594     -168288.398    23414100.047        2096.680  
  22563630.391      225133.438      155583.668    22563627.479       -1881.060  
  21270175.270      142700.477       97626.660    21270171.414       -1214.604  
 15  1 28  5 54 45.0000000  0  7G24G12G22G18G14G15G21               
  20490422.101       99238.977       69834.453    20490420.939        -923.398  
  23378764.939     -199892.289           0.000           0.000        2887.744  
  22701273.792     -370253.648     -256715.961    22701267.503        3024.165  
  20698657.153     -217914.988     -149498.230    20698651.438        1740.659  
  23413702.123     -259718.070     -169922.016    23413701.375        2096.157  
  22563988.498      227014.680      157049.570    22563985.272       -1881.362  
  21270406.371      143915.586       98573.496    21270402.568       -1215.547  
 15  1 28  5 54 46.0000000  0  7G24G12G22G18G14G15G21               
  20490598.008      100162.820       70554.328    20490596.690        -924.277  
  23378215.087     -202779.703           0.000           0.000        2887.241  
  22700698.465     -373277.699     -259072.355    22700692.147        3023.853  
  20698325.754     -219655.242     -150854.273    20698320.637        1739.951  
  23413303.374     -261814.125     -171555.309    23413302.262        2095.708  
  22564347.087      228896.254      158515.727    22564343.394       -1881.763  
  21270637.861      145131.496       99520.957    21270634.279       -1216.416  
 15  1 28  5 54 47.0000000  0  7G24G12G22G18G14G15G21               
  20490773.900      101087.539       71274.887    20490772.502        -925.171  
  23377666.526     -205666.574           0.000           0.000        2886.631  
  22700121.705     -376301.301     -261428.406    22700116.447        3023.374  
  20697994.749     -221394.902     -152209.855    20697989.862        1739.375  
  23412904.648     -263909.699     -173188.223    23412903.562        2095.396  
  22564705.221      230778.176      159982.156    22564701.982       -1882.095  
  21270869.180      146348.270      100469.082    21270865.643       -1217.280  
 15  1 28  5 54 48.0000000  0  7G24G12G22G18G14G15G21               
  20490950.407      102013.117       71996.117    20490948.669        -925.962  
  23377116.696     -208553.004           0.000           0.000        2886.304  
  22699546.721     -379324.598     -263784.223    22699540.885        3023.252  
  20697663.486     -223134.012     -153565.008    20697658.546        1738.887  
  23412505.766     -266004.859     -174820.805    23412505.015        2094.966  
  22565063.203      232660.441      161448.852    22565060.287       -1882.339  
  21271100.883      147565.809      101417.816    21271097.001       -1217.808  
 15  1 28  5 54 49.0000000  0  7G24G12G22G18G14G15G21               
  20491126.558      102939.543       72718.012    20491125.107        -926.768  
  23376568.007     -211438.992           0.000           0.000        2885.840  
  22698971.821     -382347.508     -266139.742    22698965.506        3022.783  
  20697332.627     -224872.539     -154919.703    20697328.062        1738.354  
  23412107.368     -268099.574     -176453.043    23412106.583        2094.536  
  22565421.411      234542.996      162915.777    22565418.375       -1882.622  
  21271332.456      148784.199      102367.211    21271329.055       -1218.726  
 15  1 28  5 54 50.0000000  0  7G24G12G22G18G14G15G21               
  20491303.008      103866.781       73440.539    20491301.497        -927.607  
  23376018.587     -214324.523           0.000           0.000        2885.391  
  22698396.642     -385370.117     -268495.027    22698390.660        3022.510  
  20697001.847     -226610.547     -156273.988    20696997.185        1737.827  
  23411708.373     -270193.934     -178085.012    23411708.422        2094.131  
  22565779.717      236425.840      164382.930    22565776.418       -1883.018  
  21271564.320      150003.336      103317.188    21271560.933       -1219.482  
 15  1 28  5 54 51.0000000  0  7G24G12G22G18G14G15G21               
  20491479.438      104794.816       74163.684    20491477.988        -928.496  
  23375469.397     -217209.715           0.000           0.000        2884.863  
  22697821.442     -388392.465     -270850.109    22697815.193        3022.129  
  20696671.256     -228348.047     -157627.879    20696666.444        1737.217  
  23411309.983     -272287.906     -179716.676    23411309.707        2093.687  
  22566138.066      238308.945      165850.285    22566134.985       -1883.291  
  21271796.870      151223.246      104267.766    21271793.229       -1220.361  
 15  1 28  5 54 52.0000000  0  7G24G12G22G18G14G15G21               
  20491656.492      105723.633       74887.430    20491654.854        -929.160  
  23374920.750     -220094.445           0.000           0.000        2884.580  
  22697246.263     -391414.480     -273204.926    22697240.360        3021.880  
  20696340.930     -230085.023     -158981.367    20696336.213        1736.763  
  23410911.923     -274381.508     -181348.047    23410911.763        2093.530  
  22566496.712      240192.316      167317.855    22566493.384       -1883.462  
  21272028.812      152443.914      105218.930    21272025.556       -1221.025  
 15  1 28  5 54 53.0000000  0  7G24G12G22G18G14G15G21               
  20491832.763      106653.340       75611.871    20491831.410        -930.161  
  23374371.463     -222978.746           0.000           0.000        2883.926  
  22696671.255     -394436.133     -275559.453    22696665.228        3021.411  
  20696010.314     -231821.398     -160334.387    20696006.036        1736.011  
  23410513.449     -276474.664     -182979.063    23410513.039        2092.944  
  22566854.733      242076.059      168785.699    22566851.551       -1884.087  
  21272261.768      153665.391      106170.730    21272257.775       -1221.948  
 15  1 28  5 54 54.0000000  0  7G24G12G22G18G14G15G21               
  20492009.916      107583.816       76336.926    20492008.315        -930.767  
  23373822.322     -225862.570           0.000           0.000        2883.726  
  22696096.254     -397457.480     -277913.742    22696090.392        3021.245  
  20695680.404     -233557.258     -161687.004    20695675.504        1735.615  
  23410115.439     -278567.391     -184609.750    23410114.452        2092.622  
  22567213.282      243960.063      170253.750    22567210.418       -1884.116  
  21272494.221      154887.668      107123.148    21272490.306       -1222.617  
 15  1 28  5 54 55.0000000  0  7G24G12G22G18G14G15G21               
  20492187.202      108515.152       77062.641    20492185.219        -931.733  
  23373274.225     -228745.992           0.000           0.000        2883.232  
  22695521.638     -400478.465     -280267.742    22695515.380        3020.850  
  20695349.726     -235292.582     -163039.207    20695345.212        1735.151  
  23409717.031     -280659.758     -186240.164    23409716.559        2092.134  
  22567571.834      245844.352      171722.020    22567569.006       -1884.409  
  21272726.827      156110.707      108076.164    21272723.398       -1223.433  
 15  1 28  5 54 56.0000000  0  7G24G12G22G18G14G15G21               
  20492364.637      109447.309       77788.996    20492363.371        -932.519  
  23372725.216     -231628.965           0.000           0.000        2882.710  
  22694947.101     -403499.113     -282621.492    22694940.846        3020.542  
  20695019.539     -237027.324     -164390.957    20695015.251        1734.556  
  23409319.220     -282751.684     -187870.234    23409318.379        2091.812  
  22567929.995      247728.965      173190.543    22567927.479       -1884.775  
  21272959.666      157334.559      109029.813    21272956.488       -1224.238  
 15  1 28  5 54 57.0000000  0  7G24G12G22G18G14G15G21               
  20492542.067      110380.391       78516.066    20492540.547        -933.574  
  23372176.183     -234511.406           0.000           0.000        2882.251  
  22694371.908     -406519.324     -284974.906    22694366.549        3019.961  
  20694689.734     -238761.422     -165742.203    20694685.015        1733.838  
  23408920.916     -284843.094     -189499.898    23408920.235        2091.162  
  22568288.763      249613.980      174659.387    22568286.301       -1885.205  
  21273192.940      158559.297      109984.156    21273189.070       -1225.127  
 15  1 28  5 54 58.0000000  0  7G24G12G22G18G14G15G21               
  20492720.237      111314.363       79243.840    20492718.258        -934.399  
  23371628.128     -237393.301           0.000           0.000        2881.846  
  22693796.978     -409539.160     -287328.035    22693791.452        3019.653  
  20694359.564     -240494.918     -167092.980    20694355.037        1733.174  
  23408523.712     -286934.055     -191129.219    23408522.680        2090.859  
  22568647.559      251499.344      176128.500    22568644.688       -1885.586  
  21273426.208      159784.914      110939.176    21273422.671       -1226.001  
 15  1 28  5 54 59.0000000  0  7G24G12G22G18G14G15G21               
  20492898.035      112249.164       79972.258    20492896.227        -935.220  
  23371078.470     -240274.637           0.000           0.000        2880.947  
  22693222.849     -412558.660     -289680.891    22693216.735        3019.375  
  20694030.171     -242227.859     -168443.324    20694025.533        1732.759  
  23408125.422     -289024.570     -192758.184    23408124.587        2090.337  
  22569006.744      253385.020      177597.855    22569003.577       -1885.811  
  21273659.489      161011.309      111894.801    21273656.143       -1226.758  
 15  1 28  5 55  0.0000000  0  7G24G12G22G18G14G15G21               
  20493076.053      113184.711       80701.254    20493074.172        -935.898  
  23370530.675     -243155.813           0.000           0.000        2881.016  
  22692647.752     -415577.898     -292033.547    22692641.925        3019.155  
  20693700.286     -243960.375     -169793.344    20693695.533        1732.363  
  23407727.425     -291114.809     -194386.934    23407726.970        2090.127  
  22569365.260      255270.883      179067.367    22569362.437       -1886.060  
  21273892.769      162238.363      112850.953    21273889.911       -1227.407  
 15  1 28  5 55  1.0000000  0  7G24G12G22G18G14G15G21               
  20493254.364      114120.965       81430.805    20493252.650        -936.685  
  23369982.451     -246036.605           0.000           0.000        2880.512  
  22692073.611     -418596.934     -294386.039    22692067.648        3018.916  
  20693370.539     -245692.418     -171142.988    20693366.307        1731.787  
  23407330.115     -293204.730     -196015.438    23407329.476        2089.761  
  22569724.608      257156.949      180537.027    22569721.109       -1886.177  
  21274126.916      163466.133      113807.656    21274123.095       -1228.105  
 15  1 28  5 55  2.0000000  0  7G24G12G22G18G14G15G21               
  20493432.811      115057.910       82160.887    20493430.981        -937.197  
  23369435.181     -248917.047           0.000           0.000        2880.303  
  22691499.447     -421615.750     -296738.352    22691493.185        3018.735  
  20693041.139     -247424.063     -172492.320    20693036.413        1731.465  
  23406932.006     -295294.391     -197643.750    23406931.937        2089.546  
  22570084.075      259043.184      182006.824    22570080.580       -1886.265  
  21274360.444      164694.559      114764.867    21274357.052       -1228.711  
 15  1 28  5 55  3.0000000  0  7G24G12G22G18G14G15G21               
  20493610.878      115995.625       82891.578    20493609.125        -938.066  
  23368887.028     -251797.203           0.000           0.000        2880.078  
  22690924.641     -424634.324     -299090.480    22690918.297        3018.418  
  20692711.826     -249155.223     -173841.277    20692707.259        1730.903  
  23406534.236     -297383.699     -199271.777    23406534.135        2089.111  
  22570442.223      260929.664      183476.805    22570439.440       -1886.558  
  21274593.623      165923.723      115722.652    21274590.965       -1229.531  
 15  1 28  5 55  4.0000000  0  7G24G12G22G18G14G15G21               
  20493789.626      116934.098       83622.852    20493787.742        -938.843  
  23368337.467     -254676.910           0.000           0.000        2879.546  
  22690350.473     -427652.613     -301442.383    22690344.324        3018.223  
  20692382.612     -250885.910     -175189.863    20692377.907        1730.532  
  23406136.580     -299472.664     -200899.535    23406136.470        2088.809  
  22570801.402      262816.359      184946.957    22570798.486       -1886.797  
  21274828.230      167153.594      116680.996    21274824.864       -1230.317  
 15  1 28  5 55  5.0000000  0  7G24G12G22G18G14G15G21               
  20493968.369      117873.293       84354.699    20493966.382        -939.556  
  23367789.112     -257556.305           0.000           0.000        2878.970  
  22689776.686     -430670.656     -303794.102    22689770.285        3018.032  
  20692053.421     -252616.117     -176538.078    20692048.317        1729.951  
  23405739.083     -301561.328     -202527.051    23405739.095        2088.560  
  22571160.368      264703.258      186417.262    22571157.412       -1886.978  
  21275062.373      168384.137      117639.852    21275058.976       -1230.864  
 15  1 28  5 55  6.0000000  0  7G24G12G22G18G14G15G21               
  20494147.096      118813.219       85087.113    20494145.607        -940.337  
  23367242.596     -260435.289           0.000           0.000        2878.916  
  22689201.948     -433688.477     -306145.648    22689195.625        3017.715  
  20691724.550     -254345.875     -177885.941    20691719.363        1729.478  
  23405342.510     -303649.656     -204154.320    23405342.052        2088.130  
  22571519.600      266590.379      187887.742    22571516.423       -1887.285  
  21275296.760      169615.406      118599.285    21275293.722       -1231.606  
 15  1 28  5 55  7.0000000  0  7G24G12G22G18G14G15G21               
  20494326.223      119753.973       85820.164    20494324.271        -941.187  
  23366694.364     -263313.906           0.000           0.000        2877.866  
  22688627.976     -436705.984     -308496.961    22688621.283        3017.358  
  20691395.419     -256075.137     -179233.426    20691390.151        1728.979  
  23404944.789     -305737.594     -205781.285    23404944.013        2087.813  
  22571878.499      268477.773      189358.441    22571875.266       -1887.588  
  21275531.491      170847.441      119559.309    21275527.730       -1232.441  
 15  1 28  5 55  8.0000000  0  7G24G12G22G18G14G15G21               
  20494505.389      120695.520       86553.832    20494503.428        -941.924  
  23366145.319     -266192.215           0.000           0.000        2878.032  
  22688054.072     -439723.176     -310848.020    22688047.275        3017.041  
  20691066.495     -257803.859     -180580.477    20691061.624        1728.467  
  23404547.731     -307825.184     -207407.973    23404547.465        2087.466  
  22572237.699      270365.398      190829.320    22572234.787       -1887.764  
  21275765.594      172080.234      120519.926    21275762.499       -1233.213  
 15  1 28  5 55  9.0000000  0  7G24G12G22G18G14G15G21               
  20494684.212      121637.852       87288.113    20494682.946        -942.617  
  23365597.510     -269069.984           0.000           0.000        2877.246  
  22687479.818     -442740.098     -313198.871    22687473.511        3016.851  
  20690737.410     -259532.105     -181927.164    20690732.823        1728.130  
  23404150.004     -309912.395     -209034.363    23404150.024        2086.982  
  22572596.649      272253.309      192300.422    22572594.426       -1888.018  
  21276000.278      173313.762      121481.117    21275997.313       -1233.853  
 15  1 28  5 55 10.0000000  0  7G24G12G22G18G14G15G21               
  20494863.955      122580.930       88022.980    20494862.126        -943.423  
  23365050.744     -271947.402           0.000           0.000        2877.339  
  22686905.084     -445756.773     -315549.523    22686899.221        3016.563  
  20690408.663     -261259.836     -183273.449    20690403.848        1727.544  
  23403753.398     -311999.270     -210660.492    23403752.516        2086.738  
  22572956.414      274141.441      193771.695    22572953.477       -1888.267  
  21276235.247      174548.016      122442.863    21276231.980       -1234.624  
 15  1 28  5 55 11.0000000  0  7G24G12G22G18G14G15G21               
  20495043.644      123524.715       88758.395    20495041.787        -944.214  
  23364504.324     -274824.527           0.000           0.000        2877.271  
  22686331.275     -448773.227     -317900.004    22686325.457        3016.401  
  20690080.012     -262987.172     -184619.426    20690074.847        1727.124  
  23403356.026     -314085.836     -212286.387    23403356.115        2086.353  
  22573315.579      276029.758      195243.105    22573312.656       -1888.433  
  21276470.330      175782.930      123405.133    21276466.898       -1235.298  
 15  1 28  5 55 12.0000000  0  7G24G12G22G18G14G15G21               
  20495223.458      124469.262       89494.398    20495221.552        -944.951  
  23363957.301     -277701.223           0.000           0.000        2876.416  
  22685757.647     -451789.395     -320250.254    22685751.248        3016.060  
  20689751.331     -264713.988     -185964.996    20689746.430        1726.533  
  23402959.392     -316172.105     -213912.047    23402958.690        2086.172  
  22573674.990      277918.309      196714.699    22573671.767       -1888.687  
  21276705.260      177018.578      124367.977    21276702.251       -1235.967  
 15  1 28  5 55 13.0000000  0  7G24G12G22G18G14G15G21               
  20495403.022      125414.574       90231.016    20495401.504        -945.644  
  23363409.442     -280577.594           0.000           0.000        2876.416  
  22685184.367     -454805.262     -322600.281    22685177.440        3015.811  
  20689422.930     -266440.348     -187310.215    20689417.814        1726.162  
  23402563.111     -318257.996     -215537.410    23402561.969        2085.850  
  22574034.544      279807.105      198186.484    22574031.779       -1888.828  
  21276940.913      178254.961      125331.387    21276937.007       -1236.704  
 15  1 28  5 55 14.0000000  0  7G24G12G22G18G14G15G21               
  20495583.345      126360.680       90968.234    20495581.598        -946.440  
  23362861.738     -283453.586           0.000           0.000        2876.392  
  22684610.120     -457820.859     -324950.094    22684603.708        3015.537  
  20689094.641     -268166.180     -188655.016    20689089.459        1725.557  
  23402166.141     -320343.488     -217162.465    23402164.875        2085.352  
  22574394.178      281696.145      199658.465    22574390.957       -1889.170  
  21277176.226      179492.082      126295.379    21277172.670       -1237.534  
 15  1 28  5 55 15.0000000  0  7G24G12G22G18G14G15G21               
  20495763.534      127307.617       91706.117    20495761.524        -947.324  
  23362314.641     -286328.973           0.000           0.000        2875.298  
  22684035.951     -460836.090     -327299.621    22684029.582        3015.127  
  20688765.921     -269891.453     -189999.383    20688761.273        1725.083  
  23401768.891     -322428.578     -218787.199    23401768.431        2084.844  
  22574753.430      283585.508      201130.695    22574750.532       -1889.497  
  21277411.972      180730.016      127260.004    21277408.461       -1238.276  
 15  1 28  5 55 16.0000000  0  7G24G12G22G18G14G15G21               
  20495944.031      128255.395       92444.645    20495942.093        -948.257  
  23361766.109     -289204.012           0.000           0.000        2874.434  
  22683462.098     -463851.000     -329648.902    22683456.354        3014.790  
  20688437.771     -271616.152     -191343.309    20688433.234        1724.399  
  23401372.146     -324513.273     -220411.633    23401371.547        2084.517  
  22575113.158      285475.172      202603.156    22575110.370       -1889.834  
  21277647.758      181968.750      128225.250    21277644.254       -1239.150  
 15  1 28  5 55 17.0000000  0  7G24G12G22G18G14G15G21               
  20496124.787      129203.957       93183.789    20496122.429        -949.043  
  23361220.156     -292078.637           0.000           0.000        2874.341  
  22682888.565     -466865.578     -331997.922    22682882.405        3014.350  
  20688109.660     -273340.375     -192686.855    20688104.802        1724.023  
  23400975.107     -326597.570     -222035.754    23400974.653        2084.116  
  22575473.023      287365.109      204075.836    22575470.208       -1890.088  
  21277883.406      183208.227      129191.074    21277879.685       -1239.878  
 15  1 28  5 55 18.0000000  0  7G24G12G22G18G14G15G21               
  20496305.197      130153.332       93923.555    20496303.589        -949.766  
  23360672.923     -294952.859           0.000           0.000        2873.803  
  22682314.341     -469879.891     -334346.734    22682309.040        3014.189  
  20687781.854     -275064.055     -194029.980    20687776.715        1723.379  
  23400578.344     -328681.473     -223659.570    23400577.993        2083.691  
  22575832.378      289255.320      205548.723    22575829.401       -1890.264  
  21278119.539      184448.461      130157.488    21278115.631       -1240.562  
 15  1 28  5 55 19.0000000  0  7G24G12G22G18G14G15G21               
  20496486.000      131103.516       94663.961    20496484.111        -950.581  
  23360125.872     -297826.645           0.000           0.000        2873.354  
  22681741.372     -472893.871     -336695.285    22681735.315        3013.843  
  20687453.948     -276787.203     -195372.695    20687448.896        1722.901  
  23400182.039     -330765.008     -225283.090    23400181.547        2083.291  
  22576192.169      291145.828      207021.848    22576189.245       -1890.654  
  21278355.396      185689.480      131124.512    21278352.374       -1241.387  
 15  1 28  5 55 20.0000000  0  7G24G12G22G18G14G15G21               
  20496666.743      132054.480       95404.965    20496665.326        -951.338  
  23359578.845     -300700.059           0.000           0.000        2873.149  
  22681168.027     -475907.527     -339043.586    22681161.945        3013.555  
  20687126.102     -278509.832     -196715.004    20687121.315        1722.393  
  23399786.216     -332848.156     -226906.324    23399785.423        2082.881  
  22576552.093      293036.570      208495.148    22576549.299       -1890.884  
  21278591.946      186931.250      132092.121    21278588.976       -1242.046  
 15  1 28  5 55 21.0000000  0  7G24G12G22G18G14G15G21               
  20496848.397      133006.266       96146.617    20496846.403        -952.148  
  23359032.926     -303572.977           0.000           0.000        2872.764  
  22680594.541     -478920.871     -341391.641    22680588.600        3013.223  
  20686798.447     -280231.953     -198056.914    20686793.662        1721.919  
  23399389.561     -334930.922     -228529.258    23399389.035        2082.539  
  22576911.990      294927.594      209968.668    22576908.884       -1891.133  
  21278828.306      188173.797      133060.336    21278824.793       -1242.944  
 15  1 28  5 55 22.0000000  0  7G24G12G22G18G14G15G21               
  20497029.142      133958.906       96888.934    20497027.561        -953.086  
  23358486.154     -306445.527           0.000           0.000        2872.407  
  22680021.328     -481933.875     -343739.438    22680015.089        3012.798  
  20686470.686     -281953.496     -199398.379    20686466.149        1721.196  
  23398992.606     -337013.277     -230151.879    23398992.721        2082.168  
  22577271.504      296818.934      211442.441    22577268.876       -1891.470  
  21279064.649      189417.145      134029.180    21279061.532       -1243.784  
 15  1 28  5 55 23.0000000  0  7G24G12G22G18G14G15G21               
  20497210.783      134912.277       97631.828    20497208.814        -953.696  
  23357940.817     -309317.652           0.000           0.000        2872.031  
  22679447.685     -484946.629     -346087.043    22679441.889        3012.612  
  20686143.479     -283674.574     -200739.477    20686138.818        1720.840  
  23398597.218     -339095.293     -231774.215    23398596.362        2081.973  
  22577631.914      298710.508      212916.395    22577628.802       -1891.655  
  21279301.708      190661.211      134998.578    21279298.279       -1244.404  
 15  1 28  5 55 24.0000000  0  7G24G12G22G18G14G15G21               
  20497391.983      135866.457       98375.344    20497390.315        -954.590  
  23357395.190     -312189.355           0.000           0.000        2871.211  
  22678874.276     -487959.059     -348434.387    22678868.461        3012.251  
  20685816.140     -285395.105     -202080.156    20685811.248        1720.303  
  23398200.871     -341176.906     -233396.254    23398200.400        2081.416  
  22577991.594      300602.363      214390.566    22577988.798       -1891.992  
  21279538.189      191906.035      135968.566    21279535.280       -1245.181  
 15  1 28  5 55 25.0000000  0  7G24G12G22G18G14G15G21               
  20497574.035      136821.441       99119.484    20497572.338        -955.430  
  23356847.910     -315060.531           0.000           0.000        2870.747  
  22678301.411     -490971.211     -350781.516    22678295.375        3012.036  
  20685488.479     -287115.105     -203420.414    20685484.075        1719.717  
  23397805.488     -343258.121     -235017.984    23397804.200        2081.123  
  22578351.907      302494.488      215864.945    22578348.783       -1892.227  
  21279775.541      193151.648      136939.172    21279772.271       -1245.952  
 15  1 28  5 55 26.0000000  0  7G24G12G22G18G14G15G21               
  20497755.751      137777.254       99864.273    20497754.299        -956.196  
  23356302.706     -317931.426           0.000           0.000        2870.889  
  22677728.113     -493982.973     -353128.336    22677722.211        3011.631  
  20685161.774     -288834.559     -204760.246    20685156.493        1719.175  
  23397409.354     -345338.941     -236639.391    23397408.032        2080.610  
  22578712.079      304386.922      217339.566    22578709.195       -1892.603  
  21280012.860      194398.059      137910.406    21280009.607       -1246.816  
 15  1 28  5 55 27.0000000  0  7G24G12G22G18G14G15G21               
  20497937.953      138733.938      100609.746    20497936.586        -957.105  
  23355755.659     -320801.809           0.000           0.000        2870.234  
  22677155.132     -496994.371     -355474.871    22677148.989        3011.216  
  20684834.125     -290553.434     -206099.629    20684829.562        1718.628  
  23397013.615     -347419.320     -238260.465    23397012.487        2080.259  
  22579071.994      306279.668      218814.434    22579069.393       -1892.813  
  21280250.130      195645.293      138882.273    21280246.698       -1247.583  
 15  1 28  5 55 28.0000000  0  7G24G12G22G18G14G15G21               
  20498119.980      139691.477      101355.879    20498118.773        -958.047  
  23355208.971     -323671.711           0.000           0.000        2869.497  
  22676581.876     -500005.445     -357821.156    22676575.976        3010.898  
  20684507.718     -292271.711     -207438.547    20684502.668        1717.983  
  23396617.886     -349499.246     -239881.180    23396616.432        2079.624  
  22579432.436      308172.777      220289.582    22579429.414       -1893.345  
  21280487.619      196893.336      139854.770    21280484.229       -1248.472  
 15  1 28  5 55 29.0000000  0  7G24G12G22G18G14G15G21               
  20498302.505      140649.809      102102.625    20498300.882        -958.735  
  23354660.111     -326541.176           0.000           0.000        2869.033  
  22676009.166     -503016.125     -360167.137    22676003.138        3010.513  
  20684180.409     -293989.457     -208777.051    20684175.622        1717.480  
  23396222.013     -351578.770     -241501.582    23396220.719        2079.346  
  22579792.635      310066.172      221764.957    22579789.743       -1893.560  
  21280725.476      198142.168      140827.887    21280722.007       -1249.258  
 15  1 28  5 55 30.0000000  0  7G24G12G22G18G14G15G21               
  20498485.110      141608.941      102850.008    20498483.878        -959.546  
  23354114.794     -329410.184           0.000           0.000        2868.857  
  22675436.429     -506026.539     -362512.914    22675430.490        3010.288  
  20683853.644     -295706.691     -210115.164    20683849.065        1717.026  
  23395826.100     -353657.941     -243121.711    23395824.977        2078.984  
  22580153.073      311959.813      223240.516    22580150.433       -1893.789  
  21280962.958      199391.730      141801.566    21280960.004       -1249.946  
 15  1 28  5 55 31.0000000  0  7G24G12G22G18G14G15G21               
  20498667.843      142568.820      103597.961    20498666.058        -960.229  
  23353570.016     -332278.828           0.000           0.000        2868.379  
  22674863.542     -509036.699     -364858.492    22674857.746        3010.015  
  20683526.839     -297423.457     -211452.902    20683522.349        1716.592  
  23395431.057     -355736.789     -244741.586    23395429.602        2078.726  
  22580513.492      313853.664      224716.246    22580510.906       -1893.984  
  21281200.807      200642.039      142775.832    21281197.532       -1250.664  
 15  1 28  5 55 32.0000000  0  7G24G12G22G18G14G15G21               
  20498850.590      143529.430      104346.484    20498849.153        -960.908  
  23353023.003     -335147.184           0.000           0.000        2867.866  
  22674290.262     -512046.629     -367203.895    22674285.049        3009.848  
  20683200.675     -299139.773     -212790.289    20683195.831        1716.060  
  23395035.053     -357815.313     -246361.207    23395033.887        2078.403  
  22580874.394      315747.703      226192.121    22580871.155       -1894.038  
  21281438.985      201892.988      143750.594    21281435.605       -1251.304  
 15  1 28  5 55 33.0000000  0  7G24G12G22G18G14G15G21               
  20499033.559      144490.746      105095.563    20499031.723        -961.655  
  23352477.615     -338015.133           0.000           0.000        2867.593  
  22673717.864     -515056.348     -369549.133    22673712.415        3009.619  
  20682873.793     -300855.688     -214127.363    20682869.508        1715.703  
  23394638.980     -359893.555     -247980.613    23394638.489        2078.135  
  22581234.490      317641.965      227668.168    22581231.634       -1894.317  
  21281676.964      203144.641      144725.902    21281673.687       -1251.997  
 15  1 28  5 55 34.0000000  0  7G24G12G22G18G14G15G21               
  20499216.343      145452.789      105845.211    20499215.149        -962.461  
  23351931.287     -340882.859           0.000           0.000        2867.617  
  22673145.467     -518065.820     -371894.168    22673139.539        3009.277  
  20682547.299     -302571.137     -215464.074    20682542.693        1715.244  
  23394243.921     -361971.508     -249599.789    23394243.074        2077.788  
  22581595.231      319536.395      229144.340    22581591.771       -1894.575  
  21281915.608      204396.945      145701.727    21281912.581       -1252.656  
 15  1 28  5 55 35.0000000  0  7G24G12G22G18G14G15G21               
  20499399.980      146415.512      106595.379    20499398.316        -963.062  
  23351386.120     -343750.156           0.000           0.000        2867.329  
  22672572.877     -521075.078     -374239.039    22672567.449        3009.263  
  20682220.948     -304286.133     -216800.434    20682216.274        1714.858  
  23393849.162     -364049.141     -251218.727    23393847.679        2077.637  
  22581955.383      321431.027      230620.676    22581952.618       -1894.717  
  21282153.589      205649.965      146678.105    21282150.704       -1253.296  
 15  1 28  5 55 36.0000000  0  6G24G22G18G14G15G21                  
  20499583.083      147378.992      107346.145    20499581.521        -963.936  
  22672000.314     -524084.070     -376583.707    22671994.579        3008.809  
  20681894.590     -306000.656     -218136.430    20681890.102        1714.272  
  23393453.566     -366126.465     -252837.414    23393452.092        2077.051  
  22582315.947      323325.855      232097.164    22582312.838       -1895.000  
  21282392.466      206903.688      147655.023    21282389.385       -1254.160  
 15  1 28  5 55 37.0000000  0  6G24G22G18G14G15G21                  
  20499766.871      148343.273      108097.531    20499764.929        -964.775  
  22671427.770     -527092.773     -378928.148    22671421.884        3008.574  
  20681568.455     -307714.688     -219472.035    20681563.886        1713.770  
  23393058.160     -368203.379     -254455.781    23393056.854        2076.777  
  22582676.349      325220.961      233573.867    22582674.137       -1895.249  
  21282631.136      208158.137      148632.516    21282628.054       -1254.863  
 15  1 28  5 55 38.0000000  0  6G24G22G18G14G15G21                  
  20499950.402      149308.270      108849.480    20499948.748        -965.381  
  22670854.985     -530101.227     -381272.395    22670849.056        3008.394  
  20681242.410     -309428.246     -220807.277    20681237.883        1713.291  
  23392663.022     -370280.000     -256073.926    23392661.698        2076.514  
  22583037.028      327116.281      235050.742    22583034.347       -1895.430  
  21282870.175      209413.301      149610.566    21282866.858       -1255.503  
 15  1 28  5 55 39.0000000  0  6G24G22G18G14G15G21                  
  20500134.173      150273.984      109601.980    20500132.267        -965.981  
  22670283.049     -533109.461     -383616.477    22670276.932        3008.159  
  20680916.747     -311141.383     -222142.195    20680912.109        1713.018  
  23392268.311     -372356.336     -257691.840    23392267.135        2076.162  
  22583397.983      329011.766      236527.734    22583395.500       -1895.591  
  21283109.137      210669.141      150589.137    21283106.053       -1256.167  
 15  1 28  5 55 40.0000000  0  6G24G22G18G14G15G21                  
  20500318.024      151240.383      110355.020    20500316.310        -966.758  
  22669710.523     -536117.496     -385960.398    22669704.183        3007.930  
  20680590.634     -312854.102     -223476.781    20680586.284        1712.451  
  23391873.032     -374432.418     -259309.566    23391871.838        2075.840  
  22583758.892      330907.402      238004.859    22583756.152       -1895.728  
  21283348.209      211925.602      151568.199    21283344.786       -1256.816  
 15  1 28  5 55 41.0000000  0  6G24G22G18G14G15G21                  
  20500501.953      152207.527      111108.637    20500500.062        -967.495  
  22669137.768     -539125.273     -388304.129    22669132.120        3007.544  
  20680264.893     -314566.359     -224811.004    20680260.346        1712.046  
  23391477.295     -376508.164     -260927.016    23391476.774        2075.601  
  22584119.224      332803.273      239482.164    22584116.768       -1896.016  
  21283587.555      213182.781      152547.816    21283583.967       -1257.568  
 15  1 28  5 55 42.0000000  0  6G24G22G18G14G15G21                  
  20500686.097      153175.406      111862.828    20500684.295        -968.228  
  22668565.589     -542132.820     -390647.660    22668559.825        3007.314  
  20679939.165     -316278.145     -226144.859    20679934.148        1711.567  
  23391082.662     -378583.578     -262544.207    23391082.094        2075.273  
  22584480.339      334699.355      240959.629    22584477.449       -1896.201  
  21283826.477      214440.652      153527.980    21283823.360       -1258.237  
 15  1 28  5 55 43.0000000  0  6G24G22G18G14G15G21                  
  20500870.349      154144.078      112617.637    20500868.742        -968.975  
  22667992.887     -545140.023     -392990.930    22667987.774        3006.992  
  20679613.090     -317989.398     -227478.297    20679608.779        1711.079  
  23390687.766     -380658.590     -264161.098    23390687.245        2074.941  
  22584841.434      336595.719      242437.309    22584838.623       -1896.431  
  21284066.137      215699.328      154508.766    21284063.060       -1259.019  
 15  1 28  5 55 44.0000000  0  6G24G22G18G14G15G21                  
  20501054.839      155113.430      113372.984    20501053.094        -969.746  
  22667421.637     -548147.070     -395334.074    22667415.719        3006.909  
  20679287.561     -319700.215     -228811.402    20679283.034        1710.679  
  23390293.623     -382733.352     -265777.813    23390292.375        2074.619  
  22585201.928      338492.238      243915.121    22585199.058       -1896.587  
  21284305.728      216958.637      155490.043    21284302.681       -1259.629  
 15  1 28  5 55 45.0000000  0  6G24G22G18G14G15G21                  
  20501239.841      156083.457      114128.844    20501237.737        -970.386  
  22666848.813     -551153.887     -397677.043    22666843.631        3006.699  
  20678962.155     -321410.672     -230144.230    20678957.678        1710.234  
  23389898.205     -384807.805     -267394.258    23389897.595        2074.277  
  22585562.864      340388.914      245393.047    22585560.124       -1896.753  
  21284545.731      218218.570      156471.809    21284542.249       -1260.381  
 15  1 28  5 55 46.0000000  0  6G24G22G18G14G15G21                  
  20501424.605      157054.234      114885.293    20501422.519        -971.011  
  22666276.478     -554160.449     -400019.828    22666271.303        3006.484  
  20678637.157     -323120.633     -231476.664    20678632.350        1709.785  
  23389503.458     -386882.000     -269010.500    23389502.678        2074.092  
  22585924.058      342285.816      246871.148    22585920.980       -1897.007  
  21284785.747      219479.223      157454.129    21284782.352       -1260.986  
 15  1 28  5 55 47.0000000  0  6G24G22G18G14G15G21                  
  20501609.273      158025.730      115642.301    20501607.641        -971.826  
  22665704.557     -557166.801     -402362.441    22665698.920        3006.245  
  20678311.288     -324830.156     -232808.754    20678307.147        1709.263  
  23389109.022     -388955.863     -270626.484    23389107.733        2073.667  
  22586284.925      344182.898      248349.387    22586282.119       -1897.144  
  21285025.339      220740.547      158436.977    21285022.218       -1261.694  
 15  1 28  5 55 48.0000000  0  6G24G22G18G14G15G21                  
  20501794.132      158997.992      116399.910    20501792.189        -972.715  
  22665132.589     -560172.863     -404704.824    22665127.023        3005.845  
  20677985.948     -326539.180     -234140.465    20677981.837        1708.740  
  23388714.987     -391029.379     -272242.203    23388713.013        2073.364  
  22586645.926      346080.234      249827.828    22586643.625       -1897.500  
  21285265.663      222002.594      159420.383    21285262.490       -1262.397  
 15  1 28  5 55 49.0000000  0  6G24G22G18G14G15G21                  
  20501979.178      159971.020      117158.117    20501978.008        -973.350  
  22664560.514     -563178.676     -407047.016    22664554.702        3005.791  
  20677661.004     -328247.734     -235471.805    20677656.709        1708.320  
  23388320.079     -393102.574     -273857.680    23388318.815        2073.003  
  22587006.854      347977.777      251306.422    22587004.365       -1897.505  
  21285505.840      223265.371      160404.363    21285502.810       -1263.066  
 15  1 28  5 55 50.0000000  0  6G24G22G18G14G15G21                  
  20502164.365      160944.797      117916.906    20502163.294        -974.126  
  22663989.030     -566184.223     -409388.992    22663982.990        3005.352  
  20677335.993     -329955.801     -236802.770    20677331.863        1707.812  
  23387925.408     -395175.445     -275472.902    23387924.216        2072.700  
  22587368.335      349875.543      252785.203    22587365.696       -1897.852  
  21285746.254      224528.832      161388.875    21285743.133       -1263.823  
 15  1 28  5 55 51.0000000  0  6G24G22G18G14G15G21                  
  20502349.969      161919.180      118676.164    20502348.268        -974.702  
  22663417.206     -569189.668     -411730.895    22663411.355        3005.400  
  20677011.337     -331663.551     -238133.488    20677006.503        1707.549  
  23387531.190     -397248.121     -277087.973    23387529.835        2072.578  
  22587729.514      351773.387      254264.035    22587726.896       -1897.900  
  21285986.919      225792.871      162373.836    21285984.136       -1264.312  
 15  1 28  5 55 52.0000000  0  6G24G22G18G14G15G21                  
  20502535.358      162894.109      119435.848    20502534.160        -975.210  
  22662845.643     -572195.023     -414072.723    22662839.039        3005.244  
  20676686.356     -333371.004     -239463.973    20676681.671        1707.290  
  23387137.221     -399320.629     -278702.922    23387135.388        2072.441  
  22588090.456      353671.266      255742.902    22588088.041       -1897.915  
  21286227.578      227057.441      163359.215    21286224.560       -1264.834  
 15  1 28  5 55 53.0000000  0  6G24G22G18G14G15G21                  
  20502720.944      163869.695      120196.043    20502719.446        -975.942  
  22662273.183     -575200.199     -416414.418    22662267.596        3004.995  
  20676361.414     -335078.074     -240794.152    20676357.250        1706.851  
  23386742.257     -401392.949     -280317.707    23386741.041        2072.280  
  22588452.114      355569.258      257221.859    22588449.549       -1898.022  
  21286468.673      228322.613      164345.063    21286465.268       -1265.420  
 15  1 28  5 55 54.0000000  0  6G24G22G18G14G15G21                  
  20502907.103      164845.898      120956.715    20502905.721        -976.577  
  22661701.468     -578205.242     -418756.016    22661695.690        3004.917  
  20676036.369     -336784.781     -242124.055    20676032.128        1706.445  
  23386347.937     -403465.004     -281932.285    23386346.683        2071.826  
  22588813.104      357467.387      258700.926    22588810.287       -1898.232  
  21286709.324      229588.418      165331.406    21286706.022       -1266.157  
 15  1 28  5 55 55.0000000  0  6G24G22G18G14G15G21                  
  20503093.007      165822.805      121717.941    20503091.097        -977.241  
  22661129.761     -581210.090     -421097.457    22661123.911        3004.854  
  20675712.076     -338491.070     -243453.629    20675707.395        1706.113  
  23385953.866     -405536.793     -283546.656    23385952.636        2071.597  
  22589174.233      359365.672      260180.109    22589171.534       -1898.398  
  21286949.998      230854.836      166318.227    21286946.876       -1266.733  
 15  1 28  5 55 56.0000000  0  6G24G22G18G14G15G21                  
  20503279.014      166800.348      122479.664    20503277.245        -977.832  
  22660557.606     -584214.746     -423438.742    22660552.756        3004.522  
  20675387.309     -340196.980     -244782.902    20675382.983        1705.669  
  23385559.738     -407608.387     -285160.887    23385558.228        2071.465  
  22589535.402      361264.078      261659.387    22589532.641       -1898.472  
  21287191.237      232121.895      167305.535    21287188.389       -1267.437  
 15  1 28  5 55 57.0000000  0  6G24G22G18G14G15G21                  
  20503465.091      167778.496      123241.859    20503463.602        -978.418  
  22659986.871     -587219.301     -425779.949    22659980.655        3004.453  
  20675062.790     -341902.566     -246111.930    20675058.656        1705.396  
  23385166.024     -409679.738     -286774.922    23385164.087        2071.382  
  22589896.625      363162.555      263138.719    22589893.763       -1898.501  
  21287432.644      233389.504      168293.281    21287429.382       -1267.988  
 15  1 28  5 55 58.0000000  0  6G24G22G18G14G15G21                  
  20503651.555      168757.277      124004.543    20503649.993        -979.067  
  22659414.387     -590223.727     -428121.055    22659408.658        3004.395  
  20674738.107     -343607.777     -247440.668    20674733.869        1705.122  
  23384771.241     -411750.934     -288388.836    23384770.006        2071.157  
  22590257.951      365061.156      264618.152    22590255.386       -1898.657  
  21287673.738      234657.699      169281.480    21287671.017       -1268.560  
 15  1 28  5 55 59.0000000  0  6G24G22G18G14G15G21                  
  20503837.612      169736.699      124767.734    20503836.416        -979.868  
  22658842.994     -593228.012     -430462.047    22658837.128        3004.165  
  20674414.217     -345312.656     -248769.145    20674409.533        1704.629  
  23384377.254     -413821.895     -290002.566    23384376.040        2070.742  
  22590619.763      366959.840      266097.641    22590617.225       -1898.799  
  21287915.494      235926.488      170270.137    21287912.145       -1269.189  
 15  1 28  5 56  0.0000000  0  6G24G22G18G14G15G21                  
  20504024.235      170716.738      125531.395    20504022.532        -980.391  
  22658271.170     -596232.148     -432802.934    22658265.506        3004.058  
  20674089.268     -347017.180     -250097.348    20674084.867        1704.307  
  23383982.878     -415892.648     -291616.141    23383981.580        2070.684  
  22590980.969      368858.633      267577.223    22590978.049       -1898.892  
  21288156.884      237195.840      171259.246    21288153.586       -1269.678  
 15  1 28  5 56  1.0000000  0  6G24G22G18G14G15G21                  
  20504211.015      171697.523      126295.645    20504208.798        -981.245  
  22657699.406     -599236.012     -435143.602    22657694.031        3003.682  
  20673765.357     -348721.227     -251425.168    20673760.806        1703.813  
  23383589.122     -417963.090     -293229.465    23383587.847        2070.322  
  22591342.396      370757.641      269056.965    22591339.783       -1899.111  
  21288398.634      238465.930      172248.926    21288395.375       -1270.513  
 15  1 28  5 56  2.0000000  0  7G24G22G25G18G14G15G21               
  20504398.028      172679.094      127060.504    20504396.024        -981.846  
  22657128.141     -602239.605     -437484.063    22657122.361        3003.560  
  24650690.788      -35054.758           0.000           0.000        3374.121  
  20673440.905     -350424.758     -252752.602    20673436.186        1703.350  
  23383194.925     -420033.133     -294842.477    23383193.662        2069.966  
  22591703.187      372656.910      270536.910    22591700.773       -1899.360  
  21288640.503      239736.734      173239.164    21288637.297       -1271.162  
 15  1 28  5 56  3.0000000  0  7G24G22G25G18G14G15G21               
  20504584.356      173661.375      127825.918    20504582.829        -982.598  
  22656556.352     -605242.949     -439824.332    22656551.076        3003.213  
  24650048.576      -38428.961           0.000           0.000        3374.072  
  20673116.877     -352127.844     -254079.688    20673112.402        1702.842  
  23382801.836     -422102.902     -296455.277    23382800.217        2069.619  
  22592064.494      374556.363      272017.000    22592062.233       -1899.521  
  21288882.505      241008.254      174229.957    21288879.102       -1271.885  
 15  1 28  5 56  4.0000000  0  7G24G22G25G18G14G15G21               
  20504771.927      174644.457      128591.953    20504770.174        -983.481  
  22655985.481     -608246.012     -442164.375    22655979.559        3002.847  
  24649406.184      -41803.090           0.000           0.000        3374.063  
  20672793.094     -353830.422     -255406.367    20672788.412        1702.261  
  23382407.670     -424172.301     -298067.789    23382406.220        2069.258  
  22592426.291      376456.090      273497.305    22592423.868       -1899.834  
  21289124.730      242280.520      175221.328    21289121.503       -1272.642  
 15  1 28  5 56  5.0000000  0  7G24G22G25G18G14G15G21               
  20504958.780      175628.371      129358.641    20504957.213        -984.336  
  22655413.946     -611248.715     -444504.145    22655407.765        3002.539  
  24648764.428      -45177.141           0.000           0.000        3374.023  
  20672469.347     -355532.434     -256732.609    20672464.593        1701.753  
  23382013.684     -426241.285     -299679.977    23382012.647        2068.789  
  22592787.941      378356.117      274977.840    22592785.213       -1900.132  
  21289366.639      243553.551      176213.301    21289363.462       -1273.403  
 15  1 28  5 56  6.0000000  0  7G24G22G25G18G14G15G21               
  20505146.285      176613.098      130125.961    20505144.442        -985.195  
  22654841.993     -614251.086     -446843.648    22654836.924        3002.119  
  24648121.729      -48551.016           0.000           0.000        3373.843  
  20672145.241     -357233.895     -258058.422    20672140.762        1701.143  
  23381619.973     -428309.859     -301291.844    23381618.815        2068.276  
  22593150.068      380256.434      276458.602    22593147.018       -1900.483  
  21289608.917      244827.391      177205.895    21289606.022       -1274.204  
 15  1 28  5 56  7.0000000  0  7G24G22G25G18G14G15G21               
  20505333.862      177598.711      130893.973    20505332.102        -986.011  
  22654271.081     -617253.066     -449182.844    22654265.356        3001.772  
  24647479.378      -51924.742           0.000           0.000        3373.584  
  20671821.798     -358934.746     -259383.762    20671817.419        1700.684  
  23381226.563     -430377.961     -302903.355    23381225.137        2067.920  
  22593511.380      382157.109      277939.648    22593508.398       -1900.830  
  21289851.795      246102.039      178199.129    21289848.738       -1274.956  
 15  1 28  5 56  8.0000000  0  7G24G22G25G18G14G15G21               
  20505521.293      178585.160      131662.633    20505520.029        -986.880  
  22653699.815     -620254.676     -451521.762    22653694.234        3001.387  
  24646838.677      -55298.359           0.000           0.000        3373.423  
  20671497.769     -360635.016     -260708.641    20671493.775        1699.927  
  23380833.801     -432445.621     -304514.512    23380831.828        2067.344  
  22593873.202      384058.102      279420.945    22593870.523       -1901.182  
  21290094.263      247377.531      179193.020    21290091.214       -1275.903  
 15  1 28  5 56  9.0000000  0  7G24G22G25G18G14G15G21               
  20505709.379      179572.422      132431.926    20505707.590        -987.681  
  22653128.930     -623255.965     -453860.434    22653123.062        3001.079  
  24646196.299      -58671.848           0.000           0.000        3373.418  
  20671174.528     -362334.746     -262033.117    20671170.021        1699.419  
  23380439.686     -434512.945     -306125.410    23380438.535        2067.104  
  22594234.958      385959.383      280902.465    22594232.226       -1901.538  
  21290337.657      248653.789      180187.504    21290333.990       -1276.714  
 15  1 28  5 56 10.0000000  0  7G24G22G25G18G14G15G21               
  20505897.362      180560.492      133201.855    20505896.020        -988.486  
  22652558.055     -626256.945     -456198.871    22652552.131        3000.908  
  24645554.185      -62045.266           0.000           0.000        3373.530  
  20670851.447     -364033.957     -263357.176    20670846.785        1698.931  
  23380046.895     -436579.809     -307735.949    23380045.361        2066.680  
  22594596.486      387860.930      282384.188    22594593.840       -1901.675  
  21290580.353      249930.809      181182.578    21290577.169       -1277.441  
 15  1 28  5 56 11.0000000  0  7G24G22G25G18G14G15G21               
  20506085.144      181549.313      133972.363    20506083.931        -989.170  
  22651986.947     -629257.637     -458537.070    22651980.687        3000.567  
  24644912.428      -65418.602           0.000           0.000        3373.193  
  20670527.951     -365732.672     -264680.848    20670523.217        1698.438  
  23379653.364     -438646.367     -309346.242    23379652.179        2066.392  
  22594958.616      389762.738      283866.113    22594955.937       -1901.958  
  21290823.173      251208.551      182178.219    21290820.392       -1278.120  
 15  1 28  5 56 12.0000000  0  7G24G22G25G18G14G15G21               
  20506273.732      182538.902      134743.473    20506271.709        -990.010  
  22651415.869     -632258.059     -460875.055    22651409.477        3000.302  
  24644270.845      -68791.934           0.000           0.000        3373.281  
  20670204.794     -367430.859     -266004.109    20670200.364        1697.974  
  23379259.523     -440712.523     -310956.230    23379258.785        2065.913  
  22595320.511      391664.781      285348.223    22595318.067       -1902.168  
  21291066.690      252487.027      183174.426    21291063.395       -1278.813  
 15  1 28  5 56 13.0000000  0  7G24G22G25G18G14G15G21               
  20506462.382      183529.270      135515.180    20506460.763        -990.811  
  22650844.970     -635258.188     -463212.809    22650838.785        2999.956  
  24643628.731      -72165.188           0.000           0.000        3373.237  
  20669881.489     -369128.590     -267327.012    20669877.335        1697.500  
  23378866.654     -442778.379     -312565.977    23378865.234        2065.645  
  22595682.330      393567.059      286830.512    22595679.796       -1902.368  
  21291309.881      253766.238      184171.215    21291306.829       -1279.590  
 15  1 28  5 56 14.0000000  0  7G24G22G25G18G14G15G21               
  20506650.817      184520.426      136287.516    20506649.205        -991.563  
  22650274.429     -638258.012     -465550.332    22650268.522        2999.639  
  24642987.007      -75538.367           0.000           0.000        3373.271  
  20669558.699     -370825.805     -268649.523    20669553.995        1696.948  
  23378473.701     -444843.852     -314175.430    23378472.287        2065.298  
  22596044.454      395469.590      288313.004    22596041.992       -1902.642  
  21291553.955      255046.184      185168.578    21291550.338       -1280.361  
 15  1 28  5 56 15.0000000  0  7G24G22G25G18G14G15G21               
  20506839.759      185512.270      137060.383    20506838.146        -992.158  
  22649703.124     -641257.641     -467887.699    22649697.276        2999.516  
  24642344.830      -78911.535           0.000           0.000        3373.115  
  20669235.437     -372522.563     -269971.672    20669231.321        1696.460  
  23378080.628     -446909.023     -315784.648    23378079.679        2064.990  
  22596406.413      397372.313      289795.645    22596403.878       -1902.817  
  21291797.594      256326.793      186166.453    21291794.092       -1280.898  
 15  1 28  5 56 16.0000000  0  7G24G22G25G18G14G15G21               
  20507028.294      186504.832      137833.813    20507026.708        -992.998  
  22649132.517     -644257.023     -470224.879    22649126.313        2999.278  
  24641703.275      -82284.719           0.000           0.000        3373.403  
  20668913.208     -374218.867     -271293.469    20668908.650        1695.977  
  23377687.881     -448973.910     -317393.648    23377686.495        2064.766  
  22596768.940      399275.215      291278.430    22596766.172       -1902.969  
  21292041.386      257608.105      187164.875    21292037.899       -1281.611  
 15  1 28  5 56 17.0000000  0  7G24G22G25G18G14G15G21               
  20507217.299      187498.039      138607.742    20507216.072        -993.613  
  22648561.943     -647256.203     -472561.895    22648555.693        2998.921  
  24641061.178      -85657.906           0.000           0.000        3373.281  
  20668590.291     -375914.809     -272614.980    20668585.779        1695.654  
  23377294.941     -451038.516     -319002.430    23377293.463        2064.600  
  22597130.952      401178.289      292761.344    22597128.298       -1903.237  
  21292285.199      258890.063      188163.801    21292281.895       -1282.314  
 15  1 28  5 56 18.0000000  0  7G24G22G25G18G14G15G21               
  20507406.668      188492.004      139382.258    20507404.846        -994.355  
  22647990.782     -650255.160     -474898.742    22647984.958        2998.838  
  24640419.718      -89031.070           0.000           0.000        3372.998  
  20668267.578     -377610.258     -273936.109    20668263.046        1695.234  
  23376902.184     -453102.785     -320610.949    23376900.877        2064.038  
  22597493.096      403081.574      294244.430    22597490.631       -1903.442  
  21292529.256      260172.723      189163.277    21292526.288       -1283.047  
 15  1 28  5 56 19.0000000  0  7G24G22G25G18G14G15G21               
  20507595.783      189486.723      140157.363    20507594.155        -995.088  
  22647420.119     -653253.809     -477235.355    22647414.261        2998.554  
  24639777.363      -92404.188           0.000           0.000        3372.842  
  20667944.795     -379305.199     -275256.844    20667940.393        1694.697  
  23376509.522     -455166.738     -322219.223    23376508.019        2063.760  
  22597855.670      404985.094      295727.684    22597852.861       -1903.594  
  21292773.544      261456.074      190163.285    21292770.066       -1283.687  
 15  1 28  5 56 20.0000000  0  7G24G22G25G18G14G15G21               
  20507785.292      190482.211      140933.063    20507783.439        -995.879  
  22646849.711     -656252.199     -479571.758    22646843.399        2998.286  
  24639135.699      -95777.293           0.000           0.000        3373.057  
  20667622.931     -380999.695     -276577.230    20667617.774        1694.326  
  23376116.975     -457230.367     -323827.238    23376115.272        2063.481  
  22598217.464      406888.809      297211.094    22598214.872       -1903.838  
  21293017.885      262740.164      191163.875    21293014.815       -1284.385  
 15  1 28  5 56 21.0000000  0  7G24G22G25G18G14G15G21               
  20507975.020      191478.402      141709.316    20507973.102        -996.611  
  22646279.476     -659250.348     -481907.984    22646273.253        2997.954  
  24638492.615      -99150.406           0.000           0.000        3372.861  
  20667300.633     -382693.711     -277897.246    20667295.834        1693.779  
  23375724.146     -459293.672     -325435.012    23375722.608        2063.145  
  22598580.017      408792.746      298694.672    22598577.140       -1904.019  
  21293262.423      264024.941      192164.996    21293259.434       -1285.195  
 15  1 28  5 56 22.0000000  0  7G24G22G25G18G14G15G21               
  20508164.508      192475.238      142486.074    20508163.127        -997.148  
  22645709.444     -662248.336     -484244.070    22645702.718        2997.881  
  24637851.606     -102523.531           0.000           0.000        3373.271  
  20666978.270     -384387.363     -279216.977    20666973.548        1693.477  
  23375331.021     -461356.742     -327042.594    23375329.706        2062.847  
  22598942.149      410696.797      300178.352    22598939.513       -1904.146  
  21293507.210      265310.309      193166.582    21293503.744       -1285.679  
 15  1 28  5 56 23.0000000  0  7G24G22G25G18G14G15G21               
  20508354.665      193472.801      143263.395    20508352.932        -997.900  
  22645138.184     -665246.090     -486579.977    22645132.352        2997.603  
  24637209.911     -105896.699           0.000           0.000        3373.257  
  20666655.877     -386080.555     -280536.340    20666651.324        1692.969  
  23374939.467     -463419.516     -328649.934    23374937.149        2062.617  
  22599304.254      412601.043      301662.184    22599302.045       -1904.312  
  21293751.689      266596.375      194168.707    21293748.356       -1286.387  
 15  1 28  5 56 24.0000000  0  7G24G22G25G18G14G15G21               
  20508544.410      194471.027      144041.234    20508542.508        -998.442  
  22644567.796     -668243.656     -488915.734    22644561.925        2997.446  
  24636568.632     -109269.836           0.000           0.000        3373.213  
  20666333.939     -387773.352     -281855.398    20666329.086        1692.622  
  23374546.521     -465482.027     -330257.082    23374544.727        2062.373  
  22599666.656      414505.441      303146.125    22599664.354       -1904.478  
  21293996.709      267883.070      195171.320    21293993.222       -1287.002  
 15  1 28  5 56 25.0000000  0  7G24G22G25G18G14G15G21               
  20508735.000      195470.031      144819.676    20508733.009        -999.458  
  22643997.394     -671240.961     -491251.297    22643991.402        2997.192  
  24635927.481     -112642.980           0.000           0.000        3372.886  
  20666011.612     -389465.648     -283174.078    20666007.077        1692.060  
  23374153.877     -467544.246     -331863.996    23374152.296        2062.031  
  22600029.569      416410.059      304630.242    22600026.554       -1904.717  
  21294241.553      269170.461      196174.488    21294238.253       -1287.744  
 15  1 28  5 56 26.0000000  0  7G24G22G25G18G14G15G21               
  20508924.844      196469.824      145598.738    20508922.961       -1000.239  
  22643427.445     -674237.934     -493586.602    22643421.269        2996.904  
  24635285.104     -116016.020           0.000           0.000        3372.852  
  20665689.769     -391157.414     -284492.344    20665685.127        1691.509  
  23373761.865     -469606.043     -333470.582    23373759.518        2061.704  
  22600392.463      418314.953      306114.574    22600389.104       -1905.015  
  21294486.494      270458.617      197178.242    21294482.925       -1288.452  
 15  1 28  5 56 27.0000000  0  7G24G22G25G18G14G15G21               
  20509114.960      197470.301      146378.328    20509113.515       -1000.791  
  22642857.468     -677234.695     -495921.742    22642850.956        2996.670  
  24634641.757     -119389.125           0.000           0.000        3373.228  
  20665367.925     -392848.750     -285810.262    20665363.518        1691.079  
  23373369.485     -471667.527     -335076.926    23373367.761        2061.387  
  22600754.078      420220.047      307599.063    22600751.649       -1905.298  
  21294731.655      271747.434      198182.512    21294728.592       -1289.106  
 15  1 28  5 56 28.0000000  0  7G24G22G25G18G14G15G21               
  20509305.674      198471.402      147158.418    20509304.292       -1001.362  
  22642286.385     -680231.348     -498256.797    22642280.296        2996.641  
  24634000.607     -122762.250           0.000           0.000        3373.247  
  20665045.825     -394539.754     -287127.930    20665041.449        1690.796  
  23372976.942     -473728.844     -336683.152    23372974.997        2061.255  
  22601117.072      422125.207      309083.602    22601114.266       -1905.239  
  21294977.268      273036.820      199187.227    21294973.524       -1289.658  
 15  1 28  5 56 29.0000000  0  7G24G22G25G18G14G15G21               
  20509496.116      199473.133      147938.984    20509494.560       -1002.114  
  22641716.308     -683227.844     -500591.719    22641710.089        2996.460  
  24633358.926     -126135.477           0.000           0.000        3373.355  
  20664724.088     -396230.418     -288445.328    20664719.725        1690.469  
  23372584.984     -475789.973     -338289.234    23372582.902        2061.045  
  22601479.479      424030.461      310568.211    22601476.961       -1905.371  
  21295223.140      274326.789      200192.395    21295219.225       -1290.215  
 15  1 28  5 56 30.0000000  0  7G24G22G25G18G14G15G21               
  20509686.849      200475.504      148720.047    20509685.436       -1002.690  
  22641146.452     -686224.129     -502926.473    22641140.301        2996.167  
  24632716.995     -129508.762           0.000           0.000        3373.296  
  20664402.839     -397920.672     -289762.414    20664398.125        1690.059  
  23372193.083     -477850.816     -339895.086    23372190.883        2060.708  
  22601841.531      425935.855      312052.930    22601839.466       -1905.498  
  21295468.378      275617.418      201198.082    21295465.081       -1290.986  
 15  1 28  5 56 31.0000000  0  7G24G22G25G18G14G15G21               
  20509877.930      201478.656      149501.727    20509876.010       -1003.550  
  22640576.413     -689220.168     -505261.047    22640569.778        2995.859  
  24632075.915     -132881.961           0.000           0.000        3373.320  
  20664081.107     -399610.430     -291079.109    20664076.445        1689.517  
  23371800.543     -479911.305     -341500.645    23371798.735        2060.229  
  22602205.096      427841.520      313537.867    22602202.093       -1905.806  
  21295714.419      276908.742      202204.301    21295710.551       -1291.714  
 15  1 28  5 56 32.0000000  0  7G24G22G25G18G14G15G21               
  20510069.012      202482.590      150284.012    20510067.268       -1004.399  
  22640006.579     -692215.891     -507595.375    22639999.611        2995.557  
  24631434.000     -136255.109           0.000           0.000        3373.110  
  20663759.935     -401299.641     -292395.375    20663754.985        1688.887  
  23371408.923     -481971.438     -343105.934    23371406.904        2059.971  
  22602567.322      429747.434      315022.988    22602564.721       -1906.074  
  21295960.034      278200.832      203211.125    21295956.544       -1292.544  
 15  1 28  5 56 33.0000000  0  7G24G22G25G18G14G15G21               
  20510260.395      203487.328      151066.926    20510258.580       -1005.210  
  22639435.638     -695211.293     -509929.453    22639429.411        2995.229  
  24630791.981     -139628.156           0.000           0.000        3372.832  
  20663438.218     -402988.340     -293711.246    20663433.857        1688.438  
  23371016.815     -484031.176     -344710.914    23371014.787        2059.604  
  22602930.255      431653.637      316508.340    22602927.284       -1906.343  
  21296205.890      279493.672      204218.531    21296202.656       -1293.228  
 15  1 28  5 56 34.0000000  0  7G24G22G25G18G14G15G21               
  20510451.073      204492.852      151850.441    20510449.729       -1005.850  
  22638866.618     -698206.371     -512263.277    22638859.780        2994.873  
  24630149.310     -143001.090           0.000           0.000        3372.900  
  20663116.822     -404676.484     -295026.684    20663112.439        1687.925  
  23370625.202     -486090.512     -346315.594    23370623.218        2059.136  
  22603293.471      433560.113      317993.906    22603290.332       -1906.636  
  21296452.552      280787.289      205226.539    21296448.959       -1293.901  
 15  1 28  5 56 35.0000000  0  7G24G22G25G18G14G15G21               
  20510642.647      205499.094      152634.535    20510641.391       -1006.621  
  22638296.651     -701201.199     -514596.914    22638289.828        2994.683  
  24629507.439     -146374.031           0.000           0.000        3372.949  
  20662796.084     -406364.180     -296341.766    20662791.226        1687.363  
  23370233.644     -488149.566     -347920.055    23370231.343        2058.931  
  22603655.505      435466.770      319479.617    22603652.706       -1906.792  
  21296698.697      282081.609      206235.098    21296695.053       -1294.717  
 15  1 28  5 56 36.0000000  0  7G24G22G25G18G14G15G21               
  20510834.173      206506.086      153419.199    20510832.390       -1007.280  
  22637726.642     -704195.801     -516930.359    22637719.746        2994.487  
  24628865.813     -149746.980           0.000           0.000        3373.047  
  20662474.956     -408051.422     -297656.504    20662470.343        1687.085  
  23369841.201     -490208.305     -349524.258    23369839.336        2058.701  
  22604018.193      437373.645      320965.496    22604015.914       -1906.909  
  21296944.982      283376.574      207244.160    21296941.549       -1295.200  
 15  1 28  5 56 37.0000000  0  7G24G22G25G18G14G15G21               
  20511026.390      207513.758      154204.398    20511024.394       -1008.018  
  22637156.544     -707190.199     -519263.656    22637149.807        2994.307  
  24628224.368     -153119.883           0.000           0.000        3373.022  
  20662153.958     -409738.266     -298970.938    20662149.068        1686.738  
  23369450.027     -492266.766     -351128.254    23369447.989        2058.418  
  22604381.352      439280.680      322451.496    22604378.733       -1907.080  
  21297191.614      284672.215      208253.746    21297187.901       -1295.962  
 15  1 28  5 56 38.0000000  0  7G24G22G25G18G14G15G21               
  20511218.249      208522.117      154990.145    20511216.725       -1008.579  
  22636587.206     -710184.359     -521596.770    22636580.018        2994.140  
  24627582.439     -156492.844           0.000           0.000        3372.847  
  20661833.138     -411424.648     -300284.996    20661828.476        1686.274  
  23369057.919     -494324.949     -352732.027    23369056.374        2058.066  
  22604744.019      441187.891      323937.637    22604741.768       -1907.261  
  21297438.234      285968.516      209263.848    21297434.448       -1296.567  
 15  1 28  5 56 39.0000000  0  7G24G22G25G18G14G15G21               
  20511410.228      209531.148      155776.402    20511408.901       -1009.375  
  22636016.970     -713178.355     -523929.750    22636010.168        2993.857  
  24626940.790     -159865.832           0.000           0.000        3373.022  
  20661512.121     -413110.656     -301598.773    20661507.732        1685.811  
  23368666.031     -496382.879     -354335.598    23368664.750        2057.803  
  22605107.463      443095.230      325423.867    22605104.632       -1907.393  
  21297684.803      287265.434      210274.438    21297681.392       -1297.285  
 15  1 28  5 56 40.0000000  0  7G24G22G25G18G14G15G21               
  20511602.492      210540.926      156563.234    20511600.570       -1010.132  
  22635447.337     -716172.059     -526262.512    22635440.748        2993.530  
  24626299.046     -163238.801           0.000           0.000        3372.822  
  20661191.403     -414796.152     -302912.148    20661186.649        1685.254  
  23368274.619     -498440.469     -355938.910    23368273.415        2057.344  
  22605470.034      445002.828      326910.309    22605467.612       -1907.661  
  21297932.230      288563.090      211285.598    21297928.579       -1297.974  
 15  1 28  5 56 41.0000000  0  7G24G22G25G18G14G15G21               
  20511794.332      211551.418      157350.625    20511792.819       -1010.781  
  22634877.808     -719165.559     -528595.105    22634871.347        2993.345  
  24625657.350     -166611.773           0.000           0.000        3373.066  
  20660870.769     -416481.227     -304225.191    20660866.196        1684.888  
  23367883.011     -500497.773     -357542.000    23367881.544        2057.134  
  22605833.383      446910.590      328396.879    22605830.977       -1907.896  
  21298178.929      289861.379      212297.250    21298175.431       -1298.652  
 15  1 28  5 56 42.0000000  0  7G24G22G25G18G14G15G21               
  20511986.687      212562.547      158138.523    20511985.072       -1011.421  
  22634307.811     -722158.902     -530927.574    22634301.151        2993.228  
  24625015.269     -169984.762           0.000           0.000        3373.125  
  20660550.178     -418165.895     -305537.926    20660545.664        1684.419  
  23367492.108     -502554.820     -359144.891    23367490.295        2056.948  
  22606196.303      448818.496      329883.559    22606193.702       -1907.954  
  21298426.377      291160.305      213309.395    21298422.674       -1299.180  
 15  1 28  5 56 43.0000000  0  7G24G22G25G18G14G15G21               
  20512179.741      213574.379      158926.965    20512177.918       -1012.168  
  22633738.737     -725152.027     -533259.879    22633731.330        2993.105  
  24624373.545     -173357.816           0.000           0.000        3373.076  
  20660229.705     -419850.176     -306850.344    20660225.135        1684.106  
  23367100.403     -504611.633     -360747.598    23367098.645        2056.738  
  22606559.495      450726.551      331370.348    22606556.850       -1908.105  
  21298673.600      292459.867      214322.043    21298669.922       -1299.902  
 15  1 28  5 56 44.0000000  0  7G24G22G25G18G14G15G21               
  20512371.990      214586.855      159715.898    20512370.578       -1012.817  
  22633169.062     -728144.969     -535592.035    22633161.685        2992.895  
  24623731.842     -176730.887           0.000           0.000        3373.086  
  20659908.579     -421534.063     -308162.469    20659904.309        1683.594  
  23366708.597     -506668.176     -362350.098    23366707.466        2056.509  
  22606922.565      452634.723      332857.227    22606920.165       -1908.262  
  21298921.071      293760.027      215335.148    21298917.694       -1300.396  
 15  1 28  5 56 45.0000000  0  7G24G22G25G18G14G15G21               
  20512565.137      215600.035      160505.391    20512563.265       -1013.423  
  22632599.484     -731137.680     -537924.020    22632592.460        2992.617  
  24623088.783     -180103.988           0.000           0.000        3373.271  
  20659589.038     -423217.492     -309474.227    20659584.343        1683.213  
  23366317.672     -508724.461     -363952.395    23366316.050        2056.226  
  22607285.767      454543.102      334344.270    22607283.038       -1908.423  
  21299168.261      295060.898      216348.813    21299165.068       -1301.206  
 15  1 28  5 56 46.0000000  0  7G24G22G25G18G14G15G21               
  20512758.174      216613.930      161295.441    20512756.404       -1014.258  
  22632029.906     -734130.184     -540255.848    22632023.431        2992.368  
  24622446.599     -183477.070           0.000           0.000        3373.174  
  20659268.454     -424900.527     -310785.680    20659263.970        1682.773  
  23365926.078     -510780.422     -365554.438    23365924.688        2055.859  
  22607648.948      456451.633      335831.441    22607646.668       -1908.628  
  21299416.043      296362.406      217362.977    21299412.380       -1301.836  
 15  1 28  5 56 47.0000000  0  7G24G22G25G18G14G15G21               
  20512950.803      217628.543      162086.043    20512949.473       -1014.937  
  22631460.581     -737122.445     -542587.484    22631454.008        2992.173  
  24621805.021     -186850.141           0.000           0.000        3373.154  
  20658948.224     -426583.063     -312096.746    20658943.576        1682.334  
  23365534.791     -512836.082     -367156.242    23365533.528        2055.581  
  22608012.606      458360.371      337318.777    22608009.486       -1908.828  
  21299664.027      297664.586      218377.660    21299660.428       -1302.471  
 15  1 28  5 56 48.0000000  0  7G24G22G25G18G14G15G21               
  20513144.188      218643.816      162877.168    20513142.577       -1015.527  
  22630891.441     -740114.469     -544918.926    22630884.423        2991.929  
  24621163.363     -190223.219           0.000           0.000        3373.267  
  20658628.059     -428265.152     -313407.461    20658623.758        1681.880  
  23365143.400     -514891.414     -368757.777    23365142.426        2055.171  
  22608375.645      460269.313      338806.266    22608372.551       -1909.043  
  21299912.052      298967.488      219392.906    21299908.325       -1303.110  
 15  1 28  5 56 49.0000000  0  7G24G22G25G18G14G15G21               
  20513337.516      219659.902      163668.918    20513335.842       -1016.465  
  22630322.406     -743106.203     -547250.148    22630315.302        2991.665  
  24620521.805     -193596.219           0.000           0.000        3373.022  
  20658308.127     -429946.742     -314717.793    20658303.332        1681.436  
  23364752.818     -516946.426     -370359.094    23364751.461        2054.849  
  22608739.239      462178.512      340293.949    22608736.047       -1909.287  
  21300160.129      300271.098      220408.707    21300156.098       -1303.911  
 15  1 28  5 56 50.0000000  0  7G24G22G25G18G14G15G21               
  20513530.489      220676.684      164461.211    20513529.263       -1017.090  
  22629753.001     -746097.695     -549581.176    22629746.315        2991.460  
  24619880.071     -196969.188           0.000           0.000        3373.057  
  20657988.812     -431627.871     -316027.773    20657983.619        1680.952  
  23364361.859     -519001.121     -371960.152    23364360.474        2054.570  
  22609102.581      464087.891      341781.770    22609099.659       -1909.429  
  21300408.031      301575.395      221425.039    21300404.630       -1304.585  
 15  1 28  5 56 51.0000000  0  7G24G22G25G18G14G15G21               
  20513724.752      221694.168      165254.063    20513723.169       -1017.754  
  22629182.757     -749089.000     -551912.063    22629177.139        2991.289  
  24619237.824     -200342.191           0.000           0.000        3373.057  
  20657669.012     -433308.582     -317337.414    20657663.875        1680.527  
  23363971.099     -521055.547     -373561.008    23363969.154        2054.380  
  22609465.513      465997.426      343269.715    22609462.641       -1909.614  
  21300656.268      302880.336      222441.867    21300652.702       -1305.205  
 15  1 28  5 56 52.0000000  0  7G24G22G25G18G14G15G21               
  20513918.143      222712.266      166047.383    20513916.335       -1018.457  
  22628613.936     -752080.152     -554242.816    22628607.999        2991.040  
  24618596.520     -203715.293           0.000           0.000        3373.096  
  20657349.099     -434988.953     -318646.797    20657343.933        1680.239  
  23363579.635     -523109.766     -375161.691    23363578.095        2054.106  
  22609828.664      467907.063      344757.742    22609826.166       -1909.751  
  21300905.277      304185.848      223459.152    21300901.579       -1305.835  
 15  1 28  5 56 53.0000000  0  7G24G22G25G18G14G15G21               
  20514112.210      223731.035      166841.227    20514110.372       -1019.019  
  22628044.621     -755071.113     -556573.434    22628038.446        2990.913  
  24617954.287     -207088.402           0.000           0.000        3373.140  
  20657029.347     -436668.887     -319955.840    20657024.266        1679.814  
  23363189.117     -525163.750     -376762.195    23363187.667        2053.848  
  22610192.492      469816.836      346245.875    22610189.503       -1909.839  
  21301153.475      305491.992      224476.922    21301149.777       -1306.353  
 15  1 28  5 56 54.0000000  0  7G24G22G25G18G14G15G21               
  20514306.424      224750.422      167635.555    20514304.534       -1019.702  
  22627476.166     -758061.918     -558903.922    22627469.431        2990.703  
  24617312.802     -210461.637           0.000           0.000        3373.301  
  20656710.044     -438348.445     -321264.582    20656704.758        1679.302  
  23362798.417     -527217.504     -378362.508    23362796.877        2053.618  
  22610555.693      471726.723      347734.098    22610552.852       -1909.912  
  21301402.288      306798.746      225495.168    21301398.520       -1307.036  
 15  1 28  5 56 55.0000000  0  7G24G22G25G18G14G15G21               
  20514500.341      225770.352      168430.309    20514498.767       -1020.303  
  22626906.469     -761052.664     -561234.371    22626900.339        2990.752  
  24616671.470     -213834.977           0.000           0.000        3373.418  
  20656389.520     -440027.777     -322573.160    20656385.212        1679.253  
  23362407.245     -529271.109     -379962.715    23362405.979        2053.467  
  22610919.456      473636.633      349222.344    22610916.289       -1909.956  
  21301650.902      308106.000      226513.801    21301647.161       -1307.500  
 15  1 28  5 56 56.0000000  0  7G24G22G25G18G14G15G21               
  20514694.221      226790.895      169225.543    20514692.873       -1020.869  
  22626337.074     -764043.254     -563564.707    22626330.776        2990.596  
  24616029.163     -217208.453           0.000           0.000        3373.638  
  20656070.483     -441706.715     -323881.422    20656065.989        1678.818  
  23362016.521     -531324.570     -381562.809    23362014.706        2053.423  
  22611283.051      475546.625      350710.645    22611279.822       -1910.010  
  21301899.692      309413.820      227532.883    21301896.629       -1308.062  
 15  1 28  5 56 57.0000000  0  7G24G22G25G18G14G15G21               
  20514888.668      227812.055      170021.250    20514887.487       -1021.436  
  22625768.056     -767033.742     -565894.953    22625762.005        2990.483  
  24615387.175     -220582.004           0.000           0.000        3373.701  
  20655751.374     -443385.332     -325189.441    20655746.523        1678.472  
  23361625.928     -533377.797     -383162.719    23361624.212        2053.198  
  22611646.031      477456.711      352199.023    22611643.313       -1910.078  
  21302148.130      310722.219      228552.418    21302145.022       -1308.594  
 15  1 28  5 56 58.0000000  0  7G24G22G25G18G14G15G21               
  20515082.996      228833.820      170817.434    20515081.915       -1022.109  
  22625199.886     -770024.074     -568225.082    22625192.941        2990.200  
  24614744.848     -223955.645           0.000           0.000        3373.750  
  20655431.543     -445063.570     -326497.160    20655427.269        1678.032  
  23361234.930     -535430.828     -384762.477    23361233.435        2052.998  
  22612009.552      479366.883      353687.469    22612006.430       -1910.307  
  21302397.724      312031.203      229572.406    21302393.965       -1309.312  
 15  1 28  5 56 59.0000000  0  7G24G22G25G18G14G15G21               
  20515277.924      229856.289      171614.164    20515276.204       -1022.842  
  22624630.537     -773014.211     -570555.051    22624623.853        2989.980  
  24614101.874     -227329.293           0.000           0.000        3373.799  
  20655112.900     -446741.406     -327804.559    20655107.909        1677.666  
  23360843.851     -537483.582     -386362.020    23360842.632        2052.612  
  22612372.998      481277.215      355176.047    22612370.312       -1910.366  
  21302646.788      313340.832      230592.895    21302642.996       -1309.951  
 15  1 28  5 57  0.0000000  0  7G24G22G25G18G14G15G21               
  20515472.970      230879.387      172411.383    20515471.141       -1023.516  
  22624061.861     -776004.172     -572884.887    22624054.893        2989.844  
  24613460.361     -230703.000           0.000           0.000        3373.770  
  20654793.510     -448418.859     -329111.668    20654788.799        1677.241  
  23360453.441     -539536.105     -387961.383    23360451.959        2052.427  
  22612736.229      483187.684      356664.727    22612734.027       -1910.635  
  21302896.039      314651.059      231613.844    21302893.081       -1310.596  
 15  1 28  5 57  1.0000000  0  7G24G22G25G18G14G15G21               
  20515666.957      231903.156      173209.117    20515665.792       -1024.111  
  22623492.686     -778993.945     -575214.586    22623485.960        2989.663  
  24612818.594     -234076.758           0.000           0.000        3373.721  
  20654474.042     -450095.914     -330418.465    20654469.321        1676.826  
  23360063.600     -541588.383     -389560.551    23360061.855        2052.212  
  22613100.085      485098.297      358153.516    22613097.661       -1910.762  
  21303145.468      315961.926      232635.301    21303142.167       -1311.226  
 15  1 28  5 57  2.0000000  0  7G24G22G25G18G14G15G21               
  20515861.840      232927.691      174007.453    20515860.196       -1024.941  
  22622923.395     -781983.473     -577544.082    22622917.273        2989.453  
  24612176.631     -237450.508           0.000           0.000        3373.843  
  20654155.222     -451772.488     -331724.883    20654150.499        1676.308  
  23359672.442     -543640.320     -391159.457    23359671.279        2051.777  
  22613463.868      487009.129      359642.465    22613461.014       -1910.899  
  21303394.807      317273.484      233657.297    21303391.339       -1311.875  
 15  1 28  5 57  3.0000000  0  7G24G22G25G18G14G15G21               
  20516057.445      233952.859      174806.289    20516055.928       -1025.459  
  22622354.946     -784972.789     -579873.418    22622348.304        2989.292  
  24611535.073     -240824.250           0.000           0.000        3373.857  
  20653836.055     -453448.648     -333030.977    20653831.734        1675.967  
  23359282.519     -545692.004     -392758.176    23359280.940        2051.587  
  22613827.673      488920.098      361131.523    22613824.828       -1911.001  
  21303644.894      318585.688      234679.789    21303641.342       -1312.402  
 15  1 28  5 57  4.0000000  0  7G24G22G25G18G14G15G21               
  20516252.761      234978.664      175605.609    20516250.811       -1026.104  
  22621786.327     -787961.973     -582202.652    22621779.721        2989.063  
  24610892.782     -244198.059           0.000           0.000        3373.896  
  20653517.240     -455124.457     -334336.805    20653512.408        1675.674  
  23358892.456     -547743.465     -394356.715    23358890.747        2051.270  
  22614191.552      490831.172      362620.668    22614188.239       -1911.113  
  21303895.041      319898.461      235702.730    21303891.112       -1313.081  
 15  1 28  5 57  5.0000000  0  7G24G22G25G18G14G15G21               
  20516447.817      236005.137      176405.465    20516446.252       -1026.812  
  22621217.349     -790950.965     -584531.734    22621210.900        2988.940  
  24610250.440     -247571.930           0.000           0.000        3373.838  
  20653198.615     -456799.832     -335642.289    20653193.808        1675.098  
  23358501.596     -549794.691     -395955.059    23358500.637        2051.113  
  22614554.994      492742.395      364109.930    22614552.054       -1911.318  
  21304144.692      321211.891      236726.176    21304141.108       -1313.809  
 15  1 28  5 57  6.0000000  0  7G24G22G25G18G14G15G21               
  20516643.318      237032.309      177205.855    20516641.732       -1027.451  
  22620648.398     -793939.738     -586860.648    22620642.228        2988.682  
  24609608.442     -250945.809           0.000           0.000        3373.867  
  20652879.903     -458474.801     -336947.461    20652875.069        1674.756  
  23358111.799     -551845.629     -397553.180    23358109.899        2050.674  
  22614918.498      494653.793      365599.336    22614915.842       -1911.445  
  21304394.506      322525.969      237750.129    21304390.940       -1314.385  
 15  1 28  5 57  7.0000000  0  7G24G22G25G18G14G15G21               
  20516839.173      238060.211      178006.820    20516837.614       -1028.228  
  22620079.411     -796928.301     -589189.395    22620073.310        2988.531  
  24608967.152     -254319.680           0.000           0.000        3373.638  
  20652560.819     -460149.297     -338252.262    20652556.545        1674.282  
  23357721.444     -553896.301     -399151.098    23357719.752        2050.552  
  22615282.733      496565.375      367088.875    22615279.580       -1911.670  
  21304644.941      323840.703      238774.594    21304641.407       -1315.073  
 15  1 28  5 57  8.0000000  0  7G24G22G25G18G14G15G21               
  20517034.973      239088.793      178808.316    20517033.158       -1028.955  
  22619511.192     -799916.613     -591517.949    22619504.650        2988.164  
  24608324.959     -257693.547           0.000           0.000        3373.804  
  20652242.619     -461823.387     -339556.746    20652237.854        1673.794  
  23357330.958     -555946.676     -400748.789    23357329.785        2050.264  
  22615646.361      498477.113      368578.547    22615643.319       -1911.875  
  21304895.235      325156.098      239799.574    21304892.131       -1315.752  
 15  1 28  5 57  9.0000000  0  7G24G22G25G18G14G15G21               
  20517230.474      240118.043      179610.332    20517229.155       -1029.556  
  22618942.808     -802904.738     -593846.355    22618936.250        2988.032  
  24607682.578     -261067.469           0.000           0.000        3374.053  
  20651923.791     -463497.047     -340860.898    20651919.546        1673.384  
  23356940.757     -557996.742     -402346.242    23356939.532        2049.834  
  22616010.034      500389.008      370068.340    22616007.351       -1911.875  
  21305145.699      326472.145      240825.074    21305142.512       -1316.309  
 15  1 28  5 57 10.0000000  0  7G24G22G25G18G14G15G21               
  20517426.342      241147.965      180412.871    20517424.925       -1030.269  
  22618373.688     -805892.672     -596174.613    22618367.570        2987.842  
  24607040.427     -264441.383           0.000           0.000        3374.004  
  20651605.320     -465170.316     -342164.742    20651600.888        1673.110  
  23356550.317     -560046.609     -403943.531    23356549.355        2049.785  
  22616373.506      502301.070      371558.262    22616371.223       -1912.080  
  21305396.078      327788.809      241851.043    21305393.053       -1316.992  
 15  1 28  5 57 11.0000000  0  7G24G22G25G18G14G15G21               
  20517622.598      242178.543      181215.918    20517621.330       -1030.898  
  22617804.962     -808880.410     -598502.715    22617799.158        2987.622  
  24606398.357     -267815.324           0.000           0.000        3373.852  
  20651287.487     -466843.145     -343468.246    20651282.823        1672.603  
  23356160.931     -562096.172     -405540.602    23356159.155        2049.438  
  22616737.554      504213.273      373048.297    22616734.953       -1912.310  
  21305646.995      329106.133      242877.523    21305643.239       -1317.671  
 15  1 28  5 57 12.0000000  0  7G24G22G25G18G14G15G21               
  20517818.796      243209.910      182019.578    20517817.675       -1031.719  
  22617236.482     -811867.844     -600830.578    22617230.719        2987.368  
  24605757.387     -271189.230           0.000           0.000        3373.926  
  20650969.078     -468515.453     -344771.348    20650964.300        1672.105  
  23355770.820     -564145.379     -407137.387    23355769.337        2049.043  
  22617101.542      506125.754      374538.535    22617099.086       -1912.612  
  21305897.986      330424.195      243904.590    21305894.008       -1318.394  
 15  1 28  5 57 13.0000000  0  7G24G22G25G18G14G15G21               
  20518014.802      244242.031      182823.832    20518013.674       -1032.505  
  22616668.580     -814855.035     -603158.246    22616662.469        2987.110  
  24605114.391     -274563.113           0.000           0.000        3373.989  
  20650650.949     -470187.313     -346074.098    20650646.151        1671.685  
  23355381.700     -566194.289     -408733.918    23355379.544        2048.779  
  22617465.375      508038.418      376028.926    22617462.821       -1912.769  
  21306148.630      331742.930      244932.172    21306145.251       -1319.077  
 15  1 28  5 57 14.0000000  0  7G24G22G25G18G14G15G21               
  20518211.914      245274.867      183628.641    20518210.890       -1033.174  
  22616100.242     -817841.941     -605485.707    22616093.702        2986.802  
  24604472.498     -277936.910           0.000           0.000        3373.852  
  20650332.943     -471858.688     -347376.469    20650327.840        1671.152  
  23354990.883     -568242.867     -410330.207    23354989.759        2048.452  
  22617829.851      509951.313      377519.484    22617826.708       -1912.939  
  21306399.534      333062.391      245960.320    21306395.788       -1319.785  
 15  1 28  5 57 15.0000000  0  7G24G22G25G18G14G15G21               
  20518408.603      246308.371      184433.965    20518407.444       -1033.843  
  22615531.796     -820828.660     -607813.016    22615525.178        2986.597  
  24603830.527     -281310.773           0.000           0.000        3373.818  
  20650014.609     -473529.652     -348678.523    20650010.214        1670.801  
  23354601.826     -570291.160     -411926.273    23354600.093        2048.149  
  22618193.885      511864.367      379010.176    22618191.015       -1913.164  
  21306650.769      334382.457      246988.938    21306647.105       -1320.464  
 15  1 28  5 57 16.0000000  0  7G24G22G25G18G14G15G21               
  20518605.318      247342.520      185239.797    20518603.771       -1034.399  
  22614963.479     -823815.246     -610140.227    22614957.219        2986.611  
  24603188.759     -284684.676           0.000           0.000        3373.848  
  20649696.898     -475200.270     -349980.301    20649692.064        1670.513  
  23354211.679     -572339.273     -413522.203    23354209.920        2048.091  
  22618557.958      513777.504      380500.922    22618554.940       -1913.159  
  21306902.385      335703.129      248018.023    21306899.190       -1320.947  
 15  1 28  5 57 17.0000000  0  7G24G22G25G18G14G15G21               
  20518802.093      248377.313      186046.129    20518800.842       -1035.078  
  22614395.335     -826801.617     -612467.270    22614388.924        2986.245  
  24602546.428     -288058.684           0.000           0.000        3374.189  
  20649378.915     -476870.461     -351281.746    20649374.603        1670.010  
  23353821.586     -574387.094     -415117.898    23353820.598        2047.705  
  22618921.893      515690.809      381991.793    22618919.007       -1913.384  
  21307153.357      337024.414      249047.594    21307149.978       -1321.582  
 15  1 28  5 57 18.0000000  0  7G24G22G25G18G14G15G21               
  20518999.330      249412.750      186852.957    20518998.224       -1035.801  
  22613826.956     -829787.848     -614794.195    22613820.126        2986.148  
  24601904.228     -291432.691           0.000           0.000        3374.102  
  20649061.563     -478540.285     -352582.910    20649056.800        1669.673  
  23353431.784     -576434.746     -416713.469    23353430.923        2047.588  
  22619286.063      517604.195      383482.742    22619283.307       -1913.432  
  21307405.532      338346.316      250077.648    21307402.035       -1322.246  
 15  1 28  5 57 19.0000000  0  7G24G22G25G18G14G15G21               
  20519196.258      250448.773      187660.242    20519194.908       -1036.328  
  22613258.527     -832773.957     -617121.027    22613252.424        2985.962  
  24601262.102     -294806.793           0.000           0.000        3374.146  
  20648743.730     -480209.762     -353883.797    20648738.579        1669.233  
  23353043.227     -578482.176     -418308.867    23353041.339        2047.368  
  22619649.937      519517.688      384973.785    22619647.878       -1913.574  
  21307657.055      339668.773      251108.137    21307653.718       -1322.744  
 15  1 28  5 57 20.0000000  0  7G24G22G25G18G14G15G21               
  20519393.541      251485.438      188468.023    20519392.464       -1037.007  
  22612690.694     -835759.855     -619447.703    22612683.962        2985.796  
  24600620.380     -298180.980           0.000           0.000        3374.170  
  20648425.688     -481878.863     -355184.402    20648421.438        1668.848  
  23352653.119     -580529.363     -419904.070    23352651.959        2047.070  
  22620014.345      521431.297      386464.918    22620012.097       -1913.652  
  21307908.424      340991.859      252139.109    21307905.317       -1323.467  
 15  1 28  5 57 21.0000000  0  7G24G22G25G18G14G15G21               
  20519591.404      252522.730      189276.309    20519589.617       -1037.646  
  22612121.605     -838745.668     -621774.313    22612116.294        2985.635  
  24599977.949     -301555.238           0.000           0.000        3374.233  
  20648108.524     -483547.625     -356484.730    20648103.999        1668.604  
  23352264.079     -582576.383     -421499.152    23352262.634        2047.007  
  22620378.386      523345.004      387956.117    22620375.888       -1913.784  
  21308160.273      342315.496      253170.512    21308157.323       -1323.936  
 15  1 28  5 57 22.0000000  0  7G24G22G25G18G14G15G21               
  20519788.496      253560.676      190085.098    20519787.106       -1038.218  
  22611553.930     -841731.266     -624100.754    22611548.166        2985.503  
  24599336.161     -304929.543           0.000           0.000        3374.385  
  20647790.670     -485215.945     -357784.715    20647786.617        1668.125  
  23351873.972     -584623.113     -423094.004    23351872.470        2046.743  
  22620742.133      525258.852      389447.422    22620740.235       -1913.848  
  21308412.839      343639.754      254202.395    21308409.268       -1324.492  
 15  1 28  5 57 23.0000000  0  7G24G22G25G18G14G15G21               
  20519986.414      254599.301      190894.422    20519984.759       -1039.014  
  22610986.284     -844716.680     -626427.047    22610979.743        2985.347  
  24598694.162     -308303.836           0.000           0.000        3374.116  
  20647473.105     -486883.863     -359084.391    20647468.851        1667.686  
  23351484.679     -586669.590     -424688.656    23351483.061        2046.328  
  22621106.964      527172.852      390938.848    22621104.017       -1914.009  
  21308664.649      344964.680      255234.801    21308661.690       -1325.151  
 15  1 28  5 57 24.0000000  0  7G24G22G25G18G14G15G21               
  20520184.030      255638.551      191704.223    20520182.497       -1039.531  
  22610417.787     -847701.879     -628753.180    22610411.764        2985.171  
  24598051.708     -311678.211           0.000           0.000        3374.404  
  20647156.390     -488551.387     -360383.758    20647151.722        1667.334  
  23351095.557     -588715.832     -426283.117    23351093.952        2046.143  
  22621471.494      529086.996      392430.387    22621468.641       -1914.126  
  21308916.854      346290.203      256267.680    21308913.581       -1325.762  
 15  1 28  5 57 25.0000000  0  7G24G22G25G18G14G15G21               
  20520381.896      256678.449      192514.531    20520380.287       -1040.195  
  22609849.814     -850686.961     -631079.211    22609843.708        2984.980  
  24597409.154     -315052.660           0.000           0.000        3374.507  
  20646838.499     -490218.547     -361682.844    20646834.515        1667.007  
  23350706.041     -590761.859     -427877.414    23350704.716        2045.918  
  22621835.792      531001.266      393922.023    22621832.714       -1914.360  
  21309169.340      347616.328      257301.023    21309166.216       -1326.387  
 15  1 28  5 57 26.0000000  0  7G24G22G25G18G14G15G21               
  20520579.927      257718.957      193325.313    20520578.436       -1040.718  
  22609281.850     -853671.859     -633405.105    22609275.972        2984.893  
  24596766.946     -318427.164           0.000           0.000        3374.663  
  20646521.867     -491885.324     -362981.637    20646517.918        1666.675  
  23350316.286     -592807.629     -429471.527    23350315.377        2045.654  
  22622199.795      532915.625      395413.730    22622196.814       -1914.336  
  21309421.597      348943.063      258334.840    21309418.592       -1327.075  
 15  1 28  5 57 27.0000000  0  7G24G22G25G18G14G15G21               
  20520777.441      258760.078      194136.574    20520776.843       -1041.470  
  22608713.225     -856656.660     -635730.922    22608707.875        2984.673  
  24596125.347     -321801.762           0.000           0.000        3374.565  
  20646204.768     -493551.770     -364280.164    20646199.969        1666.167  
  23349927.323     -594853.266     -431065.531    23349926.353        2045.478  
  22622564.311      534830.066      396905.488    22622561.457       -1914.531  
  21309673.997      350270.344      259369.082    21309670.950       -1327.622  
 15  1 28  5 57 28.0000000  0  7G24G22G25G18G14G15G21               
  20520975.999      259801.906      194948.387    20520974.726       -1042.188  
  22608145.428     -859641.230     -638056.559    22608140.184        2984.482  
  24595483.091     -325176.379           0.000           0.000        3374.575  
  20645887.683     -495217.777     -365578.344    20645883.134        1665.776  
  23349537.977     -596898.598     -432659.281    23349537.134        2045.225  
  22622928.298      536744.676      398397.379    22622925.441       -1914.717  
  21309926.765      351598.258      260403.816    21309923.947       -1328.193  
 15  1 28  5 57 29.0000000  0  7G24G22G25G18G14G15G21               
  20521174.949      260844.480      195760.785    20521173.444       -1042.954  
  22607577.694     -862625.531     -640381.984    22607572.198        2984.092  
  24594840.645     -328550.934           0.000           0.000        3374.526  
  20645570.540     -496883.305     -366876.156    20645566.218        1665.234  
  23349149.079     -598943.602     -434252.785    23349148.043        2044.751  
  22623292.949      538659.488      399889.441    22623289.996       -1914.932  
  21310179.829      352926.902      261439.117    21310176.548       -1328.984  
 15  1 28  5 57 30.0000000  0  7G24G22G25G18G14G15G21               
  20521373.039      261887.770      196573.738    20521371.941       -1043.701  
  22607010.546     -865609.574     -642707.219    22607004.122        2983.828  
  24594198.493     -331925.480           0.000           0.000        3374.346  
  20645253.951     -498548.363     -368173.602    20645249.667        1664.810  
  23348760.090     -600988.277     -435846.039    23348758.803        2044.390  
  22623656.887      540574.535      401381.699    22623654.392       -1915.225  
  21310433.203      354256.215      262474.938    21310429.652       -1329.790  
 15  1 28  5 57 31.0000000  0  7G24G22G25G18G14G15G21               
  20521571.489      262931.840      197387.305    20521570.211       -1044.492  
  22606442.567     -868593.363     -645032.238    22606436.637        2983.594  
  24593556.372     -335299.984           0.000           0.000        3374.507  
  20644937.007     -500212.938     -369470.676    20644932.789        1664.336  
  23348370.988     -603032.617     -437439.023    23348369.630        2044.204  
  22624021.599      542489.797      402874.117    22624019.129       -1915.400  
  21310685.701      355586.254      263511.336    21310682.894       -1330.381  
 15  1 28  5 57 32.0000000  0  7G24G22G25G18G14G15G21               
  20521770.643      263976.574      198201.383    20521769.123       -1045.020  
  22605874.670     -871576.891     -647357.055    22605868.178        2983.330  
  24592914.794     -338674.477           0.000           0.000        3374.526  
  20644620.499     -501877.047     -370767.391    20644616.032        1663.887  
  23347981.859     -605076.676     -439031.793    23347980.637        2043.911  
  22624386.213      544405.254      404366.684    22624383.217       -1915.503  
  21310939.052      356916.941      264548.234    21310935.913       -1331.011  
 15  1 28  5 57 33.0000000  0  7G24G22G25G18G14G15G21               
  20521969.643      265022.016      199016.004    20521967.783       -1045.757  
  22605306.600     -874560.246     -649681.754    22605300.651        2983.276  
  24592271.638     -342048.957           0.000           0.000        3374.502  
  20644303.725     -503540.750     -372063.777    20644299.531        1663.516  
  23347593.869     -607120.453     -440624.344    23347592.096        2043.682  
  22624750.914      546320.891      405859.379    22624747.961       -1915.674  
  21311192.741      358248.316      265585.668    21311189.048       -1331.733  
 15  1 28  5 57 34.0000000  0  7G24G22G25G18G14G15G21               
  20522168.647      266068.082      199831.121    20522167.022       -1046.270  
  22604739.424     -877543.398     -652006.277    22604732.922        2983.105  
  24591629.551     -345423.477           0.000           0.000        3374.619  
  20643987.328     -505204.047     -373359.859    20643982.914        1663.037  
  23347204.639     -609164.012     -442216.734    23347202.932        2043.521  
  22625115.207      548236.625      407352.148    22625112.421       -1915.684  
  21311445.828      359580.270      266623.551    21311442.688       -1332.173  
 15  1 28  5 57 35.0000000  0  7G24G22G25G18G14G15G21               
  20522367.745      267114.707      200646.668    20522366.359       -1046.924  
  22604172.053     -880526.465     -654330.738    22604165.615        2982.959  
  24590987.619     -348798.180           0.000           0.000        3374.707  
  20643670.710     -506867.035     -374655.688    20643666.197        1662.837  
  23346815.543     -611207.375     -443808.953    23346814.516        2043.203  
  22625480.070      550152.414      408844.973    22625476.796       -1915.747  
  21311699.526      360912.758      267661.848    21311695.975       -1332.783  
 15  1 28  5 57 36.0000000  0  7G24G22G25G18G14G15G21               
  20522567.133      268162.004      201462.742    20522565.886       -1047.563  
  22603603.830     -883509.320     -656655.043    22603598.126        2982.769  
  24590345.943     -352172.898           0.000           0.000        3374.805  
  20643354.253     -508529.641     -375951.227    20643350.195        1662.456  
  23346427.126     -613250.531     -445401.020    23346425.751        2043.052  
  22625844.295      552068.367      410337.922    22625841.366       -1915.972  
  21311953.125      362245.887      268700.652    21311949.781       -1333.364  
 15  1 28  5 57 37.0000000  0  7G24G22G25G18G14G15G21               
  20522766.544      269209.973      202279.348    20522765.128       -1048.286  
  22603036.625     -886492.027     -658979.227    22603030.570        2982.603  
  24589703.264     -355547.629           0.000           0.000        3374.736  
  20643038.111     -510191.824     -377246.430    20643033.558        1662.080  
  23346037.562     -615293.395     -446992.844    23346036.911        2042.808  
  22626208.793      553984.422      411830.949    22626205.858       -1916.138  
  21312206.978      363579.590      269739.891    21312203.678       -1333.999  
 15  1 28  5 57 38.0000000  0  7G24G22G25G18G14G15G21               
  20522965.624      270258.625      203096.480    20522964.689       -1049.063  
  22602468.325     -889474.465     -661303.215    22602463.147        2982.344  
  24589060.165     -358922.371           0.000           0.000        3374.580  
  20642721.841     -511853.566     -378541.289    20642717.376        1661.523  
  23345649.169     -617335.980     -448584.461    23345648.124        2042.432  
  22626573.782      555900.688      413324.145    22626570.487       -1916.387  
  21312460.597      364914.016      270779.707    21312457.832       -1334.780  
 15  1 28  5 57 39.0000000  0  7G24G22G25G18G14G15G21               
  20523165.968      271307.980      203914.160    20523164.564       -1049.648  
  22601901.013     -892456.703     -663627.039    22601895.326        2982.153  
  24588419.079     -362297.109           0.000           0.000        3374.800  
  20642405.801     -513514.867     -379835.816    20642401.477        1661.084  
  23345260.688     -619378.289     -450175.867    23345259.459        2042.334  
  22626938.366      557817.121      414817.477    22626935.147       -1916.494  
  21312714.554      366249.090      271820.023    21312711.640       -1335.420  
 15  1 28  5 57 40.0000000  0  7G24G22G25G18G14G15G21               
  20523365.701      272358.086      204732.418    20523364.438       -1050.410  
  22601333.235     -895438.656     -665950.629    22601327.849        2981.948  
  24587776.483     -365671.801           0.000           0.000        3374.644  
  20642089.308     -515175.676     -381129.953    20642085.227        1660.615  
  23344872.837     -621420.277     -451767.020    23344870.950        2041.963  
  22627303.557      559733.762      416310.961    22627299.766       -1916.694  
  21312969.597      367584.844      272860.867    21312966.000       -1336.064  
 15  1 28  5 57 41.0000000  0  7G24G22G25G18G14G15G21               
  20523565.242      273408.922      205551.258    20523564.147       -1051.177  
  22600766.142     -898420.359     -668274.027    22600760.139        2981.626  
  24587134.413     -369046.441           0.000           0.000        3374.482  
  20641773.899     -516836.047     -382423.738    20641769.421        1660.190  
  23344483.762     -623461.922     -453357.914    23344482.443        2041.494  
  22627668.097      561650.625      417804.625    22627664.603       -1916.904  
  21313223.401      368921.324      273902.270    21313220.126       -1336.860  
 15  1 28  5 57 42.0000000  0  7G24G22G25G18G14G15G21               
  20523765.690      274460.383      206370.582    20523764.378       -1051.724  
  22600198.798     -901401.895     -670597.305    22600193.324        2981.548  
  24586492.505     -372421.160           0.000           0.000        3374.814  
  20641457.916     -518495.980     -383717.199    20641453.492        1659.897  
  23344095.046     -625503.328     -454948.617    23344094.007        2041.323  
  22628033.050      563567.621      419298.391    22628028.997       -1916.978  
  21313478.063      370258.387      274944.133    21313474.724       -1337.310  
 15  1 28  5 57 43.0000000  0  7G24G22G25G18G14G15G21               
  20523966.013      275512.484      207190.398    20523964.985       -1052.451  
  22599631.241     -904383.254     -672920.438    22599626.049        2981.265  
  24585850.319     -375795.926           0.000           0.000        3374.653  
  20641141.805     -520155.570     -385010.383    20641137.698        1659.355  
  23343706.770     -627544.555     -456539.168    23343705.550        2041.147  
  22628397.549      565484.719      420792.230    22628394.016       -1917.251  
  21313732.982      371596.047      275986.461    21313729.458       -1338.022  
 15  1 28  5 57 44.0000000  0  7G24G22G25G18G14G15G21               
  20524165.848      276565.371      208010.832    20524164.805       -1053.315  
  22599064.435     -907364.313     -675243.332    22599058.689        2981.001  
  24585207.416     -379170.652           0.000           0.000        3374.673  
  20640826.298     -521814.645     -386303.172    20640822.087        1658.882  
  23343318.989     -629585.367     -458129.414    23343317.351        2040.688  
  22628762.531      567402.063      422286.273    22628759.121       -1917.451  
  21313987.378      372934.449      277029.375    21313984.164       -1338.755  
 15  1 28  5 57 45.0000000  0  7G24G22G25G18G14G15G21               
  20524366.724      277618.941      208831.793    20524365.323       -1053.901  
  22598496.599     -910345.133     -677566.047    22598491.283        2980.767  
  24584565.393     -382545.328           0.000           0.000        3374.785  
  20640511.328     -523473.250     -387595.590    20640506.416        1658.491  
  23342930.360     -631625.887     -459719.422    23342928.894        2040.415  
  22629127.207      569319.625      423780.484    22629123.973       -1917.573  
  21314241.588      374273.539      278072.816    21314238.576       -1339.375  
 15  1 28  5 57 46.0000000  0  7G24G22G25G18G14G15G21               
  20524567.097      278673.219      209653.309    20524565.701       -1054.590  
  22597930.030     -913325.742     -679888.594    22597924.143        2980.518  
  24583923.562     -385919.956           0.000           0.000        3374.487  
  20640195.659     -525131.398     -388887.656    20640190.842        1657.896  
  23342541.693     -633666.133     -461309.227    23342541.025        2040.117  
  22629492.328      571237.383      425274.840    22629488.482       -1917.881  
  21314497.246      375613.277      279116.762    21314493.777       -1340.015  
 15  1 28  5 57 47.0000000  0  7G24G22G25G18G14G15G21               
  20524768.029      279728.129      210475.316    20524766.512       -1055.215  
  22597362.386     -916306.160     -682210.996    22597356.881        2980.288  
  24583281.383     -389294.734           0.000           0.000        3374.907  
  20639879.499     -526789.191     -390179.445    20639875.142        1657.700  
  23342153.842     -635706.160     -462898.859    23342152.143        2039.839  
  22629857.819      573155.230      426769.262    22629854.078       -1917.847  
  21314752.056      376953.605      280161.172    21314748.792       -1340.518  
 15  1 28  5 57 48.0000000  0  7G24G22G25G18G14G15G21               
  20524968.560      280783.684      211297.828    20524967.381       -1055.938  
  22596795.155     -919286.426     -684533.270    22596789.588        2980.063  
  24582639.019     -392669.531           0.000           0.000        3374.756  
  20639564.554     -528446.590     -391470.922    20639560.006        1657.168  
  23341765.779     -637745.961     -464488.305    23341764.746        2039.766  
  22630222.349      575073.207      428263.781    22630218.927       -1918.066  
  21315007.102      378294.543      281206.055    21315003.825       -1341.250  
 15  1 28  5 57 49.0000000  0  7G24G22G25G18G14G15G21               
  20525169.862      281839.875      212120.840    20525168.643       -1056.484  
  22596228.161     -922266.559     -686855.438    22596222.732        2980.073  
  24581996.894     -396044.426           0.000           0.000        3374.971  
  20639249.659     -530103.641     -392762.125    20639244.226        1656.948  
  23341377.259     -639785.527     -466077.570    23341376.058        2039.614  
  22630587.192      576991.273      429758.371    22630583.858       -1918.071  
  21315262.340      379636.074      282251.406    21315259.245       -1341.836  
 15  1 28  5 57 50.0000000  0  7G24G22G25G18G14G15G21               
  20525370.812      282896.664      212944.309    20525369.322       -1057.119  
  22595660.808     -925246.543     -689177.492    22595655.648        2979.878  
  24581354.650     -399419.379           0.000           0.000        3375.083  
  20638934.409     -531760.336     -394053.066    20638929.007        1656.528  
  23340989.530     -641824.926     -467666.703    23340988.186        2039.268  
  22630951.784      578909.410      431253.012    22630948.559       -1918.174  
  21315517.702      380978.148      283297.176    21315514.690       -1342.349  
 15  1 28  5 57 51.0000000  0  7G24G22G25G18G14G15G21               
  20525572.221      283954.086      213768.273    20525571.006       -1057.710  
  22595093.622     -928226.355     -691499.426    22595088.479        2979.688  
  24580712.541     -402794.402           0.000           0.000        3375.034  
  20638618.905     -533416.625     -395343.680    20638613.865        1656.040  
  23340601.192     -643864.109     -469255.676    23340600.530        2039.097  
  22631317.240      580827.672      432747.754    22631313.120       -1918.311  
  21315773.060      382320.820      284343.414    21315769.677       -1342.944  
 15  1 28  5 57 52.0000000  0  7G24G22G25G18G14G15G21               
  20525773.262      285012.059      214592.664    20525771.978       -1058.198  
  22594526.773     -931206.121     -693821.336    22594521.540        2979.829  
  24580069.910     -406169.574           0.000           0.000        3375.185  
  20638303.568     -535072.660     -396634.098    20638299.060        1655.879  
  23340213.458     -645903.156     -470844.539    23340211.879        2039.004  
  22631682.140      582745.941      434242.504    22631678.797       -1918.242  
  21316029.146      383664.016      285390.055    21316025.714       -1343.447  
 15  1 28  5 57 53.0000000  0  7G24G22G25G18G14G15G21               
  20525975.250      286070.645      215417.531    20525973.869       -1058.818  
  22593960.620     -934185.703     -696143.094    22593954.122        2979.468  
  24579427.616     -409544.855           0.000    24579437.640        3375.264  
  20637988.267     -536728.293     -397924.207    20637983.906        1655.454  
  23339825.006     -647941.973     -472433.211    23339824.022        2038.813  
  22632047.376      584664.320      435737.363    22632044.135       -1918.408  
  21316284.814      385007.793      286437.141    21316281.745       -1343.994  
 15  1 28  5 57 54.0000000  0  7G24G22G25G18G14G15G21               
  20526176.123      287129.785      216242.840    20526175.308       -1059.375  
  22593393.100     -937165.223     -698464.809    22593387.384        2979.551  
  24578784.876     -412920.195       -2626.984    24578795.459        3375.425  
  20637673.518     -538383.656     -399214.098    20637668.867        1655.210  
  23339437.422     -649980.652     -474021.781    23339435.981        2038.691  
  22632412.338      586582.754      437232.250    22632409.413       -1918.506  
  21316540.032      386352.105      287484.660    21316537.283       -1344.663  
 15  1 28  5 57 55.0000000  0  7G24G22G25G18G14G15G21               
  20526377.897      288189.594      217068.660    20526377.345       -1060.161  
  22592826.444     -940144.535     -700786.344    22592820.835        2979.248  
  24578143.441     -416295.637       -5257.152    24578152.941        3375.298  
  20637358.512     -540038.582     -400503.652    20637353.510        1654.868  
  23339049.824     -652019.066     -475610.152    23339047.856        2038.306  
  22632776.694      588501.320      438727.227    22632774.272       -1918.628  
  21316796.560      387697.020      288532.648    21316792.892       -1345.239  
 15  1 28  5 57 56.0000000  0  7G24G22G25G18G14G15G21               
  20526580.138      289250.063      217895.012    20526578.544       -1060.796  
  22592259.157     -943123.645     -703107.723    22592253.782        2978.955  
  24577501.468     -419671.039       -7887.293    24577510.787        3375.469  
  20637043.899     -541693.098     -401792.887    20637039.038        1654.326  
  23338661.198     -654057.219     -477198.316    23338659.973        2038.013  
  22633142.506      590420.043      440222.340    22633139.130       -1918.901  
  21317052.587      389042.605      289581.152    21317049.155       -1345.864  
 15  1 28  5 57 57.0000000  0  7G24G22G25G18G14G15G21               
  20526782.256      290311.246      218721.910    20526780.749       -1061.499  
  22591691.996     -946102.523     -705428.918    22591686.618        2978.760  
  24576858.443     -423046.492      -10517.496    24576868.623        3375.644  
  20636729.213     -543347.164     -403081.766    20636724.277        1653.838  
  23338274.170     -656095.063     -478786.250    23338272.046        2037.817  
  22633507.832      592338.945      441717.602    22633504.388       -1918.979  
  21317308.809      390388.828      290630.145    21317305.119       -1346.523  
 15  1 28  5 57 58.0000000  0  7G24G22G25G18G14G15G21               
  20526984.059      291373.000      219549.254    20526982.766       -1062.075  
  22591125.816     -949081.301     -707750.035    22591119.972        2978.687  
  24576215.529     -426421.973      -13147.754    24576226.371        3375.605  
  20636414.241     -545000.898     -404370.379    20636409.444        1653.599  
  23337886.535     -658132.750     -480374.059    23337884.468        2037.588  
  22633873.220      594257.934      443212.914    22633869.883       -1919.121  
  21317564.989      391735.590      291679.574    21317561.205       -1347.100  
 15  1 28  5 57 59.0000000  0  7G24G22G25G18G14G15G21               
  20527185.987      292435.391      220377.086    20527184.550       -1062.715  
  22590559.376     -952059.875     -710070.992    22590553.282        2978.438  
  24575573.678     -429797.598      -15778.094    24575584.495        3375.776  
  20636100.189     -546654.242     -405658.707    20636094.818        1653.120  
  23337498.824     -660170.188     -481961.664    23337496.802        2037.275  
  22634238.460      596177.016      444708.297    22634234.790       -1919.204  
  21317821.693      393082.965      292729.469    21317817.927       -1347.705  
 15  1 28  5 58  0.0000000  0  7G24G22G25G18G14G15G21               
  20527388.599      293498.379      221205.387    20527387.057       -1063.320  
  22589992.278     -955038.336     -712391.871    22589985.612        2978.335  
  24574931.578     -433173.250      -18408.457    24574942.001        3375.640  
  20635785.556     -548307.258     -406946.773    20635780.383        1652.861  
  23337111.482     -662207.469     -483549.156    23337108.972        2037.187  
  22634603.925      598096.199      446203.762    22634600.343       -1919.214  
  21318077.525      394430.906      293779.813    21318074.457       -1348.340  
 15  1 28  5 58  1.0000000  0  7G24G22G25G18G14G15G21               
  20527590.903      294561.961      222034.152    20527589.387       -1063.896  
  22589425.533     -958016.691     -714712.660    22589419.336        2978.311  
  24574288.747     -436549.047      -21038.906    24574299.428        3375.781  
  20635471.341     -549959.949     -408234.586    20635465.831        1652.603  
  23336722.803     -664244.543     -485136.480    23336721.282        2036.899  
  22634968.302      600015.465      447699.285    22634965.545       -1919.312  
  21318334.403      395779.406      294830.590    21318331.000       -1348.755  
 15  1 28  5 58  2.0000000  0  7G24G22G25G18G14G15G21               
  20527793.196      295626.125      222863.371    20527792.077       -1064.404  
  22588857.931     -960994.957     -717033.383    22588852.654        2978.164  
  24573647.189     -439924.965      -23669.484    24573657.178        3376.118  
  20635156.162     -551612.316     -409522.145    20635151.280        1652.217  
  23336334.640     -666281.508     -486723.715    23336333.876        2036.919  
  22635333.677      601934.738      449194.816    22635330.372       -1919.234  
  21318591.441      397128.375      295881.734    21318587.783       -1349.287  
 15  1 28  5 58  3.0000000  0  7G24G22G25G18G14G15G21               
  20527995.761      296690.871      223693.043    20527994.435       -1065.000  
  22588291.965     -963973.102     -719354.012    22588285.638        2978.096  
  24573003.250     -443300.988      -26300.148    24573014.969        3375.971  
  20634841.741     -553264.367     -410809.457    20634837.264        1651.953  
  23335947.209     -668318.266     -488310.797    23335945.958        2036.538  
  22635699.150      603854.109      450690.418    22635695.516       -1919.351  
  21318848.223      398477.965      296933.359    21318844.756       -1349.912  
 15  1 28  5 58  4.0000000  0  7G24G22G25G18G14G15G21               
  20528198.818      297756.281      224523.230    20528197.483       -1065.825  
  22587725.303     -966951.039     -721674.496    22587718.964        2977.827  
  24572361.484     -446677.055      -28930.840    24572372.587        3376.182  
  20634527.671     -554915.977     -412096.426    20634522.767        1651.435  
  23335559.944     -670354.785     -489897.684    23335558.706        2036.362  
  22636064.261      605773.621      452186.137    22636060.721       -1919.668  
  21319104.879      399828.141      297985.438    21319101.559       -1350.508  
 15  1 28  5 58  5.0000000  0  7G24G22G25G18G14G15G21               
  20528401.120      298822.375      225353.953    20528400.129       -1066.377  
  22587158.266     -969928.785     -723994.820    22587152.801        2977.681  
  24571718.518     -450053.156      -31561.566    24571730.424        3376.348  
  20634213.566     -556567.176     -413383.082    20634208.758        1651.006  
  23335173.193     -672391.027     -491484.363    23335171.254        2036.089  
  22636429.465      607693.281      453681.980    22636426.400       -1919.785  
  21319362.104      401178.996      299038.055    21319358.401       -1351.172  
 15  1 28  5 58  6.0000000  0  7G24G22G25G18G14G15G21               
  20528604.555      299889.215      226185.258    20528602.939       -1067.095  
  22586591.689     -972906.230     -726314.910    22586585.851        2977.319  
  24571075.807     -453429.137      -34192.164    24571087.970        3376.157  
  20633899.460     -558217.848     -414669.316    20633894.477        1650.479  
  23334785.470     -674426.898     -493070.762    23334784.147        2035.830  
  22636795.073      609613.180      455178.016    22636791.970       -1919.927  
  21319619.527      402530.535      300091.199    21319615.825       -1351.870  
 15  1 28  5 58  7.0000000  0  7G24G22G25G18G14G15G21               
  20528807.902      300956.676      227017.039    20528806.628       -1067.803  
  22586025.445     -975883.539     -728634.883    22586019.382        2977.187  
  24570433.122     -456805.238      -36822.855    24570445.582        3376.138  
  20633585.450     -559868.195     -415955.293    20633580.490        1650.181  
  23334397.985     -676462.590     -494657.020    23334396.415        2035.625  
  22637160.677      611533.207      456674.145    22637157.295       -1920.098  
  21319876.709      403882.676      301144.813    21319873.185       -1352.461  
 15  1 28  5 58  8.0000000  0  7G24G22G25G18G14G15G21               
  20529011.110      302024.723      227849.285    20529009.353       -1068.330  
  22585459.517     -978860.680     -730954.727    22585452.832        2977.026  
  24569790.587     -460181.340      -39453.531    24569802.738        3376.162  
  20633270.779     -561518.160     -417240.984    20633266.507        1649.800  
  23334010.364     -678498.070     -496243.098    23334009.149        2035.454  
  22637525.743      613453.313      458170.324    22637522.500       -1920.200  
  21320133.743      405235.371      302198.859    21320130.774       -1352.954  
 15  1 28  5 58  9.0000000  0  7G24G22G25G18G14G15G21               
  20529214.201      303093.422      228682.043    20529212.755       -1069.038  
  22584892.122     -981837.680     -733274.453    22584885.821        2976.968  
  24569149.400     -463557.559      -42084.344    24569160.651        3376.333  
  20632957.421     -563167.727     -418526.359    20632952.252        1649.390  
  23333622.735     -680533.344     -497829.008    23333621.719        2035.273  
  22637891.263      615373.512      459666.586    22637887.369       -1920.278  
  21320391.416      406588.680      303253.383    21320387.938       -1353.652  
 15  1 28  5 58 10.0000000  0  7G24G22G25G18G14G15G21               
  20529417.655      304162.746      229515.277    20529416.413       -1069.644  
  22584325.497     -984814.488     -735594.035    22584319.241        2976.714  
  24568507.117     -466933.781      -44715.137    24568518.119        3376.138  
  20632643.488     -564816.922     -419811.441    20632638.909        1648.989  
  23333235.826     -682568.324     -499414.688    23333234.275        2034.922  
  22638256.586      617293.848      461162.957    22638253.187       -1920.405  
  21320649.467      407942.602      304308.383    21320645.660       -1354.253  
 15  1 28  5 58 11.0000000  0  7G24G22G25G18G14G15G21               
  20529621.098      305232.699      230349.012    20529619.924       -1070.327  
  22583759.360     -987791.148     -737913.504    22583752.835        2976.470  
  24567863.868     -470310.137      -47346.066    24567875.632        3376.455  
  20632330.385     -566465.738     -421096.238    20632324.927        1648.613  
  23332848.381     -684603.160     -501000.273    23332847.595        2034.707  
  22638621.747      619214.293      462659.410    22638618.807       -1920.478  
  21320906.790      409297.090      305363.828    21320903.213       -1354.751  
 15  1 28  5 58 12.0000000  0  7G24G22G25G18G14G15G21               
  20529825.000      306303.316      231183.250    20529823.941       -1070.918  
  22583193.074     -990767.617     -740232.828    22583186.758        2976.372  
  24567221.371     -473686.508      -49976.980    24567233.382        3376.255  
  20632016.637     -568114.164     -422380.734    20632011.016        1648.330  
  23332461.204     -686637.680     -502585.613    23332460.076        2034.253  
  22638987.400      621134.875      464155.973    22638984.160       -1920.728  
  21321164.925      410652.223      306419.773    21321161.340       -1355.571  
 15  1 28  5 58 13.0000000  0  7G24G22G25G18G14G15G21               
  20530028.568      307374.625      232018.043    20530027.759       -1071.563  
  22582627.241     -993743.840     -742551.965    22582619.937        2976.191  
  24566579.334     -477062.809      -52607.879    24566590.514        3376.304  
  20631702.935     -569762.109     -423664.852    20631697.846        1647.759  
  23332074.290     -688671.938     -504170.746    23332072.611        2034.165  
  22639353.396      623055.664      465652.684    22639349.439       -1920.840  
  21321422.747      412008.008      307476.227    21321418.776       -1356.016  
 15  1 28  5 58 14.0000000  0  7G24G22G25G18G14G15G21               
  20530232.673      308446.672      232853.406    20530231.380       -1072.466  
  22582060.598     -996719.801     -744870.895    22582053.614        2975.776  
  24565936.675     -480439.129      -55238.785    24565947.963        3376.270  
  20631389.121     -571409.598     -424948.602    20631383.522        1647.295  
  23331687.350     -690705.898     -505755.645    23331685.788        2033.711  
  22639718.322      624976.633      467149.543    22639714.693       -1921.118  
  21321681.011      413364.504      308533.230    21321676.922       -1356.934  
 15  1 28  5 58 15.0000000  0  7G24G22G25G18G14G15G21               
  20530437.241      309519.422      233689.316    20530435.672       -1073.032  
  22581494.870     -999695.543     -747189.645    22581487.626        2975.654  
  24565294.203     -483815.438      -57869.613    24565305.634        3376.143  
  20631075.729     -573056.652     -426232.027    20631070.886        1646.841  
  23331300.211     -692739.531     -507340.289    23331298.604        2033.408  
  22640084.132      626897.809      468646.563    22640080.839       -1921.299  
  21321939.265      414721.645      309590.742    21321935.274       -1357.427  
 15  1 28  5 58 16.0000000  0  7G24G22G25G18G14G15G21               
  20530641.695      310592.824      234525.738    20530640.128       -1073.750  
  22580928.784    -1002671.090     -749508.258    22580921.252        2975.425  
  24564651.107     -487191.758      -60500.469    24564663.535        3376.411  
  20630762.289     -574703.301     -427515.129    20630756.828        1646.523  
  23330913.878     -694772.957     -508924.766    23330911.899        2033.291  
  22640449.482      628819.117      470143.688    22640446.624       -1921.313  
  21322197.951      416079.422      310648.742    21322193.910       -1358.130  
 15  1 28  5 58 17.0000000  0  7G24G22G25G18G14G15G21               
  20530845.432      311666.891      235362.676    20530844.357       -1074.448  
  22580361.903    -1005646.457     -751826.727    22580355.061        2975.215  
  24564008.869     -490568.117      -63131.324    24564021.288        3376.386  
  20630449.154     -576349.531     -428797.902    20630443.616        1645.986  
  23330526.351     -696806.129     -510509.039    23330525.379        2033.062  
  22640815.261      630740.555      471640.906    22640811.920       -1921.631  
  21322456.313      417437.793      311707.215    21322452.118       -1358.745  
 15  1 28  5 58 18.0000000  0  7G24G22G25G18G14G15G21               
  20531050.179      312741.594      236200.105    20531048.935       -1075.039  
  22579795.842    -1008621.652     -754145.059    22579789.039        2975.171  
  24563366.441     -493944.578      -65762.297    24563378.601        3376.558  
  20630135.993     -577995.410     -430080.402    20630130.771        1645.815  
  23330139.882     -698839.055     -512093.129    23330138.376        2032.905  
  22641181.074      632662.113      473138.227    22641177.400       -1921.577  
  21322714.969      418796.762      312766.148    21322710.832       -1359.243  
 15  1 28  5 58 19.0000000  0  7G24G22G25G18G14G15G21               
  20531254.872      313816.875      237037.980    20531253.673       -1075.596  
  22579229.091    -1011596.723     -756463.293    22579222.875        2974.814  
  24562723.896     -497321.090      -68393.352    24562735.931        3376.250  
  20629822.829     -579640.953     -431362.641    20629817.279        1645.430  
  23329753.003     -700871.797     -513677.078    23329751.741        2032.646  
  22641546.626      634583.730      474635.586    22641542.756       -1921.655  
  21322973.504      420156.258      313825.500    21322969.790       -1359.819  
 15  1 28  5 58 20.0000000  0  7G24G22G25G18G14G15G21               
  20531459.407      314892.758      237876.336    20531458.193       -1076.167  
  22578663.216    -1014571.691     -758781.453    22578656.740        2974.878  
  24562081.560     -500697.754      -71024.523    24562093.829        3376.899  
  20629509.787     -581286.125     -432644.598    20629504.242        1645.010  
  23329365.776     -702904.375     -515260.906    23329364.447        2032.451  
  22641912.235      636505.426      476133.008    22641908.692       -1921.743  
  21323232.153      421516.328      314885.289    21323228.443       -1360.410  
 15  1 28  5 58 21.0000000  0  7G24G22G25G18G14G15G21               
  20531664.264      315969.238      238715.156    20531663.119       -1076.841  
  22578096.777    -1017546.496     -761099.480    22578091.164        2974.683  
  24561438.503     -504074.434      -73655.703    24561451.408        3376.641  
  20629196.814     -582930.969     -433926.293    20629191.561        1644.653  
  23328980.229     -704936.754     -516844.578    23328978.229        2032.388  
  22642278.149      638427.219      477630.496    22642274.538       -1921.768  
  21323490.963      422876.973      315945.527    21323487.789       -1360.859  
 15  1 28  5 58 22.0000000  0  7G24G22G25G18G14G15G21               
  20531869.329      317046.262      239554.398    20531868.026       -1077.305  
  22577531.068    -1020521.234     -763417.449    22577524.956        2974.731  
  24560795.223     -507451.262      -76286.973    24560808.855        3376.933  
  20628883.229     -584575.500     -435207.742    20628878.403        1644.473  
  23328592.842     -706968.980     -518428.129    23328591.142        2032.114  
  22642643.785      640349.020      479128.000    22642640.454       -1921.689  
  21323750.197      424238.117      317006.160    21323746.498       -1361.362  
 15  1 28  5 58 23.0000000  0  7G24G22G25G18G14G15G21               
  20532074.634      318123.891      240394.105    20532073.277       -1077.891  
  22576964.858    -1023495.840     -765735.316    22576958.770        2974.531  
  24560153.604     -510828.289      -78918.414    24560166.178        3376.924  
  20628570.852     -586219.703     -436488.938    20628565.410        1644.028  
  23328205.855     -709001.078     -520011.574    23328204.574        2032.129  
  22643009.202      642270.902      480625.559    22643005.837       -1921.782  
  21324009.370      425599.813      318067.219    21324005.744       -1361.963  
 15  1 28  5 58 24.0000000  0  7G24G22G25G18G14G15G21               
  20532279.241      319202.160      241234.316    20532278.127       -1078.672  
  22576398.964    -1026470.309     -768053.094    22576393.042        2974.414  
  24559510.608     -514205.266      -81549.781    24559523.813        3377.109  
  20628257.939     -587863.527     -437769.836    20628253.014        1643.506  
  23327819.939     -711032.902     -521594.801    23327818.138        2031.631  
  22643375.038      644192.922      482123.238    22643371.868       -1922.173  
  21324268.658      426962.125      319128.758    21324264.957       -1362.646  
 15  1 28  5 58 25.0000000  0  7G24G22G25G18G14G15G21               
  20532485.132      320280.980      242074.953    20532483.149       -1079.072  
  22575832.770    -1029444.648     -770370.762    22575826.951        2974.360  
  24558867.040     -517582.398      -84181.285    24558880.902        3377.236  
  20627945.171     -589507.031     -439050.488    20627940.348        1643.384  
  23327432.789     -713064.555     -523177.910    23327431.522        2031.587  
  22643741.122      646114.965      483620.934    22643737.277       -1922.173  
  21324527.817      428324.930      320190.680    21324523.994       -1363.052  
 15  1 28  5 58 26.0000000  0  7G24G22G25G18G14G15G21               
  20532690.605      321360.352      242916.027    20532688.472       -1079.663  
  22575267.199    -1032418.934     -772688.379    22575261.438        2974.248  
  24558224.708     -520959.699      -86812.922    24558238.319        3377.368  
  20627632.387     -591150.266     -440330.930    20627627.279        1643.086  
  23327046.220     -715096.109     -524760.945    23327044.858        2031.514  
  22644106.656      648037.004      485118.625    22644103.445       -1922.134  
  21324787.561      429688.258      321253.020    21324783.215       -1363.603  
 15  1 28  5 58 27.0000000  0  7G24G22G25G18G14G15G21               
  20532896.086      322440.313      243757.547    20532894.403       -1080.210  
  22574701.544    -1035393.078     -775005.898    22574694.928        2974.126  
  24557581.370     -524337.074      -89444.641    24557595.471        3377.573  
  20627319.646     -592793.137     -441611.090    20627314.609        1642.730  
  23326659.689     -717127.469     -526343.809    23326658.294        2031.333  
  22644472.387      649959.156      486616.414    22644469.029       -1922.104  
  21325047.051      431052.164      322315.797    21325043.163       -1364.185  
 15  1 28  5 58 28.0000000  0  7G24G22G25G18G14G15G21               
  20533101.744      323520.840      244599.512    20533100.188       -1080.850  
  22574135.763    -1038367.129     -777323.336    22574129.244        2974.004  
  24556939.073     -527714.574      -92076.461    24556952.827        3377.725  
  20627007.661     -594435.684     -442891.000    20627002.244        1642.344  
  23326272.903     -719158.680     -527926.574    23326271.650        2031.074  
  22644838.161      651881.359      488114.234    22644835.198       -1922.202  
  21325306.535      432416.563      323378.961    21325302.692       -1364.683  
 15  1 28  5 58 29.0000000  0  7G24G22G25G18G14G15G21               
  20533307.133      324601.938      245441.926    20533305.598       -1081.509  
  22573569.659    -1041341.082     -779640.703    22573563.239        2973.843  
  24556295.934     -531092.199      -94708.344    24556309.735        3377.681  
  20626694.754     -596077.906     -444170.660    20626689.570        1642.021  
  23325886.789     -721189.707     -529509.188    23325884.839        2030.977  
  22645203.674      653803.617      489612.105    22645200.927       -1922.407  
  21325566.268      433781.539      324442.574    21325562.461       -1365.293  
 15  1 28  5 58 30.0000000  0  7G24G22G25G18G14G15G21               
  20533513.011      325683.711      246284.871    20533511.421       -1082.065  
  22573003.537    -1044314.828     -781957.898    22572997.721        2973.706  
  24555652.952     -534469.832      -97340.227    24555667.618        3377.676  
  20626382.773     -597719.734     -445450.000    20626377.264        1641.660  
  23325500.943     -723220.477     -531091.602    23325498.762        2030.732  
  22645570.199      655726.039      491110.098    22645566.800       -1922.529  
  21325826.208      435147.105      325506.656    21325822.354       -1365.825  
 15  1 28  5 58 31.0000000  0  7G24G22G25G18G14G15G21               
  20533719.061      326766.070      247128.266    20533717.246       -1082.700  
  22572437.715    -1047288.449     -784274.992    22572431.480        2973.550  
  24555009.307     -537847.559      -99972.203    24555024.591        3377.881  
  20626069.950     -599361.211     -446729.074    20626064.971        1641.348  
  23325114.685     -725251.086     -532673.887    23325112.054        2030.435  
  22645936.015      657648.504      492608.117    22645932.573       -1922.617  
  21326086.006      436513.250      326571.184    21326082.086       -1366.445  
 15  1 28  5 58 32.0000000  0  7G24G22G25G18G14G15G21               
  20533925.211      327849.098      247972.184    20533923.574       -1083.418  
  22571872.045    -1050261.836     -786591.918    22571865.799        2973.179  
  24554367.640     -541225.309     -102604.160    24554381.840        3377.607  
  20625758.201     -601002.254     -448007.801    20625752.454        1640.742  
  23324727.471     -727281.406     -534255.945    23324725.933        2030.073  
  22646301.316      659571.125      494106.262    22646298.328       -1922.739  
  21326345.920      437880.008      327636.184    21326342.412       -1367.041  
 15  1 28  5 58 33.0000000  0  7G24G22G25G18G14G15G21               
  20534131.723      328932.828      248816.656    20534129.984       -1084.077  
  22571305.915    -1053235.008     -788908.680    22571299.845        2973.101  
  24553725.600     -544603.031     -105236.121    24553738.899        3377.583  
  20625445.717     -602642.797     -449286.145    20625440.029        1640.264  
  23324341.008     -729311.438     -535837.785    23324339.725        2029.878  
  22646667.386      661493.973      495604.582    22646664.054       -1923.047  
  21326606.376      439247.473      328701.734    21326602.545       -1367.759  
 15  1 28  5 58 34.0000000  0  7G24G22G25G18G14G15G21               
  20534337.860      330017.258      249661.660    20534336.485       -1084.785  
  22570740.044    -1056207.957     -791225.262    22570733.864        2972.837  
  24553082.539     -547980.773     -107868.125    24553096.850        3377.856  
  20625133.688     -604282.957     -450564.195    20625128.263        1639.975  
  23323954.735     -731341.168     -537419.391    23323953.302        2029.575  
  22647034.126      663416.957      497103.004    22647030.233       -1923.047  
  21326866.784      440615.559      329767.773    21326863.175       -1368.384  
 15  1 28  5 58 35.0000000  0  7G24G22G25G18G14G15G21               
  20534544.150      331102.359      250507.195    20534542.877       -1085.532  
  22570174.749    -1059180.668     -793541.660    22570168.500        2972.515  
  24552439.771     -551358.469     -110500.082    24552453.819        3377.686  
  20624821.983     -605922.652     -451841.883    20624816.193        1639.438  
  23323568.671     -733370.633     -539000.793    23323566.988        2029.297  
  22647399.691      665340.148      498601.590    22647395.966       -1923.276  
  21327127.224      441984.309      330834.324    21327123.477       -1369.106  
 15  1 28  5 58 36.0000000  0  7G24G22G25G18G14G15G21               
  20534750.530      332188.102      251353.230    20534749.293       -1086.099  
  22569609.323    -1062153.230     -795857.934    22569603.115        2972.456  
  24551796.627     -554736.324     -113132.148    24551810.793        3378.198  
  20624509.598     -607561.984     -453119.285    20624504.326        1639.067  
  23323182.436     -735399.906     -540582.047    23323180.822        2029.204  
  22647765.225      667263.414      500100.234    22647762.392       -1923.267  
  21327387.850      443353.645      331901.336    21327384.123       -1369.536  
 15  1 28  5 58 37.0000000  0  7G24G22G25G18G14G15G21               
  20534957.269      333274.441      252199.727    20534955.977       -1086.592  
  22569043.119    -1065125.656     -798174.109    22569037.271        2972.402  
  24551154.322     -558114.184     -115764.199    24551167.833        3378.052  
  20624197.595     -609200.965     -454396.406    20624192.543        1638.945  
  23322796.146     -737428.961     -542163.129    23322794.552        2029.038  
  22648131.427      669186.762      501598.945    22648128.203       -1923.276  
  21327648.449      444723.547      332968.797    21327644.791       -1370.068  
 15  1 28  5 58 38.0000000  0  7G24G22G25G18G14G15G21               
  20535164.630      334361.254      253046.598    20535162.863       -1087.139  
  22568477.808    -1068098.051     -800490.254    22568471.741        2972.217  
  24550512.045     -561492.195     -118396.406    24550524.977        3378.022  
  20623885.869     -610839.676     -455673.324    20623880.643        1638.589  
  23322410.321     -739457.926     -543744.137    23322408.510        2028.901  
  22648497.362      671110.090      503097.652    22648494.067       -1923.462  
  21327908.787      446093.922      334036.621    21327905.612       -1370.771  
 15  1 28  5 58 39.0000000  0  7G24G22G25G18G14G15G21               
  20535371.059      335448.719      253893.973    20535369.476       -1087.817  
  22567912.490    -1071070.273     -802806.270    22567906.487        2972.129  
  24549868.565     -564870.289     -121028.652    24549882.118        3378.159  
  20623573.872     -612477.992     -456949.938    20623568.750        1638.081  
  23322023.834     -741486.641     -545324.941    23322022.362        2028.628  
  22648863.518      673033.586      504596.480    22648860.485       -1923.452  
  21328169.916      447464.895      335104.910    21328166.823       -1371.348  
 15  1 28  5 58 40.0000000  0  7G24G22G25G18G14G15G21               
  20535578.201      336536.828      254741.848    20535576.991       -1088.447  
  22567346.821    -1074042.281     -805122.113    22567340.770        2971.909  
  24549224.627     -568248.414     -123660.949    24549239.696        3378.027  
  20623262.643     -614115.922     -458226.246    20623257.039        1637.676  
  23321638.569     -743515.133     -546905.582    23321636.615        2028.335  
  22649229.187      674957.188      506095.391    22649226.324       -1923.599  
  21328430.978      448836.473      336173.672    21328427.665       -1371.860  
 15  1 28  5 58 41.0000000  0  7G24G22G25G18G14G15G21               
  20535785.367      337625.648      255590.289    20535784.015       -1089.224  
  22566781.366    -1077014.094     -807437.805    22566774.820        2971.689  
  24548582.288     -571626.563     -126293.266    24548596.860        3377.988  
  20622950.822     -615753.414     -459502.215    20622945.501        1637.251  
  23321252.495     -745543.320     -548485.992    23321251.177        2027.988  
  22649595.506      676880.965      507594.434    22649592.453       -1923.828  
  21328692.349      450208.703      337242.941    21328688.591       -1372.559  
 15  1 28  5 58 42.0000000  0  7G24G22G25G18G14G15G21               
  20535992.803      338715.129      256439.227    20535991.357       -1089.844  
  22566215.762    -1079985.695     -809753.328    22566209.268        2971.528  
  24547938.715     -575004.703     -128925.574    24547954.066        3377.959  
  20622639.409     -617390.477     -460777.844    20622633.976        1636.841  
  23320866.107     -747571.289     -550066.223    23320865.281        2027.842  
  22649961.683      678804.910      509093.605    22649958.414       -1924.175  
  21328953.200      451581.574      338312.715    21328949.881       -1373.164  
 15  1 28  5 58 43.0000000  0  7G24G22G25G18G14G15G21               
  20536200.749      339805.297      257288.703    20536198.513       -1090.562  
  22565650.275    -1082957.059     -812068.676    22565644.077        2971.230  
  24547295.863     -578382.836     -131557.922    24547311.143        3377.851  
  20622328.023     -619027.121     -462053.145    20622322.285        1636.465  
  23320481.193     -749598.969     -551646.223    23320479.077        2027.480  
  22650328.382      680729.008      510592.895    22650324.258       -1924.185  
  21329214.602      452955.086      339382.973    21329211.412       -1373.828  
 15  1 28  5 58 44.0000000  0  7G24G22G25G18G14G15G21               
  20536407.991      340896.113      258138.688    20536406.233       -1091.196  
  22565085.187    -1085928.254     -814383.895    22565078.441        2971.108  
  24546653.696     -581761.137     -134190.320    24546668.177        3378.271  
  20622016.987     -620663.352     -463328.137    20622011.481        1636.079  
  23320095.229     -751626.434     -553226.051    23320093.523        2027.471  
  22650693.508      682653.227      512092.273    22650690.338       -1924.307  
  21329475.699      454329.203      340453.707    21329472.422       -1374.468  
 15  1 28  5 58 45.0000000  0  7G24G22G25G18G14G15G21               
  20536615.772      341987.516      258989.133    20536613.956       -1091.631  
  22564519.366    -1088899.324     -816699.020    22564512.787        2970.913  
  24546011.118     -585139.387     -136822.660    24546025.155        3378.496  
  20621705.350     -622299.230     -464602.848    20621700.119        1635.742  
  23319709.291     -753653.668     -554805.699    23319707.667        2027.134  
  22651060.103      684577.535      513591.719    22651056.176       -1924.331  
  21329737.937      455703.859      341524.859    21329733.925       -1374.902  
 15  1 28  5 58 46.0000000  0  7G24G22G25G18G14G15G21               
  20536823.329      343079.520      259840.039    20536821.609       -1092.275  
  22563954.474    -1091870.262     -819014.039    22563947.286        2970.796  
  24545368.762     -588517.711     -139455.043    24545383.004        3378.188  
  20621394.042     -623934.770     -465877.293    20621388.745        1635.352  
  23319323.064     -755680.727     -556385.223    23319321.899        2026.963  
  22651426.084      686501.902      515091.234    22651422.609       -1924.414  
  21329999.648      457079.094      342596.477    21329995.755       -1375.493  
 15  1 28  5 58 47.0000000  0  7G24G22G25G18G14G15G21               
  20537031.536      344172.086      260691.387    20537029.393       -1092.813  
  22563389.463    -1094841.082     -821328.961    22563381.744        2970.752  
  24544725.813     -591896.242     -142087.660    24544739.844        3378.579  
  20621082.691     -625569.980     -467151.480    20621077.541        1635.059  
  23318937.356     -757707.617     -557964.621    23318936.200        2026.836  
  22651792.427      688426.348      516590.820    22651789.097       -1924.512  
  21330261.314      458454.871      343668.508    21330257.953       -1376.074  
 15  1 28  5 58 48.0000000  0  7G24G22G25G18G14G15G21               
  20537239.565      345265.293      261543.234    20537237.806       -1093.550  
  22562824.474    -1097811.703     -823643.715    22562817.030        2970.440  
  24544082.955     -595274.809     -144720.309    24544096.645        3378.496  
  20620771.916     -627204.766     -468425.328    20620766.397        1634.551  
  23318551.581     -759734.250     -559543.801    23318550.045        2026.450  
  22652158.652      690350.949      518090.523    22652155.619       -1924.697  
  21330523.176      459831.277      344741.039    21330519.681       -1376.821  
 15  1 28  5 58 49.0000000  0  7G24G22G25G18G14G15G21               
  20537447.834      346359.133      262395.578    20537445.930       -1094.106  
  22562258.812    -1100782.172     -825958.352    22562251.707        2970.454  
  24543440.122     -598653.340     -147352.906    24543453.957        3378.681  
  20620460.480     -628839.180     -469698.895    20620455.471        1634.292  
  23318165.846     -761760.684     -561122.852    23318165.228        2026.338  
  22652525.646      692275.645      519590.289    22652521.499       -1924.683  
  21330785.275      461208.238      345813.992    21330781.912       -1377.178  
 15  1 28  5 58 50.0000000  0  7G24G22G25G18G14G15G21               
  20537655.466      347453.555      263248.379    20537653.919       -1094.751  
  22561693.295    -1103752.535     -828272.922    22561686.606        2970.322  
  24542797.164     -602032.027     -149985.629    24542810.991        3378.750  
  20620149.689     -630473.266     -470972.207    20620144.760        1633.911  
  23317780.660     -763786.934     -562701.738    23317779.354        2026.245  
  22652891.337      694200.391      521090.090    22652887.877       -1924.683  
  21331047.581      462585.746      346887.367    21331043.773       -1377.774  
 15  1 28  5 58 51.0000000  0  7G24G22G25G18G14G15G21               
  20537864.524      348548.551      264101.625    20537862.366       -1095.303  
  22561127.922    -1106722.742     -830587.375    22561121.140        2970.132  
  24542152.834     -605410.797     -152618.438    24542167.993        3378.696  
  20619838.693     -632106.984     -472245.246    20619833.681        1633.496  
  23317394.905     -765812.992     -564280.473    23317393.677        2026.011  
  22653257.585      696125.262      522589.984    22653254.163       -1924.995  
  21331310.274      463963.832      347961.203    21331306.136       -1378.354  
 15  1 28  5 58 52.0000000  0  7G24G22G25G18G14G15G21               
  20538073.082      349644.207      264955.387    20538071.218       -1095.933  
  22560562.619    -1109692.805     -832901.703    22560555.887        2970.083  
  24541509.619     -608789.594     -155251.258    24541524.768        3378.618  
  20619527.894     -633740.371     -473518.016    20619522.748        1633.311  
  23317009.676     -767838.813     -565859.027    23317008.231        2025.615  
  22653623.881      698050.223      524089.945    22653620.527       -1924.951  
  21331571.837      465342.500      349035.484    21331568.601       -1378.945  
 15  1 28  5 58 53.0000000  0  7G24G22G25G18G14G15G21               
  20538281.003      350740.477      265809.617    20538279.882       -1096.641  
  22559997.441    -1112662.691     -835215.902    22559990.932        2969.751  
  24540867.736     -612168.516     -157884.180    24540881.755        3378.765  
  20619217.438     -635373.332     -474790.449    20619212.324        1632.764  
  23316624.125     -769864.434     -567437.434    23316622.750        2025.444  
  22653990.591      699975.285      525589.992    22653987.210       -1925.205  
  21331834.655      466721.770      350110.234    21331830.788       -1379.546  
 15  1 28  5 58 54.0000000  0  7G24G22G25G18G14G15G21               
  20538490.049      351837.379      266664.344    20538488.264       -1097.236  
  22559432.786    -1115632.398     -837529.949    22559425.804        2969.624  
  24540224.339     -615547.465     -160517.031    24540238.935        3379.028  
  20618906.606     -637005.895     -476062.578    20618901.196        1632.334  
  23316238.426     -771889.816     -569015.648    23316236.787        2025.244  
  22654356.722      701900.477      527090.145    22654353.495       -1925.254  
  21332096.940      468101.621      351185.449    21332093.463       -1380.122  
 15  1 28  5 58 55.0000000  0  7G24G22G25G18G14G15G21               
  20538698.967      352934.820      267519.492    20538697.460       -1097.603  
  22558867.539    -1118602.023     -839843.938    22558861.210        2969.629  
  24539582.003     -618926.559     -163150.063    24539595.532        3379.224  
  20618596.125     -638638.184     -477334.488    20618590.881        1632.158  
  23315852.937     -773915.066     -570593.754    23315851.859        2025.220  
  22654723.306      703825.711      528590.328    22654719.389       -1925.264  
  21332360.220      469482.004      352261.066    21332356.435       -1380.562  
 15  1 28  5 58 56.0000000  0  7G24G22G25G18G14G15G21               
  20538907.785      354032.793      268375.063    20538905.905       -1098.276  
  22558301.913    -1121571.574     -842157.867    22558295.856        2969.575  
  24538938.274     -622305.684     -165783.141    24538953.145        3379.268  
  20618285.273     -640270.176     -478606.172    20618280.321        1631.743  
  23315467.370     -775940.191     -572171.762    23315466.501        2024.990  
  22655089.113      705750.938      530090.508    22655086.040       -1925.215  
  21332622.555      470862.859      353337.059    21332618.954       -1381.128  
 15  1 28  5 58 57.0000000  0  7G24G22G25G18G14G15G21               
  20539117.057      355131.328      269231.066    20539115.184       -1098.838  
  22557736.917    -1124540.996     -844471.707    22557730.359        2969.277  
  24538295.889     -625685.039     -168416.445    24538309.870        3379.351  
  20617974.754     -641901.848     -479877.605    20617969.198        1631.523  
  23315082.135     -777965.148     -573749.648    23315081.319        2024.937  
  22655455.408      707676.246      531590.734    22655451.851       -1925.259  
  21332885.695      472244.285      354413.488    21332881.913       -1381.651  
 15  1 28  5 58 58.0000000  0  7G24G22G25G18G14G15G21               
  20539326.085      356230.641      270087.672    20539324.494       -1099.683  
  22557171.865    -1127510.168     -846785.336    22557165.593        2969.023  
  24537652.834     -629064.285     -171049.621    24537666.840        3379.258  
  20617664.472     -643533.008     -481148.641    20617659.282        1630.918  
  23314696.390     -779989.777     -575327.277    23314695.843        2024.531  
  22655822.398      709601.789      533091.145    22655819.026       -1925.723  
  21333148.754      473626.402      355490.453    21333144.540       -1382.388  
 15  1 28  5 58 59.0000000  0  7G24G22G25G18G14G15G21               
  20539535.431      357330.633      270944.809    20539533.829       -1100.386  
  22556607.111    -1130479.098     -849098.785    22556600.757        2968.760  
  24537009.066     -632443.543     -173682.797    24537023.604        3379.297  
  20617354.340     -645163.746     -482419.344    20617348.689        1630.498  
  23314311.455     -782014.098     -576904.668    23314310.556        2024.224  
  22656188.861      711527.465      534591.676    22656185.005       -1925.811  
  21333411.399      475009.160      356567.930    21333407.884       -1383.101  
 15  1 28  5 59  0.0000000  0  7G24G22G25G18G14G15G21               
  20539744.312      358431.328      271802.488    20539743.210       -1101.016  
  22556042.302    -1133447.785     -851412.047    22556035.397        2968.599  
  24536365.896     -635822.809     -176315.984    24536380.738        3379.092  
  20617044.616     -646794.016     -483689.688    20617038.570        1630.059  
  23313926.397     -784038.137     -578481.836    23313925.429        2023.931  
  22656555.303      713453.367      536092.383    22656551.757       -1925.933  
  21333675.273      476392.570      357645.906    21333671.277       -1383.677  
 15  1 28  5 59  1.0000000  0  7G24G22G25G18G14G15G21               
  20539954.080      359532.730      272660.719    20539952.976       -1101.753  
  22555476.935    -1136416.254     -853725.137    22555470.568        2968.389  
  24535722.397     -639202.023     -178949.105    24535737.531        3379.224  
  20616733.934     -648423.848     -484959.684    20616728.587        1629.683  
  23313541.701     -786061.902     -580058.801    23313540.416        2023.594  
  22656921.877      715379.434      537593.211    22656918.117       -1926.123  
  21333938.458      477776.664      358724.422    21333935.055       -1384.331  
 15  1 28  5 59  2.0000000  0  7G24G22G25G18G14G15G21               
  20540163.883      360634.813      273519.488    20540162.362       -1102.549  
  22554912.408    -1139384.488     -856038.047    22554905.889        2968.169  
  24535079.556     -642581.285     -181582.215    24535094.166        3379.165  
  20616423.849     -650053.238     -486229.340    20616418.348        1629.165  
  23313156.267     -788085.398     -581635.535    23313154.914        2023.311  
  22657288.452      717305.641      539094.156    22657284.563       -1926.274  
  21334201.834      479161.379      359803.418    21334198.246       -1385.068  
 15  1 28  5 59  3.0000000  0  7G24G22G25G18G14G15G21               
  20540373.650      361737.543      274378.754    20540372.314       -1103.105  
  22554347.147    -1142352.523     -858350.797    22554340.820        2967.930  
  24534435.744     -645960.594     -184215.367    24534451.600        3379.438  
  20616113.620     -651682.215     -487498.664    20616108.579        1628.770  
  23312771.679     -790108.625     -583212.070    23312770.507        2023.140  
  22657654.762      719232.023      540595.254    22657651.349       -1926.465  
  21334465.286      480546.738      360882.922    21334461.666       -1385.615  
 15  1 28  5 59  4.0000000  0  7G24G22G25G18G14G15G21               
  20540583.910      362840.906      275238.520    20540582.550       -1103.760  
  22553783.172    -1145320.406     -860663.430    22553776.634        2967.866  
  24533793.947     -649339.875     -186848.531    24533808.549        3379.434  
  20615803.895     -653310.809     -488767.703    20615798.707        1628.413  
  23312386.743     -792131.637     -584788.434    23312385.390        2022.959  
  22658020.775      721158.508      542096.414    22658018.019       -1926.489  
  21334729.283      481932.648      361962.852    21334725.401       -1386.099  
 15  1 28  5 59  5.0000000  0  7G24G22G25G18G14G15G21               
  20540793.943      363944.824      276098.711    20540792.315       -1104.189  
  22553218.096    -1148288.168     -862975.965    22553211.939        2967.676  
  24533150.266     -652719.328     -189481.867    24533165.788        3379.565  
  20615493.956     -654939.090     -490036.492    20615488.622        1628.101  
  23312001.532     -794154.477     -586364.676    23311999.839        2022.759  
  22658388.023      723085.031      543597.594    22658384.457       -1926.509  
  21334993.174      483319.121      363043.219    21334989.363       -1386.821  
 15  1 28  5 59  6.0000000  0  7G24G22G25G18G14G15G21               
  20541004.248      365049.461      276959.477    20541002.145       -1104.985  
  22552653.674    -1151255.699     -865288.320    22552647.291        2967.447  
  24532507.337     -656098.758     -192115.195    24532522.018        3379.658  
  20615184.520     -656566.910     -491304.926    20615179.089        1627.603  
  23311617.481     -796177.039     -587940.688    23311615.373        2022.422  
  22658754.608      725011.766      545098.938    22658751.297       -1926.890  
  21335257.207      484706.246      364124.090    21335253.265       -1387.534  
 15  1 28  5 59  7.0000000  0  7G24G22G25G18G14G15G21               
  20541215.006      366154.719      277820.711    20541213.282       -1105.537  
  22552088.892    -1154223.055     -867600.547    22552082.516        2967.300  
  24531864.348     -659478.203     -194748.496    24531879.403        3379.336  
  20614874.262     -658194.332     -492573.047    20614869.246        1627.212  
  23311231.233     -798199.375     -589516.523    23311230.369        2022.339  
  22659121.076      726938.602      546600.355    22659117.809       -1926.851  
  21335521.076      486093.965      365205.426    21335517.181       -1387.993  
 15  1 28  5 59  8.0000000  0  7G24G22G25G18G14G15G21               
  20541425.327      367260.656      278682.480    20541423.537       -1106.230  
  22551524.356    -1157190.211     -869912.621    22551517.418        2967.100  
  24531220.813     -662857.703     -197381.797    24531236.241        3379.692  
  20614565.308     -659821.371     -493840.867    20614559.591        1626.753  
  23310847.203     -800221.438     -591092.148    23310845.585        2021.826  
  22659487.940      728865.594      548101.902    22659484.621       -1927.163  
  21335785.200      487482.305      366287.246    21335781.657       -1388.579  
 15  1 28  5 59  9.0000000  0  7G24G22G25G18G14G15G21               
  20541635.437      368367.133      279544.668    20541634.086       -1106.812  
  22550959.868    -1160157.297     -872224.641    22550952.998        2967.017  
  24530576.954     -666237.301     -200015.254    24530593.483        3379.614  
  20614255.604     -661448.086     -495108.438    20614250.300        1626.455  
  23310462.086     -802243.387     -592667.695    23310461.103        2021.865  
  22659854.422      730792.594      549603.461    22659851.178       -1927.090  
  21336049.447      488871.180      367369.488    21336045.707       -1389.160  
 15  1 28  5 59 10.0000000  0  7G24G22G25G18G14G15G21               
  20541845.952      369474.273      280407.375    20541844.832       -1107.441  
  22550395.204    -1163124.168     -874536.484    22550388.682        2966.768  
  24529934.381     -669616.984     -202648.766    24529950.117        3379.756  
  20613945.716     -663074.395     -496375.684    20613940.331        1626.123  
  23310077.147     -804265.047     -594243.027    23310076.200        2021.558  
  22660221.785      732719.754      551105.141    22660218.098       -1927.271  
  21336313.475      490260.664      368452.195    21336309.930       -1389.790  
 15  1 28  5 59 11.0000000  0  7G24G22G25G18G14G15G21               
  20542057.298      370582.105      281270.621    20542055.155       -1108.130  
  22549831.032    -1166090.813     -876848.156    22549823.633        2966.592  
  24529291.432     -672996.625     -205282.297    24529306.970        3379.868  
  20613636.497     -664700.254     -497642.590    20613631.354        1625.693  
  23309692.667     -806286.469     -595818.152    23309691.614        2021.289  
  22660588.249      734647.082      552606.949    22660584.818       -1927.436  
  21336578.347      491650.777      369535.402    21336574.710       -1390.405  
 15  1 28  5 59 12.0000000  0  7G24G22G25G18G14G15G21               
  20542267.884      371690.566      282134.352    20542266.275       -1108.853  
  22549266.373    -1169057.277     -879159.680    22549259.644        2966.284  
  24528648.492     -676376.223     -207915.684    24528663.544        3379.502  
  20613327.317     -666325.719     -498909.184    20613322.126        1625.254  
  23309308.076     -808307.637     -597393.078    23309306.800        2020.952  
  22660955.085      736574.535      554108.867    22660951.472       -1927.549  
  21336843.251      493041.520      370619.094    21336839.390       -1391.099  
 15  1 28  5 59 13.0000000  0  7G24G22G25G18G14G15G21               
  20542479.228      372799.656      282998.578    20542477.400       -1109.478  
  22548702.212    -1172023.586     -881471.082    22548695.041        2966.147  
  24528004.917     -679755.922     -210549.195    24528020.342        3379.478  
  20613017.591     -667950.797     -500175.477    20613013.032        1624.922  
  23308923.345     -810328.586     -598967.832    23308922.225        2020.796  
  22661322.265      738502.105      555610.875    22661318.421       -1927.632  
  21337107.891      494432.840      371703.234    21337104.308       -1391.704  
 15  1 28  5 59 14.0000000  0  7G24G22G25G18G14G15G21               
  20542689.923      373909.414      283863.324    20542688.573       -1110.103  
  22548137.302    -1174989.656     -883782.293    22548130.613        2965.947  
  24527362.018     -683135.695     -213182.711    24527377.225        3379.790  
  20612708.741     -669575.434     -501441.430    20612703.319        1624.404  
  23308539.390     -812349.238     -600542.363    23308538.233        2020.635  
  22661688.638      740429.840      557113.008    22661684.674       -1927.778  
  21337372.626      495824.813      372787.887    21337368.989       -1392.231  
 15  1 28  5 59 15.0000000  0  7G24G22G25G18G14G15G21               
  20542901.472      375019.762      284728.535    20542899.797       -1110.713  
  22547572.956    -1177955.590     -886093.406    22547566.020        2965.898  
  24526719.467     -686515.484     -215816.324    24526734.273        3379.756  
  20612399.451     -671199.715     -502707.098    20612394.370        1624.111  
  23308154.538     -814369.703     -602116.750    23308153.493        2020.269  
  22662055.383      742357.676      558615.215    22662052.179       -1927.959  
  21337638.138      497217.340      373872.973    21337634.019       -1392.813  
 15  1 28  5 59 16.0000000  0  7G24G22G25G18G14G15G21               
  20543112.676      376130.680      285594.180    20543111.098       -1111.172  
  22547008.504    -1180921.406     -888404.434    22547001.379        2965.757  
  24526075.764     -689895.410     -218449.977    24526090.815        3380.020  
  20612090.707     -672823.660     -503972.512    20612085.065        1623.784  
  23307769.774     -816390.020     -603691.020    23307768.789        2020.288  
  22662422.634      744285.566      560117.469    22662418.753       -1927.979  
  21337902.968      498610.422      374958.484    21337898.930       -1393.384  
 15  1 28  5 59 17.0000000  0  7G24G22G25G18G14G15G21               
  20543323.979      377242.211      286460.309    20543322.609       -1111.870  
  22546443.897    -1183887.102     -890715.355    22546437.122        2965.576  
  24525433.002     -693275.414     -221083.738    24525447.818        3380.058  
  20611781.723     -674447.262     -505237.660    20611776.346        1623.315  
  23307385.549     -818410.137     -605265.137    23307384.261        2020.005  
  22662788.767      746213.535      561619.777    22662785.908       -1928.032  
  21338167.875      500004.043      376044.426    21338163.781       -1393.936  
 15  1 28  5 59 18.0000000  0  7G24G22G25G18G14G15G21               
  20543535.684      378354.379      287326.938    20543534.481       -1112.485  
  22545879.706    -1186852.617     -893026.148    22545873.246        2965.396  
  24524789.668     -696655.465     -223717.555    24524804.969        3380.195  
  20611472.685     -676070.461     -506502.488    20611467.881        1622.959  
  23307001.048     -820430.031     -606839.074    23307000.459        2019.687  
  22663156.148      748141.613      563122.168    22663152.764       -1928.174  
  21338433.403      501398.266      377130.836    21338429.632       -1394.521  
 15  1 28  5 59 19.0000000  0  7G24G22G25G18G14G15G21               
  20543747.969      379467.180      288194.047    20543745.920       -1113.066  
  22545315.392    -1189817.953     -895336.793    22545308.564        2965.317  
  24524146.452     -700035.559     -226351.359    24524161.399        3380.352  
  20611164.209     -677693.277     -507767.016    20611158.658        1622.642  
  23306616.617     -822449.695     -608412.828    23306615.990        2019.604  
  22663523.026      750069.801      564624.664    22663519.854       -1928.169  
  21338698.928      502793.094      378217.707    21338695.107       -1395.049  
 15  1 28  5 59 20.0000000  0  7G24G22G25G18G14G15G21               
  20543959.852      380580.586      289061.637    20543958.184       -1113.701  
  22544751.122    -1192783.141     -897647.324    22544744.300        2965.083  
  24523502.561     -703415.664     -228985.191    24523518.588        3380.088  
  20610855.139     -679315.707     -509031.246    20610849.944        1622.197  
  23306233.049     -824469.184     -609986.445    23306231.728        2019.380  
  22663889.751      751998.094      566127.230    22663886.693       -1928.374  
  21338964.572      504188.512      379305.043    21338960.472       -1395.747  
 15  1 28  5 59 21.0000000  0  8G24G12G22G25G18G14G15G21            
  20544171.609      381694.566      289929.672    20544170.135       -1114.233  
  23229661.431       -7832.996           0.000           0.000        2796.714  
  22544186.828    -1195748.219     -899957.777    22544180.733        2964.990  
  24522859.349     -706795.938     -231619.172    24522875.373        3380.249  
  20610546.385     -680937.844     -510295.246    20610541.308        1622.002  
  23305848.292     -826488.488     -611559.930    23305847.561        2019.233  
  22664256.702      753926.445      567629.848    22664253.321       -1928.286  
  21339229.799      505584.426      380392.773    21339226.176       -1396.177  
 15  1 28  5 59 22.0000000  0  8G24G12G22G25G18G14G15G21            
  20544383.809      382809.117      290798.156    20544382.016       -1114.756  
  23229130.417      -10629.613           0.000           0.000        2796.333  
  22543622.560    -1198713.180     -902268.133    22543616.227        2964.961  
  24522216.099     -710176.281     -234253.176    24522231.834        3380.161  
  20610238.036     -682559.629     -511558.973    20610233.041        1621.724  
  23305464.401     -828507.586     -613133.250    23305463.126        2019.053  
  22664624.115      755854.879      569132.523    22664620.449       -1928.452  
  21339496.188      506980.898      381480.930    21339491.780       -1396.792  
 15  1 28  5 59 23.0000000  0  8G24G12G22G25G18G14G15G21            
  20544596.017      383924.289      291667.125    20544594.274       -1115.459  
  23228599.221      -13425.977           0.000           0.000        2796.079  
  22543058.272    -1201677.977     -904578.363    22543052.219        2964.688  
  24521574.375     -713556.691     -236887.258    24521588.246        3380.166  
  20609929.272     -684181.004     -512822.383    20609923.910        1621.265  
  23305080.094     -830526.473     -614706.406    23305078.767        2018.745  
  22664991.071      757783.418      570635.270    22664987.464       -1928.521  
  21339761.723      508377.957      382569.539    21339758.059       -1397.368  
 15  1 28  5 59 24.0000000  0  8G24G12G22G25G18G14G15G21            
  20544808.099      385040.102      292536.582    20544806.806       -1116.211  
  23228066.480      -16222.004           0.000           0.000        2795.781  
  22542494.298    -1204642.598     -906888.453    22542487.940        2964.497  
  24520930.993     -716937.207     -239521.387    24520944.935        3380.449  
  20609621.142     -685802.004     -514085.504    20609615.781        1620.776  
  23304695.637     -832545.168     -616279.410    23304694.208        2018.560  
  22665357.824      759712.070      572138.113    22665354.661       -1928.794  
  21340027.838      509775.602      383658.617    21340023.712       -1397.993  
 15  1 28  5 59 25.0000000  0  8G24G12G22G25G18G14G15G21            
  20545020.980      386156.563      293406.555    20545019.092       -1116.802  
  23227534.102      -19018.211           0.000           0.000        2795.698  
  22541930.290    -1207607.004     -909198.379    22541923.688        2964.307  
  24520286.951     -720317.668     -242155.465    24520301.876        3380.488  
  20609312.615     -687422.605     -515348.305    20609307.260        1620.444  
  23304311.879     -834563.594     -617852.203    23304310.475        2018.306  
  22665724.902      761640.855      573641.066    22665721.789       -1928.774  
  21340293.901      511173.883      384748.188    21340289.810       -1398.545  
 15  1 28  5 59 26.0000000  0  8G24G12G22G25G18G14G15G21            
  20545233.334      387273.645      294277.016    20545231.689       -1117.344  
  23227001.820      -21813.621           0.000           0.000        2795.410  
  22541365.892    -1210571.273     -911508.195    22541359.994        2964.126  
  24519643.668     -723698.227     -244789.613    24519658.308        3380.547  
  20609004.069     -689042.809     -516610.805    20608998.947        1620.005  
  23303927.659     -836581.797     -619424.824    23303926.376        2018.106  
  22666092.249      763569.742      575144.090    22666088.919       -1928.940  
  21340559.935      512572.750      385838.207    21340555.814       -1399.141  
 15  1 28  5 59 27.0000000  0  8G24G12G22G25G18G14G15G21            
  20545445.873      388391.422      295148.008    20545444.386       -1118.091  
  23226470.080      -24608.656           0.000           0.000        2794.805  
  22540802.018    -1213535.316     -913817.836    22540795.754        2963.969  
  24518999.920     -727078.770     -247423.793    24519015.110        3380.249  
  20608695.665     -690662.582     -517872.965    20608690.546        1619.556  
  23303543.476     -838599.723     -620997.219    23303542.349        2017.832  
  22666459.104      765498.813      576647.266    22666455.818       -1929.184  
  21340826.152      513972.250      386928.723    21340822.270       -1399.736  
 15  1 28  5 59 28.0000000  0  8G24G12G22G25G18G14G15G21            
  20545658.618      389509.781      296019.449    20545657.116       -1118.765  
  23225939.385      -27403.496           0.000           0.000        2794.648  
  22540237.877    -1216499.215     -916127.359    22540231.800        2963.784  
  24518357.130     -730459.430     -250058.066    24518371.871        3380.566  
  20608387.913     -692282.020     -519134.871    20608382.800        1619.180  
  23303159.614     -840617.461     -622569.477    23303158.476        2017.656  
  22666826.402      767427.969      578150.508    22666822.820       -1929.282  
  21341092.999      515372.305      388019.672    21341088.829       -1400.342  
 15  1 28  5 59 29.0000000  0  8G24G12G22G25G18G14G15G21            
  20545871.869      390628.805      296891.418    20545870.447       -1119.395  
  23225406.140      -30198.020           0.000           0.000        2794.424  
  22539673.629    -1219462.895     -918436.711    22539667.795        2963.598  
  24517713.837     -733840.023     -252692.250    24517728.557        3380.596  
  20608079.380     -693901.004     -520396.414    20608074.582        1618.765  
  23302776.078     -842634.926     -624141.520    23302774.666        2017.314  
  22667193.256      769357.273      579653.855    22667190.025       -1929.414  
  21341359.477      516773.004      389111.125    21341355.450       -1400.981  
 15  1 28  5 59 30.0000000  0  8G24G12G22G25G18G14G15G21            
  20546085.095      391748.574      297763.961    20546083.241       -1120.171  
  23224874.955      -32992.070           0.000           0.000        2793.823  
  22539109.769    -1222426.301     -920745.852    22539103.815        2963.301  
  24517070.270     -737220.617     -255326.434    24517085.040        3380.532  
  20607771.743     -695519.492     -521657.574    20607766.410        1618.183  
  23302392.653     -844652.055     -625713.313    23302390.836        2016.963  
  22667560.495      771286.813      581157.387    22667557.152       -1929.634  
  21341625.750      518174.398      390203.117    21341622.264       -1401.729  
 15  1 28  5 59 31.0000000  0  8G24G12G22G25G18G14G15G21            
  20546298.200      392869.074      298637.078    20546296.747       -1120.791  
  23224343.061      -35785.801           0.000           0.000        2793.574  
  22538546.204    -1225389.445     -923054.797    22538539.904        2963.042  
  24516428.069     -740601.121     -257960.570    24516441.604        3380.454  
  20607464.146     -697137.539     -522918.387    20607458.621        1617.866  
  23302008.447     -846668.883     -627284.867    23302007.229        2016.650  
  22667927.919      773216.539      582661.066    22667924.369       -1929.790  
  21341892.618      519576.457      391295.637    21341888.951       -1402.295  
 15  1 28  5 59 32.0000000  0  8G24G12G22G25G18G14G15G21            
  20546511.325      393990.215      299510.695    20546509.993       -1121.387  
  23223812.684      -38579.109           0.000           0.000        2793.071  
  22537982.046    -1228352.375     -925363.574    22537976.096        2962.822  
  24515783.849     -743981.723     -260594.773    24515798.278        3380.635  
  20607155.754     -698755.129     -524178.848    20607150.831        1617.339  
  23301624.484     -848685.461     -628856.219    23301623.401        2016.426  
  22668295.460      775146.426      584164.863    22668291.862       -1930.000  
  21342159.706      520979.160      392388.648    21342155.615       -1403.027  
 15  1 28  5 59 33.0000000  0  8G24G12G22G25G18G14G15G21            
  20546724.867      395112.023      300384.836    20546723.304       -1122.192  
  23223280.594      -41372.137           0.000           0.000        2792.476  
  22537418.809    -1231315.113     -927672.203    22537412.256        2962.593  
  24515140.752     -747362.262     -263228.973    24515155.234        3380.415  
  20606848.488     -700372.309     -525438.984    20606843.457        1616.909  
  23301241.223     -850701.789     -630427.379    23301239.394        2016.274  
  22668662.412      777076.449      585668.773    22668659.131       -1930.103  
  21342426.432      522382.473      393482.133    21342423.140       -1403.589  
 15  1 28  5 59 34.0000000  0  8G24G12G22G25G18G14G15G21            
  20546938.502      396234.520      301259.508    20546936.889       -1122.783  
  23222748.784      -44164.863           0.000           0.000        2792.700  
  22536855.126    -1234277.625     -929980.652    22536848.644        2962.461  
  24514497.530     -750742.766     -265863.164    24514511.924        3380.366  
  20606540.493     -701989.039     -526698.777    20606535.251        1616.577  
  23300857.707     -852717.809     -631998.297    23300856.064        2015.938  
  22669029.618      779006.645      587172.820    22669026.264       -1930.151  
  21342693.713      523786.422      394576.113    21342689.929       -1404.136  
 15  1 28  5 59 35.0000000  0  8G24G12G22G25G18G14G15G21            
  20547152.308      397357.641      302134.676    20547150.752       -1123.428  
  23222216.955      -46957.207           0.000           0.000        2791.963  
  22536291.417    -1237239.945     -932288.961    22536284.872        2962.280  
  24513854.434     -754123.398     -268497.395    24513868.963        3380.513  
  20606232.988     -703605.379     -527958.262    20606227.728        1616.187  
  23300473.654     -854733.602     -633569.043    23300472.920        2015.708  
  22669397.279      780936.977      588676.973    22669393.822       -1930.332  
  21342960.653      525191.000      395670.594    21342957.338       -1404.810  
 15  1 28  5 59 36.0000000  0  8G24G12G22G25G18G14G15G21            
  20547366.284      398481.352      303010.289    20547364.501       -1123.984  
  23221685.961      -49749.387           0.000           0.000        2791.938  
  22535727.872    -1240202.137     -934597.160    22535720.976        2962.148  
  24513211.052     -757504.105     -271131.684    24513225.782        3380.723  
  20605925.263     -705221.359     -529217.469    20605920.796        1615.815  
  23300089.788     -856749.219     -635139.652    23300089.237        2015.488  
  22669764.572      782867.383      590181.180    22669761.109       -1930.479  
  21343228.496      526596.105      396765.477    21343224.702       -1405.322  
 15  1 28  5 59 37.0000000  0  8G24G12G22G25G18G14G15G21            
  20547580.082      399605.551      303886.289    20547578.519       -1124.419  
  23221154.849      -52541.438           0.000           0.000        2792.041  
  22535163.977    -1243164.309     -936905.340    22535157.365        2962.148  
  24512567.156     -760884.949     -273766.031    24512582.252        3381.074  
  20605618.186     -706837.094     -530476.480    20605612.873        1615.522  
  23299706.844     -858764.746     -636710.195    23299705.808        2015.298  
  22670131.755      784797.750      591685.371    22670128.686       -1930.347  
  21343495.757      528001.676      397860.727    21343491.793       -1405.791  
 15  1 28  5 59 38.0000000  0  8G24G12G22G25G18G14G15G21            
  20547793.863      400730.344      304762.746    20547792.387       -1125.063  
  23220623.387      -55333.059           0.000           0.000        2791.597  
  22534600.222    -1246126.352     -939213.414    22534593.933        2961.948  
  24511923.694     -764265.867     -276400.484    24511938.812        3380.874  
  20605310.738     -708452.473     -531735.219    20605305.320        1615.229  
  23299322.792     -860780.098     -638280.590    23299322.060        2015.239  
  22670499.068      786728.188      593189.602    22670496.140       -1930.386  
  21343763.589      529407.813      398956.414    21343759.713       -1406.411  
 15  1 28  5 59 39.0000000  0  8G24G12G22G25G18G14G15G21            
  20548008.156      401855.719      305639.660    20548006.378       -1125.635  
  23220092.892      -58124.523           0.000           0.000        2791.367  
  22534037.044    -1249088.223     -941521.355    22534029.909        2961.729  
  24511279.152     -767646.930     -279035.090    24511295.586        3381.118  
  20605003.631     -710067.484     -532993.660    20604997.975        1614.888  
  23298939.412     -862795.227     -639850.809    23298938.571        2015.103  
  22670866.426      788658.742      594693.934    22670863.293       -1930.562  
  21344031.203      530814.488      400052.523    21344027.386       -1406.968  
 15  1 28  5 59 40.0000000  0  8G24G12G22G25G18G14G15G21            
  20548222.136      402981.672      306517.027    20548220.991       -1126.235  
  23219560.938      -60915.742           0.000           0.000        2791.040  
  22533472.986    -1252050.016     -943829.234    22533466.759        2961.694  
  24510636.339     -771028.055     -281669.691    24510652.032        3381.191  
  20604696.735     -711682.176     -534251.863    20604691.082        1614.502  
  23298555.587     -864810.230     -641420.934    23298555.065        2014.810  
  22671233.692      790589.309      596198.266    22671230.730       -1930.601  
  21344298.926      532221.703      401149.051    21344295.166       -1407.524  
 15  1 28  5 59 41.0000000  0  8G24G12G22G25G18G14G15G21            
  20548436.558      404108.176      307394.820    20548435.279       -1126.743  
  23219029.256      -63706.688           0.000           0.000        2790.728  
  22532909.262    -1255011.672     -946137.016    22532902.851        2961.597  
  24509993.329     -774409.359     -284304.500    24510008.404        3381.426  
  20604389.091     -713296.555     -535509.820    20604383.840        1614.175  
  23298172.289     -866825.051     -642990.922    23298171.913        2014.727  
  22671601.393      792519.941      597702.660    22671598.037       -1930.566  
  21344567.171      533629.430      402245.977    21344563.272       -1407.959  
 15  1 28  5 59 42.0000000  0  8G24G12G22G25G18G14G15G21            
  20548651.065      405235.211      308273.027    20548649.983       -1127.349  
  23218498.396      -66497.500           0.000           0.000        2790.840  
  22532345.311    -1257973.277     -948444.758    22532339.601        2961.602  
  24509350.919     -777790.723     -286939.289    24509364.514        3381.265  
  20604081.710     -714910.633     -536767.547    20604076.763        1613.979  
  23297789.266     -868839.758     -644560.816    23297788.694        2014.810  
  22671968.643      794450.594      599207.066    22671965.951       -1930.654  
  21344835.037      535037.652      403343.297    21344831.546       -1408.413  
 15  1 28  5 59 43.0000000  0  8G24G12G22G25G18G14G15G21            
  20548865.929      406362.766      309151.652    20548864.430       -1127.832  
  23217968.100      -69288.164           0.000           0.000        2790.801  
  22531781.893    -1260934.832     -950752.465    22531775.876        2961.533  
  24508707.255     -781172.324     -289574.316    24508721.295        3381.621  
  20603774.866     -716524.469     -538025.086    20603769.529        1613.779  
  23297405.760     -870854.371     -646130.637    23297405.110        2014.492  
  22672336.108      796381.262      600711.484    22672332.648       -1930.723  
  21345103.050      536446.348      404440.973    21345099.070       -1408.896  
 15  1 28  5 59 44.0000000  0  8G24G12G22G25G18G14G15G21            
  20549080.017      407490.855      310030.684    20549078.896       -1128.359  
  23217436.417      -72078.563           0.000           0.000        2790.410  
  22531218.280    -1263896.285     -953060.094    22531211.938        2961.353  
  24508062.564     -784554.020     -292209.355    24508077.971        3381.826  
  20603467.304     -718137.984     -539282.367    20603462.015        1613.340  
  23297023.247     -872868.852     -647700.355    23297021.496        2014.341  
  22672703.431      798311.918      602215.879    22672700.032       -1930.693  
  21345371.377      537855.539      405539.047    21345367.136       -1409.507  
 15  1 28  5 59 45.0000000  0  8G24G12G22G25G18G14G15G21            
  20549295.508      408619.520      310910.164    20549293.818       -1129.092  
  23216904.905      -74868.680           0.000           0.000        2790.103  
  22530655.183    -1266857.641     -955367.645    22530648.556        2961.303  
  24507419.748     -787935.863     -294844.531    24507434.520        3381.885  
  20603160.861     -719751.168     -540539.402    20603155.870        1612.974  
  23296639.594     -874883.133     -649269.922    23296638.585        2014.106  
  22673071.187      800242.680      603720.355    22673067.494       -1930.884  
  21345639.290      539265.289      406637.547    21345635.718       -1410.044  
 15  1 28  5 59 46.0000000  0  8G24G12G22G25G18G14G15G21            
  20549510.284      409748.715      311790.055    20549508.786       -1129.492  
  23216375.064      -77658.648           0.000           0.000        2790.024  
  22530091.637    -1269818.895     -957675.117    22530085.126        2961.250  
  24506776.557     -791317.789     -297479.770    24506790.954        3382.139  
  20602853.301     -721364.043     -541796.180    20602848.461        1612.676  
  23296255.714     -876897.293     -650839.395    23296255.127        2014.077  
  22673438.396      802173.449      605224.844    22673434.877       -1930.771  
  21345907.566      540675.527      407736.426    21345903.922       -1410.523  
 15  1 28  5 59 47.0000000  0  8G24G12G22G25G18G14G15G21            
  20549724.732      410878.457      312670.379    20549723.440       -1130.044  
  23215845.817      -80448.352           0.000           0.000        2789.668  
  22529528.671    -1272780.051     -959982.516    22529521.859        2961.069  
  24506132.608     -794699.852     -300115.090    24506146.905        3382.221  
  20602546.667     -722976.648     -543052.754    20602541.466        1612.515  
  23295872.583     -878911.309     -652408.762    23295872.034        2013.867  
  22673805.621      804104.242      606729.352    22673802.441       -1930.811  
  21346176.274      542086.262      408835.695    21346172.318       -1411.016  
 15  1 28  5 59 48.0000000  0  8G24G12G22G25G18G14G15G21            
  20549939.924      412008.813      313551.184    20549938.836       -1130.610  
  23215313.056      -83237.891           0.000           0.000        2789.668  
  22528964.940    -1275741.063     -962289.801    22528958.290        2961.060  
  24505488.706     -798081.992     -302750.500    24505503.596        3382.265  
  20602239.885     -724588.844     -544309.012    20602234.388        1612.061  
  23295488.663     -880925.133     -653977.980    23295488.620        2013.843  
  22674173.089      806035.145      608233.945    22674169.729       -1930.913  
  21346444.807      543497.578      409935.422    21346441.146       -1411.572  
 15  1 28  5 59 49.0000000  0  8G24G12G22G25G18G14G15G21            
  20550155.661      413139.734      314432.414    20550154.206       -1131.138  
  23214781.874      -86027.125           0.000           0.000        2789.072  
  22528401.550    -1278701.977     -964597.008    22528394.782        2960.908  
  24504845.110     -801464.215     -305385.973    24504860.118        3382.310  
  20601933.184     -726200.750     -545565.039    20601928.166        1611.743  
  23295105.720     -882938.813     -655547.070    23295105.339        2013.584  
  22674541.349      807966.098      609738.586    22674537.292       -1930.938  
  21346713.450      544909.398      411035.551    21346709.541       -1412.026  
 15  1 28  5 59 50.0000000  0  8G24G12G22G25G18G14G15G21            
  20550371.022      414271.262      315314.121    20550369.323       -1131.826  
  23214251.763      -88816.047           0.000           0.000        2788.863  
  22527838.042    -1281662.742     -966904.090    22527831.217        2960.684  
  24504201.546     -804846.578     -308021.563    24504215.955        3382.432  
  20601626.771     -727812.266     -546820.762    20601621.260        1611.333  
  23294722.507     -884952.262     -657115.980    23294722.143        2013.379  
  22674907.550      809897.121      611243.281    22674905.136       -1931.060  
  21346982.698      546321.824      412136.141    21346978.252       -1412.705  
 15  1 28  5 59 51.0000000  0  8G24G12G22G25G18G14G15G21            
  20550586.663      415403.480      316196.367    20550584.857       -1132.437  
  23213720.142      -91604.699           0.000           0.000        2788.789  
  22527274.484    -1284623.230     -969210.945    22527268.019        2960.385  
  24503557.497     -808228.863     -310657.102    24503572.815        3382.319  
  20601319.745     -729423.301     -548076.109    20601315.021        1610.889  
  23294340.151     -886965.426     -658684.664    23294339.330        2013.047  
  22675275.722      811828.375      612748.156    22675272.193       -1931.299  
  21347251.007      547734.898      413237.230    21347247.297       -1413.330  
 15  1 28  5 59 52.0000000  0  8G24G12G22G25G18G14G15G21            
  20550802.511      416536.297      317079.082    20550800.315       -1133.071  
  23213188.426      -94392.922           0.000           0.000        2788.037  
  22526711.198    -1287583.570     -971517.699    22526704.635        2960.254  
  24502913.104     -811611.195     -313292.695    24502929.003        3382.227  
  20601013.353     -731033.953     -549331.172    20601008.213        1610.420  
  23293956.831     -888978.359     -660253.176    23293956.260        2012.764  
  22675642.953      813759.727      614253.098    22675639.781       -1931.392  
  21347520.274      549148.555      414338.781    21347516.379       -1413.911  
 15  1 28  5 59 53.0000000  0  8G24G12G22G25G18G14G15G21            
  20551017.750      417669.750      317962.301    20551015.969       -1133.726  
  23212658.398      -97181.008           0.000           0.000        2788.047  
  22526147.886    -1290543.758     -973824.340    22526141.588        2960.078  
  24502270.277     -814993.609     -315928.348    24502285.513        3382.402  
  20600706.980     -732644.258     -550585.953    20600701.997        1610.156  
  23293574.287     -890991.086     -661821.527    23293573.142        2012.759  
  22676010.960      815691.141      615758.094    22676007.411       -1931.465  
  21347789.404      550562.773      415440.762    21347785.442       -1414.468  
 15  1 28  5 59 54.0000000  0  8G24G12G22G25G18G14G15G21            
  20551233.326      418803.727      318845.914    20551231.963       -1134.243  
  23212126.702      -99968.770           0.000           0.000        2787.544  
  22525584.400    -1293503.891     -976130.953    22525577.760        2960.083  
  24501625.900     -818376.254     -318564.148    24501641.659        3382.959  
  20600400.787     -734254.285     -551840.520    20600395.380        1609.834  
  23293190.684     -893003.738     -663389.836    23293190.112        2012.568  
  22676378.560      817622.578      617263.109    22676374.867       -1931.465  
  21348058.526      551977.473      416543.125    21348054.452       -1414.941  
 15  1 28  5 59 55.0000000  0  8G24G12G22G25G18G14G15G21            
  20551449.155      419938.324      319730.016    20551448.077       -1134.902  
  23211596.380     -102756.277           0.000           0.000        2787.407  
  22525021.354    -1296463.855     -978437.430    22525014.968        2959.883  
  24500982.271     -821758.867     -321199.930    24500997.699        3382.686  
  20600094.259     -735863.938     -553094.797    20600089.368        1609.517  
  23292808.496     -895016.176     -664957.980    23292807.057        2012.402  
  22676745.882      819554.113      618768.191    22676742.346       -1931.563  
  21348328.055      553392.746      417645.930    21348324.040       -1415.581  
 15  1 28  5 59 56.0000000  0  8G24G12G22G25G18G14G15G21            
  20551665.563      421073.543      320614.605    20551664.156       -1135.562  
  23211065.949     -105543.551           0.000           0.000        2786.894  
  22524457.980    -1299423.668     -980743.773    22524451.397        2959.751  
  24500339.161     -825141.590     -323835.805    24500354.549        3382.832  
  20599788.477     -737473.215     -554348.777    20599782.944        1609.131  
  23292425.134     -897028.402     -666525.945    23292424.194        2012.119  
  22677113.292      821485.715      620273.340    22677109.442       -1931.597  
  21348597.166      554808.598      418749.188    21348593.701       -1416.133  
 15  1 28  5 59 57.0000000  0  8G24G12G22G25G18G14G15G21            
  20551881.608      422209.316      321499.621    20551879.662       -1136.045  
  23210535.367     -108330.594           0.000           0.000        2787.012  
  22523894.913    -1302383.379     -983050.031    22523887.829        2959.517  
  24499695.014     -828524.426     -326471.730    24499710.379        3383.071  
  20599482.107     -739082.191     -555602.523    20599476.373        1608.911  
  23292042.159     -899040.488     -668093.797    23292041.134        2012.056  
  22677480.413      823417.391      621778.547    22677477.034       -1931.719  
  21348866.993      556224.953      419852.832    21348862.736       -1416.587  
 15  1 28  5 59 58.0000000  0  8G24G12G22G25G18G14G15G21            
  20552097.983      423345.676      322385.094    20552096.316       -1136.719  
  23210004.067     -111117.363           0.000           0.000        2786.553  
  22523331.871    -1305342.984     -985356.215    22523324.931        2959.453  
  24499051.703     -831907.359     -329107.758    24499066.290        3382.949  
  20599175.864     -740690.785     -556855.973    20599170.540        1608.418  
  23291659.019     -901052.379     -669661.496    23291658.225        2011.782  
  22677848.741      825349.121      623283.793    22677844.866       -1931.821  
  21349136.005      557641.863      420956.922    21349132.670       -1417.168  
 15  1 28  5 59 59.0000000  0  8G24G12G22G25G18G14G15G21            
  20552313.964      424482.633      323271.031    20552312.844       -1137.319  
  23209474.963     -113903.910           0.000           0.000        2786.353  
  22522768.379    -1308302.379     -987662.230    22522761.807        2959.258  
  24498407.590     -835290.316     -331743.828    24498422.562        3383.174  
  20598869.866     -742299.043     -558109.164    20598864.214        1608.086  
  23291276.180     -903064.051     -671229.023    23291275.507        2011.558  
  22678216.406      827280.953      624789.109    22678212.367       -1931.812  
  21349406.252      559059.340      422061.453    21349402.565       -1417.744  
 15  1 28  6  0  0.0000000  0  8G24G12G22G25G18G14G15G21            
  20552530.542      425620.156      324157.414    20552528.855       -1137.803  
  23208946.254     -116690.125           0.000           0.000        2785.918  
  22522205.573    -1311261.676     -989968.164    22522198.822        2959.155  
  24497764.279     -838673.379     -334379.883    24497779.229        3383.130  
  20598564.093     -743906.930     -559362.055    20598558.651        1607.769  
  23290894.214     -905075.555     -672796.410    23290892.638        2011.348  
  22678583.605      829212.848      626294.484    22678579.741       -1931.890  
  21349676.034      560477.367      423166.402    21349671.817       -1418.384  
 15  1 28  6  0  1.0000000  0  8G24G12G22G25G18G14G15G21            
  20552747.292      426758.277      325044.254    20552745.263       -1138.477  
  23208416.299     -119476.133           0.000           0.000        2785.776  
  22521642.704    -1314220.852     -992274.012    22521635.655        2959.067  
  24497120.267     -842056.488     -337016.031    24497135.413        3382.857  
  20598258.007     -745514.484     -560614.699    20598252.930        1607.437  
  23290511.357     -907086.879     -674363.668    23290509.963        2011.172  
  22678951.578      831144.840      627799.930    22678947.648       -1931.997  
  21349945.947      561895.949      424271.781    21349942.248       -1418.906  
 15  1 28  6  0  2.0000000  0  8G24G12G22G25G18G14G15G21            
  20552963.855      427897.016      325931.578    20552962.302       -1139.043  
  23207886.161     -122261.801           0.000           0.000        2785.498  
  22521079.352    -1317179.836     -994579.715    22521072.625        2958.896  
  24496476.294     -845439.691     -339652.305    24496491.344        3383.228  
  20597951.834     -747121.621     -561867.008    20597946.999        1607.007  
  23290128.075     -909097.973     -675930.750    23290127.363        2010.947  
  22679318.811      833076.945      629305.473    22679314.842       -1932.109  
  21350215.987      563315.102      425377.617    21350212.441       -1419.434  
 15  1 28  6  0  3.0000000  0  8G24G12G22G25G18G14G15G21            
  20553180.725      429036.289      326819.328    20553178.959       -1139.614  
  23207355.965     -125047.258           0.000           0.000        2785.444  
  22520516.608    -1320138.711     -996885.336    22520509.310        2958.828  
  24495833.589     -848823.012     -342288.668    24495848.079        3383.345  
  20597646.338     -748728.430     -563119.074    20597640.953        1606.660  
  23289745.516     -911108.918     -677497.730    23289744.463        2010.879  
  22679686.476      835009.098      630811.043    22679682.889       -1932.148  
  21350486.545      564734.793      426483.863    21350482.267       -1419.956  
 15  1 28  6  0  4.0000000  0  8G24G12G22G25G18G14G15G21            
  20553397.408      430176.254      327707.625    20553396.269       -1140.229  
  23206826.168     -127832.395           0.000           0.000        2784.995  
  22519953.132    -1323097.359     -999190.785    22519946.354        2958.501  
  24495190.432     -852206.293     -344925.043    24495204.057        3383.433  
  20597340.987     -750334.820     -564370.809    20597335.607        1606.182  
  23289362.715     -913119.586     -679064.484    23289361.781        2010.562  
  22680053.957      836941.406      632316.734    22680050.724       -1932.373  
  21350756.170      566155.117      427590.605    21350752.360       -1420.679  
 15  1 28  6  0  5.0000000  0  8G24G12G22G25G18G14G15G21            
  20553614.166      431316.828      328596.387    20553613.138       -1140.986  
  23206295.845     -130617.254           0.000           0.000        2784.873  
  22519389.987    -1326055.701    -1001495.985    22519384.179        2957.383  
  24494546.345     -855589.539     -347561.340    24494560.084        3382.642  
  20597035.075     -751940.871     -565622.277    20597030.468        1605.908  
  23288979.920     -915129.953     -680631.004    23288979.733        2009.722  
  22680421.612      838873.785      633822.484    22680418.109       -1932.495  
  21351026.726      567575.977      428697.773    21351023.251       -1421.323  
 15  1 28  6  0  6.0000000  0  7G24G22G25G18G14G15G21               
  20553831.890      432458.047      329485.648    20553829.907       -1141.494  
  22518827.039    -1329014.180    -1003801.277    22518821.601        2959.199  
  24493902.799     -858973.055     -350197.809    24493916.705        3383.633  
  20596729.493     -753546.441     -566873.375    20596723.966        1605.439  
  23288598.083     -917140.266     -682197.484    23288596.815        2009.185  
  22680789.664      840806.340      635328.375    22680786.041       -1932.583  
  21351297.472      568997.492      429805.457    21351293.237       -1421.675  
 15  1 28  6  0  7.0000000  0  8G24G12G22G25G18G14G15G21            
  20554049.169      433599.824      330375.344    20554047.374       -1142.090  
  23205236.883     -136187.027           0.000           0.000        2783.999  
  22518264.050    -1331972.410    -1006106.383    22518258.256        2958.169  
  24493258.050     -862356.613     -352834.328    24493272.671        3383.481  
  20596423.983     -755151.746     -568124.262    20596418.540        1605.142  
  23288215.065     -919150.352     -683763.773    23288214.418        2010.044  
  22681157.843      842738.930      636834.285    22681154.101       -1932.671  
  21351568.023      570419.484      430913.500    21351564.166       -1422.285  
 15  1 28  6  0  8.0000000  0  8G24G12G22G25G18G14G15G21            
  20554266.742      434742.242      331265.539    20554265.072       -1142.793  
  23204706.770     -138971.031           0.000           0.000        2783.975  
  22517701.230    -1334930.457    -1008411.355    22517695.717        2958.032  
  24492614.664     -865740.133     -355470.762    24492628.877        3383.554  
  20596118.539     -756756.617     -569374.805    20596113.311        1604.653  
  23287832.714     -921160.188     -685329.871    23287831.732        2009.785  
  22681524.873      844671.633      638340.285    22681521.842       -1932.764  
  21351838.849      571842.102      432022.023    21351834.416       -1422.925  
 15  1 28  6  0  9.0000000  0  8G24G12G22G25G18G14G15G21            
  20554483.630      435885.270      332156.195    20554482.578       -1143.306  
  23204177.048     -141754.730           0.000           0.000        2783.984  
  22517138.706    -1337888.320    -1010716.168    22517132.593        2957.847  
  24491971.236     -869123.770     -358107.273    24491984.873        3383.687  
  20595813.486     -758361.125     -570625.066    20595808.119        1604.321  
  23287450.412     -923169.777     -686895.777    23287449.556        2009.541  
  22681892.548      846604.445      639846.375    22681889.316       -1932.876  
  21352109.365      573265.301      433131.008    21352105.682       -1423.408  
 15  1 28  6  0 10.0000000  0  8G24G12G22G25G18G14G15G21            
  20554701.064      437028.754      333047.215    20554700.274       -1143.726  
  23203648.080     -144538.207           0.000           0.000        2783.789  
  22516575.303    -1340846.145    -1013020.957    22516569.370        2957.856  
  24491326.376     -872507.605     -360743.941    24491341.151        3383.945  
  20595508.305     -759965.398     -571875.148    20595502.903        1604.145  
  23287068.248     -925179.309     -688461.633    23287067.156        2009.419  
  22682260.954      848537.238      641352.438    22682257.513       -1932.793  
  21352380.004      574688.941      434240.332    21352376.858       -1423.838  
 15  1 28  6  0 11.0000000  0  8G24G12G22G25G18G14G15G21            
  20554918.679      438172.691      333938.594    20554917.879       -1144.219  
  23203117.780     -147321.613           0.000           0.000        2783.291  
  22516013.138    -1343803.941    -1015325.727    22516006.497        2957.700  
  24490681.286     -875891.563     -363380.758    24490696.890        3384.067  
  20595203.340     -761569.406     -573125.027    20595197.469        1603.838  
  23286685.607     -927188.805     -690027.469    23286684.576        2009.356  
  22682628.295      850469.988      642858.484    22682625.545       -1932.788  
  21352651.606      576113.012      435349.996    21352648.137       -1424.350  
 15  1 28  6  0 12.0000000  0  8G24G12G22G25G18G14G15G21            
  20555137.431      439317.191      334830.414    20555135.334       -1144.731  
  23202586.734     -150104.707           0.000           0.000        2782.769  
  22515450.049    -1346761.672    -1017630.445    22515443.781        2957.632  
  24490038.604     -879275.648     -366017.707    24490052.899        3383.945  
  20594897.585     -763173.117     -574374.672    20594892.601        1603.628  
  23286302.988     -929198.152     -691593.180    23286302.249        2009.321  
  22682996.759      852402.742      644364.527    22682993.029       -1932.769  
  21352922.252      577537.574      436460.043    21352919.064       -1424.844  
 15  1 28  6  0 13.0000000  0  8G24G12G22G25G18G14G15G21            
  20555354.996      440462.270      335722.688    20555353.300       -1145.298  
  23202056.829     -152887.699           0.000           0.000        2783.032  
  22514886.891    -1349719.293    -1019935.090    22514880.869        2957.539  
  24489394.363     -882659.941     -368654.859    24489409.257        3384.438  
  20594592.488     -764776.512     -575624.074    20594587.317        1603.213  
  23285920.858     -931207.336     -693158.762    23285919.973        2009.224  
  22683364.411      854335.574      645870.629    22683360.791       -1932.852  
  21353193.585      578962.668      437570.504    21353189.872       -1425.337  
 15  1 28  6  0 14.0000000  0  8G24G12G22G25G18G14G15G21            
  20555573.022      441607.891      336615.383    20555571.385       -1145.859  
  23201528.008     -155670.395           0.000           0.000        2782.690  
  22514324.683    -1352676.855    -1022239.684    22514318.038        2957.617  
  24488749.331     -886044.285     -371292.031    24488765.025        3384.639  
  20594287.687     -766379.617     -576873.250    20594282.167        1602.949  
  23285538.199     -933216.402     -694724.266    23285537.799        2009.048  
  22683731.950      856268.395      647376.723    22683728.658       -1932.715  
  21353465.018      580388.242      438681.336    21353461.265       -1425.781  
 15  1 28  6  0 15.0000000  0  8G24G12G22G25G18G14G15G21            
  20555791.397      442753.863      337508.348    20555789.687       -1146.157  
  23200998.567     -158453.133           0.000           0.000        2783.047  
  22513761.942    -1355634.488    -1024544.336    22513755.597        2957.676  
  24488105.588     -889428.957     -373929.422    24488120.928        3384.814  
  20593982.599     -767982.621     -578122.340    20593976.858        1602.979  
  23285156.176     -935225.504     -696289.797    23285155.585        2009.180  
  22684100.160      858201.094      648882.727    22684096.702       -1932.583  
  21353736.369      581814.148      439792.434    21353732.582       -1426.099  
 15  1 28  6  0 16.0000000  0  8G24G12G22G25G18G14G15G21            
  20556009.291      443900.191      338401.590    20556007.456       -1146.626  
  23200467.268     -161235.785           0.000           0.000        2782.451  
  22513198.648    -1358592.199    -1026849.039    22513192.806        2957.754  
  24487461.453     -892813.934     -376567.031    24487476.744        3385.181  
  20593677.723     -769585.449     -579371.297    20593672.205        1602.710  
  23284773.801     -937234.629     -697855.359    23284773.376        2009.053  
  22684468.006      860133.645      650388.602    22684463.955       -1932.505  
  21354007.441      583240.367      440903.773    21354004.129       -1426.387  
 15  1 28  6  0 17.0000000  0  8G24G12G22G25G18G14G15G21            
  20556227.458      445047.012      339295.219    20556225.781       -1147.153  
  23199937.387     -164018.281           0.000           0.000        2782.256  
  22512635.947    -1361549.883    -1029153.723    22512629.972        2957.646  
  24486817.818     -896199.074     -379204.789    24486832.526        3385.225  
  20593372.756     -771188.035     -580620.066    20593367.294        1602.432  
  23284391.855     -939243.699     -699420.863    23284390.925        2009.072  
  22684835.473      862066.141      651894.434    22684832.218       -1932.451  
  21354278.964      584667.059      442015.480    21354275.668       -1426.938  
 15  1 28  6  0 18.0000000  0  8G24G12G22G25G18G14G15G21            
  20556445.736      446194.387      340189.281    20556443.795       -1147.681  
  23199409.159     -166800.508           0.000           0.000        2781.943  
  22512073.238    -1364507.461    -1031458.324    22512067.198        2957.495  
  24486173.039     -899584.395     -381842.711    24486188.339        3385.196  
  20593067.843     -772790.285     -581868.570    20593062.250        1602.012  
  23284008.687     -941252.570     -700986.219    23284008.465        2008.774  
  22685203.120      863998.719      653400.340    22685199.587       -1932.578  
  21354551.030      586094.277      443127.590    21354547.062       -1427.485  
 15  1 28  6  0 19.0000000  0  8G24G12G22G25G18G14G15G21            
  20556664.278      447342.371      341083.809    20556662.566       -1148.223  
  23198879.582     -169582.535           0.000           0.000        2781.841  
  22511510.676    -1367464.875    -1033762.801    22511504.284        2957.363  
  24485529.141     -902969.770     -384480.609    24485544.062        3385.518  
  20592762.675     -774392.191     -583116.813    20592757.586        1601.734  
  23283626.721     -943261.293     -702551.457    23283626.076        2008.711  
  22685570.795      865931.391      654906.316    22685567.380       -1932.593  
  21354822.703      587522.051      444240.137    21354818.793       -1428.013  
 15  1 28  6  0 20.0000000  0  8G24G12G22G25G18G14G15G21            
  20556882.483      448490.988      341978.832    20556881.423       -1148.926  
  23198350.868     -172364.285           0.000           0.000        2781.973  
  22510948.079    -1370422.117    -1036067.137    22510941.701        2957.158  
  24484884.353     -906355.199     -387118.563    24484900.114        3385.498  
  20592458.059     -775993.680     -584364.719    20592452.672        1601.294  
  23283244.853     -945269.742     -704116.469    23283244.134        2008.286  
  22685938.988      867864.188      656412.391    22685935.632       -1932.783  
  21355093.875      588950.418      445353.156    21355090.481       -1428.594  
 15  1 28  6  0 21.0000000  0  8G24G12G22G25G18G14G15G21            
  20557101.270      449640.191      342874.324    20557099.367       -1149.468  
  23197821.660     -175145.617           0.000           0.000        2781.304  
  22510385.134    -1373379.195    -1038371.352    22510379.020        2957.065  
  24484239.503     -909740.605     -389756.492    24484255.692        3385.381  
  20592153.332     -777594.816     -585612.355    20592147.905        1600.986  
  23282862.116     -947278.004     -705681.340    23282861.993        2008.164  
  22686306.354      869797.055      657918.523    22686303.309       -1932.886  
  21355366.135      590379.348      446466.605    21355362.798       -1429.185  
 15  1 28  6  0 22.0000000  0  8G24G12G22G25G18G14G15G21            
  20557320.054      450789.930      343770.219    20557318.328       -1150.054  
  23197293.192     -177926.785           0.000           0.000        2781.001  
  22509821.891    -1376336.211    -1040675.516    22509816.324        2957.046  
  24483595.732     -913126.148     -392394.523    24483611.746        3385.630  
  20591848.672     -779195.629     -586859.742    20591843.340        1600.679  
  23282480.542     -949286.156     -707246.113    23282480.012        2008.101  
  22686673.989      871729.957      659424.680    22686671.194       -1932.905  
  21355638.146      591808.785      447580.449    21355634.875       -1429.668  
 15  1 28  6  0 23.0000000  0  8G24G12G22G25G18G14G15G21            
  20557538.875      451940.242      344666.574    20557537.436       -1150.654  
  23196763.557     -180707.727           0.000           0.000        2780.454  
  22509259.325    -1379293.082    -1042979.574    22509253.871        2956.792  
  24482951.338     -916511.809     -395032.664    24482967.213        3385.732  
  20591544.304     -780796.129     -588106.891    20591539.023        1600.308  
  23282098.321     -951294.113     -708810.750    23282098.151        2007.822  
  22687042.328      873662.918      660930.879    22687038.776       -1933.086  
  21355910.128      593238.742      448694.699    21355906.946       -1430.259  
 15  1 28  6  0 24.0000000  0  8G24G12G22G25G18G14G15G21            
  20557757.984      453091.148      345563.375    20557756.523       -1151.196  
  23196235.336     -183488.492           0.000           0.000        2781.265  
  22508696.403    -1382249.789    -1045283.500    22508691.138        2956.665  
  24482306.958     -919897.602     -397670.941    24482322.897        3385.854  
  20591239.644     -782396.230     -589353.723    20591234.618        1599.917  
  23281716.313     -953301.875     -710375.234    23281716.096        2007.642  
  22687410.142      875595.992      662437.164    22687406.800       -1933.086  
  21356182.143      594669.285      449809.402    21356179.133       -1430.801  
 15  1 28  6  0 25.0000000  0  8G24G12G22G25G18G14G15G21            
  20557977.013      454242.688      346460.684    20557975.803       -1151.890  
  23195705.250     -186268.742           0.000           0.000        2780.098  
  22508134.342    -1385206.355    -1047587.305    22508128.185        2956.553  
  24481663.021     -923283.383     -400309.184    24481678.705        3385.938  
  20590935.649     -783995.977     -590600.273    20590929.932        1599.609  
  23281334.449     -955309.426     -711939.559    23281333.649        2007.490  
  22687778.360      877529.152      663943.527    22687774.932       -1933.193  
  21356455.086      596100.398      450924.559    21356451.465       -1431.382  
 15  1 28  6  0 26.0000000  0  8G24G12G22G25G18G14G15G21            
  20558196.504      455394.680      347358.344    20558195.134       -1152.314  
  23195175.886     -189048.922           0.000           0.000        2780.200  
  22507571.616    -1388162.852    -1049891.063    22507565.818        2956.499  
  24481018.393     -926669.359     -402947.582    24481034.678        3386.294  
  20590630.794     -785595.438     -591846.609    20590625.672        1599.282  
  23280952.638     -957316.875     -713503.809    23280951.784        2007.373  
  22688146.006      879462.293      665449.867    22688142.766       -1933.149  
  21356726.886      597531.973      452040.066    21356723.631       -1431.880  
 15  1 28  6  0 27.0000000  0  8G24G12G22G25G18G14G15G21            
  20558415.658      456547.223      348256.438    20558414.200       -1152.856  
  23194648.238     -191828.977           0.000           0.000        2780.181  
  22507009.201    -1391119.250    -1052194.746    22507003.395        2956.357  
  24480373.312     -930055.449     -405586.070    24480389.999        3386.006  
  20590327.107     -787194.598     -593092.703    20590321.326        1598.979  
  23280570.070     -959324.176     -715067.934    23280570.006        2007.090  
  22688513.286      881395.461      666956.230    22688510.664       -1933.198  
  21356999.418      598964.031      453155.953    21356995.808       -1432.314  
 15  1 28  6  0 28.0000000  0  8G24G12G22G25G18G14G15G21            
  20558634.975      457700.340      349154.977    20558633.570       -1153.462  
  23194119.181     -194608.629           0.000           0.000        2779.390  
  22506446.869    -1394075.559    -1054498.363    22506440.945        2956.172  
  24479728.487     -933441.691     -408224.613    24479745.804        3386.230  
  20590022.428     -788793.449     -594338.563    20590016.919        1598.652  
  23280188.267     -961331.340     -716631.953    23280187.797        2006.978  
  22688881.284      883328.684      668462.633    22688878.345       -1933.281  
  21357272.634      600396.633      454272.262    21357268.566       -1432.900  
 15  1 28  6  0 29.0000000  0  8G24G12G22G25G18G14G15G21            
  20558854.776      458854.137      350054.035    20558853.438       -1154.111  
  23193589.842     -197388.020           0.000           0.000        2779.331  
  22505884.770    -1397031.625    -1056801.793    22505877.921        2955.923  
  24479084.194     -936827.855     -410863.168    24479101.417        3386.055  
  20589718.126     -790391.828     -595584.055    20589713.341        1598.135  
  23279806.591     -963338.211     -718195.734    23279805.764        2006.738  
  22689249.977      885262.090      669969.180    22689245.802       -1933.491  
  21357545.132      601829.891      455389.082    21357541.535       -1433.584  
 15  1 28  6  0 30.0000000  0  8G24G12G22G25G18G14G15G21            
  20559074.489      460008.609      350953.625    20559072.855       -1154.814  
  23193060.969     -200167.117           0.000           0.000        2779.361  
  22505322.380    -1399987.492    -1059105.070    22505315.920        2955.786  
  24478439.922     -940214.047     -413501.809    24478456.848        3386.597  
  20589413.742     -791989.785     -596829.211    20589408.627        1597.749  
  23279425.254     -965344.852     -719759.355    23279423.891        2006.509  
  22689617.532      887195.641      671475.840    22689614.121       -1933.584  
  21357818.255      603263.742      456506.367    21357814.357       -1434.160  
 15  1 28  6  0 31.0000000  0  8G24G12G22G25G18G14G15G21            
  20559293.995      461163.633      351853.645    20559292.419       -1155.352  
  23192531.871     -202945.906           0.000           0.000        2778.550  
  22504759.051    -1402943.266    -1061408.277    22504753.574        2955.732  
  24477796.598     -943600.414     -416140.531    24477812.427        3386.626  
  20589110.199     -793587.438     -598074.129    20589104.741        1597.510  
  23279043.203     -967351.316     -721322.832    23279042.124        2006.396  
  22689985.672      889129.219      672982.523    22689982.089       -1933.564  
  21358090.906      604698.121      457624.063    21358087.032       -1434.600  
 15  1 28  6  0 32.0000000  0  8G24G12G22G25G18G14G15G21            
  20559514.366      462319.180      352754.070    20559512.628       -1155.884  
  23192002.101     -205724.477           0.000           0.000        2778.643  
  22504197.063    -1405898.961    -1063711.414    22504191.132        2955.615  
  24477151.462     -946986.871     -418779.277    24477168.318        3386.611  
  20588805.849     -795184.793     -599318.824    20588801.123        1597.109  
  23278661.330     -969357.684     -722886.230    23278660.605        2006.240  
  22690353.427      891062.813      674489.223    22690349.870       -1933.691  
  21358364.099      606133.004      458742.156    21358360.420       -1435.132  
 15  1 28  6  0 33.0000000  0  8G24G12G22G25G18G14G15G21            
  20559734.266      463475.277      353654.926    20559732.752       -1156.338  
  23191473.006     -208502.883           0.000           0.000        2778.262  
  22503634.102    -1408854.551    -1066014.461    22503628.282        2955.566  
  24476507.467     -950373.418     -421418.258    24476523.425        3386.826  
  20588502.198     -796781.820     -600563.262    20588496.702        1596.953  
  23278279.377     -971363.898     -724449.512    23278278.338        2006.177  
  22690721.395      892996.469      675995.969    22690717.890       -1933.652  
  21358637.100      607568.406      459860.648    21358633.618       -1435.562  
 15  1 28  6  0 34.0000000  0  8G24G12G22G25G18G14G15G21            
  20559953.886      464631.977      354556.250    20559952.619       -1156.909  
  23190945.034     -211281.047           0.000           0.000        2778.369  
  22503071.870    -1411810.000    -1068317.402    22503065.878        2955.454  
  24475864.175     -953760.043     -424057.105    24475879.401        3386.333  
  20588198.822     -798378.488     -601807.418    20588193.197        1596.499  
  23277897.349     -973369.906     -726012.633    23277896.986        2005.957  
  22691088.925      894930.199      677502.766    22691085.570       -1933.735  
  21358910.366      609004.359      460979.574    21358906.721       -1436.196  
 15  1 28  6  0 35.0000000  0  8G24G12G22G25G18G14G15G21            
  20560173.766      465789.336      355458.082    20560172.530       -1157.788  
  23190416.731     -214058.813           0.000           0.000        2777.168  
  22502509.301    -1414765.207    -1070620.152    22502503.850        2955.107  
  24475219.412     -957146.676     -426695.973    24475234.909        3386.196  
  20587894.707     -799974.723     -603051.242    20587889.125        1595.991  
  23277516.170     -975375.637     -727575.543    23277514.910        2005.537  
  22691457.188      896864.094      679009.691    22691453.955       -1933.994  
  21359183.895      610440.941      462098.984    21359180.185       -1436.997  
 15  1 28  6  0 36.0000000  0  8G24G12G22G25G18G14G15G21            
  20560394.661      466947.391      356360.465    20560393.223       -1158.428  
  23189888.330     -216836.266           0.000           0.000        2777.231  
  22501947.241    -1417720.184    -1072922.734    22501941.703        2954.883  
  24474575.023     -960533.367     -429334.926    24474590.446        3386.655  
  20587591.105     -801570.500     -604294.711    20587585.926        1595.576  
  23277134.398     -977381.102     -729138.238    23277133.380        2005.366  
  22691824.840      898798.176      680516.762    22691822.009       -1934.199  
  21359457.453      611878.168      463218.898    21359453.717       -1437.520  
 15  1 28  6  0 37.0000000  0  8G24G12G22G25G18G14G15G21            
  20560615.344      468106.129      357263.379    20560613.520       -1159.063  
  23189359.300     -219613.258           0.000           0.000        2777.090  
  22501385.132    -1420674.957    -1075225.152    22501379.654        2954.658  
  24473930.526     -963919.977     -431973.824    24473946.114        3386.963  
  20587287.096     -803165.863     -605537.848    20587282.073        1595.215  
  23276753.357     -979386.320     -730700.738    23276751.988        2005.098  
  22692192.940      900732.379      682023.930    22692189.915       -1934.233  
  21359730.977      613316.016      464339.301    21359727.414       -1438.145  
 15  1 28  6  0 38.0000000  0  8G24G12G22G25G18G14G15G21            
  20560836.165      469265.430      358166.730    20560834.563       -1159.678  
  23188831.057     -222390.090           0.000           0.000        2776.523  
  22500822.485    -1423629.582    -1077527.457    22500816.950        2954.507  
  24473285.652     -967306.633     -434612.762    24473301.410        3386.675  
  20586983.948     -804760.863     -606780.703    20586978.435        1594.814  
  23276371.493     -981391.309     -732263.059    23276370.389        2004.814  
  22692561.095      902666.652      683531.152    22692557.809       -1934.258  
  21360004.844      614754.406      465460.121    21360000.915       -1438.696  
 15  1 28  6  0 39.0000000  0  8G24G12G22G25G18G14G15G21            
  20561056.372      470425.379      359070.582    20561055.001       -1160.220  
  23188302.352     -225166.566           0.000           0.000        2775.947  
  22500260.332    -1426584.020    -1079829.617    22500254.797        2954.355  
  24472641.483     -970693.355     -437251.785    24472656.943        3386.812  
  20586680.545     -806355.430     -608023.215    20586675.633        1594.375  
  23275990.215     -983396.082     -733825.211    23275988.563        2004.634  
  22692929.442      904601.109      685038.520    22692926.236       -1934.507  
  21360278.487      616193.418      466581.430    21360274.820       -1439.331  
 15  1 28  6  0 40.0000000  0  8G24G12G22G25G18G14G15G21            
  20561277.083      471585.977      359974.945    20561276.155       -1160.884  
  23187773.828     -227942.703           0.000           0.000        2775.889  
  22499698.542    -1429538.242    -1082131.602    22499692.339        2954.116  
  24471997.100     -974080.125     -439890.785    24472012.557        3386.641  
  20586377.528     -807949.574     -609265.406    20586372.242        1593.994  
  23275608.920     -985400.594     -735387.168    23275607.191        2004.375  
  22693297.099      906535.656      686545.965    22693293.995       -1934.624  
  21360552.502      617633.039      467703.207    21360549.094       -1439.946  
 15  1 28  6  0 41.0000000  0  8G24G12G22G25G18G14G15G21            
  20561498.300      472747.215      360879.809    20561496.977       -1161.572  
  23187245.461     -230718.523           0.000           0.000        2775.620  
  22499136.068    -1432492.270    -1084433.441    22499130.717        2953.955  
  24471352.465     -977466.902     -442529.770    24471367.920        3386.953  
  20586073.709     -809543.313     -610507.277    20586068.763        1593.516  
  23275226.784     -987404.871     -736948.941    23275225.957        2004.248  
  22693665.422      908470.363      688053.535    22693662.335       -1934.785  
  21360826.657      619073.254      468825.449    21360823.116       -1440.508  
 15  1 28  6  0 42.0000000  0  8G24G12G22G25G18G14G15G21            
  20561719.793      473909.070      361785.152    20561717.672       -1162.178  
  23186716.735     -233494.129           0.000           0.000        2775.889  
  22498574.241    -1435446.164    -1086735.172    22498568.377        2953.843  
  24470708.125     -980853.676     -445168.801    24470723.637        3386.812  
  20585770.444     -811136.688     -611748.875    20585765.232        1593.188  
  23274845.585     -989408.980     -738510.574    23274844.799        2004.077  
  22694034.194      910405.145      689561.152    22694030.481       -1934.814  
  21361100.719      620514.035      469948.129    21361096.938       -1441.089  
 15  1 28  6  0 43.0000000  0  8G24G12G22G25G18G14G15G21            
  20561940.919      475071.539      362690.977    20561939.201       -1162.861  
  23186189.746     -236269.352           0.000           0.000        2775.166  
  22498011.839    -1438399.867    -1089036.758    22498006.609        2953.550  
  24470065.806     -984240.621     -447807.965    24470079.208        3386.812  
  20585467.633     -812729.660     -612990.156    20585462.268        1592.788  
  23274464.214     -991412.813     -740072.000    23274463.968        2003.770  
  22694401.874      912340.059      691068.883    22694398.503       -1935.044  
  21361374.742      621955.406      471071.273    21361371.352       -1441.616  
 15  1 28  6  0 44.0000000  0  8G24G12G22G25G18G14G15G21            
  20562161.862      476234.574      363597.234    20562160.681       -1163.296  
  23185660.457     -239044.324           0.000           0.000        2775.127  
  22497450.221    -1441353.441    -1091338.238    22497444.365        2953.579  
  24469419.121     -987627.547           0.000           0.000        3387.158  
  20585164.749     -814322.301     -614231.172    20585159.380        1592.573  
  23274082.324     -993416.477     -741633.289    23274082.176        2003.594  
  22694769.900      914275.027      692576.645    22694766.705       -1934.946  
  21361649.265      623397.324      472194.840    21361645.671       -1442.100  
 15  1 28  6  0 45.0000000  0  8G24G12G22G25G18G14G15G21            
  20562383.263      477398.129      364503.902    20562381.758       -1163.794  
  23185133.043     -241819.059           0.000           0.000        2774.815  
  22496887.561    -1444306.887    -1093639.617    22496882.270        2953.423  
  24468773.813     -991014.594           0.000           0.000        3386.860  
  20584861.565     -815914.574     -615471.902    20584856.706        1592.153  
  23273701.343     -995419.988     -743194.465    23273700.807        2003.398  
  22695138.244      916210.066      694084.465    22695135.068       -1935.063  
  21361923.453      624839.789      473318.848    21361920.441       -1442.754  
 15  1 28  6  0 46.0000000  0  8G24G12G22G25G18G14G15G21            
  20562604.743      478562.316      365411.063    20562603.169       -1164.487  
  23184604.838     -244593.457           0.000           0.000        2774.482  
  22496325.474    -1447260.195    -1095940.895    22496320.104        2953.247  
  24468128.318     -994401.742           0.000           0.000        3387.280  
  20584558.597     -817506.473     -616712.344    20584553.432        1591.660  
  23273320.356     -997423.289     -744755.473    23273320.050        2003.164  
  22695506.911      918145.195      695592.359    22695503.395       -1935.171  
  21362198.509      626282.801      474443.273    21362195.155       -1443.325  
 15  1 28  6  0 47.0000000  0  8G24G12G22G25G18G14G15G21            
  20562826.359      479727.086      366318.676    20562825.300       -1165.122  
  23184076.605     -247367.684           0.000           0.000        2774.029  
  22495763.572    -1450213.348    -1098242.047    22495758.588        2953.057  
  24467483.187     -997788.883           0.000           0.000        3386.816  
  20584255.678     -819098.031     -617952.520    20584250.643        1591.377  
  23272939.215     -999426.406     -746316.340    23272938.462        2002.979  
  22695875.133      920080.414      697100.324    22695871.470       -1935.312  
  21362472.738      627726.355      475568.113    21362470.019       -1443.867  
 15  1 28  6  0 48.0000000  0  8G24G12G22G25G18G14G15G21            
  20563048.198      480892.395      367226.699    20563046.617       -1165.566  
  23183548.076     -250141.637           0.000           0.000        2773.750  
  22495202.170    -1453166.375    -1100543.102    22495196.463        2952.964  
  24466838.319    -1001176.207           0.000           0.000        3387.363  
  20583952.839     -820689.266     -619192.445    20583947.644        1591.108  
  23272558.241    -1001429.379     -747877.098    23272557.425        2002.964  
  22696242.901      922015.648      698608.297    22696239.877       -1935.176  
  21362747.729      629170.414      476693.355    21362744.473       -1444.238  
 15  1 28  6  0 49.0000000  0  8G24G12G22G25G18G14G15G21            
  20563269.851      482058.266      368135.176    20563268.596       -1166.143  
  23183021.595     -252915.297           0.000           0.000        2773.726  
  22494639.617    -1456119.309    -1102844.090    22494634.337        2952.876  
  24466193.722    -1004563.672           0.000           0.000        3387.344  
  20583650.087     -822280.176     -620432.117    20583645.149        1590.723  
  23272176.875    -1003432.184     -749437.723    23272176.069        2002.725  
  22696611.103      923950.965      700116.340    22696608.085       -1935.352  
  21363022.581      630615.027      477819.027    21363019.301       -1444.878  
 15  1 28  6  0 50.0000000  0  8G24G12G22G25G18G14G15G21            
  20563491.900      483224.750      369044.121    20563490.460       -1166.719  
  23182493.601     -255688.672           0.000           0.000        2773.267  
  22494077.758    -1459072.059    -1105144.934    22494072.401        2952.695  
  24465548.661    -1007951.148           0.000           0.000        3387.710  
  20583347.394     -823870.668     -621671.457    20583342.252        1590.234  
  23271796.856    -1005434.750     -750998.164    23271795.137        2002.500  
  22696979.316      925886.402      701624.469    22696976.105       -1935.547  
  21363298.051      632060.215      478945.141    21363294.593       -1445.513  
 15  1 28  6  0 51.0000000  0  8G24G12G22G25G18G14G15G21            
  20563714.004      484391.883      369953.578    20563712.546       -1167.490  
  23181966.104     -258461.703           0.000           0.000        2772.944  
  22493516.346    -1462024.637    -1107445.637    22493510.903        2952.456  
  24464903.658    -1011338.602           0.000           0.000        3388.062  
  20583044.933     -825460.789     -622910.512    20583039.735        1589.824  
  23271415.408    -1007437.102     -752558.434    23271414.279        2002.192  
  22697348.146      927821.934      703132.664    22697344.678       -1935.654  
  21363572.799      633505.996      480071.727    21363569.538       -1446.079  
 15  1 28  6  0 52.0000000  0  8G24G12G22G25G18G14G15G21            
  20563936.225      485559.684      370863.559    20563935.009       -1168.096  
  23181438.707     -261234.465           0.000           0.000        2772.793  
  22492954.341    -1464976.969    -1109746.148    22492949.074        2952.148  
  24464258.991    -1014725.984           0.000           0.000        3387.275  
  20582742.413     -827050.453     -624149.211    20582737.061        1589.390  
  23271034.162    -1009439.168     -754118.477    23271033.056        2001.816  
  22697716.584      929757.645      704641.012    22697713.019       -1935.830  
  21363848.270      634952.434      481198.816    21363844.792       -1446.821  
 15  1 28  6  0 53.0000000  0  8G24G12G22G25G18G14G15G21            
  20564158.444      486728.219      371774.102    20564157.440       -1168.877  
  23180910.676     -264006.785           0.000           0.000        2772.319  
  22492392.468    -1467929.051    -1112046.469    22492387.249        2952.036  
  24463614.294    -1018113.457           0.000           0.000        3387.153  
  20582439.940     -828639.641     -625387.535    20582434.891        1589.028  
  23270653.313    -1011440.941     -755678.301    23270652.469        2001.714  
  22698084.764      931693.555      706149.512    22698081.412       -1935.977  
  21364123.753      636399.527      482326.414    21364120.479       -1447.412  
 15  1 28  6  0 54.0000000  0  8G24G12G22G25G18G14G15G21            
  20564381.217      487897.398      372685.148    20564379.907       -1169.546  
  23180383.529     -266778.773           0.000           0.000        2771.938  
  22491830.490    -1470880.934    -1114346.633    22491825.365        2951.802  
  24462968.567    -1021500.926           0.000           0.000        3387.554  
  20582137.528     -830228.418     -626625.547    20582132.532        1588.628  
  23270272.933    -1013442.465     -757237.930    23270271.275        2001.353  
  22698452.958      933629.570      707658.094    22698449.846       -1936.128  
  21364399.136      637847.203      483454.477    21364395.808       -1447.944  
 15  1 28  6  0 55.0000000  0  8G24G12G22G25G18G14G15G21            
  20564603.681      489067.176      373596.660    20564602.134       -1170.005  
  23179856.291     -269550.484           0.000           0.000        2771.363  
  22491268.757    -1473832.656    -1116646.672    22491263.919        2951.709  
  24462325.122    -1024888.387           0.000           0.000        3387.451  
  20581835.398     -831816.816     -627863.254    20581830.191        1588.228  
  23269890.898    -1015443.793     -758797.402    23269890.802        2001.216  
  22698821.623      935565.711      709166.781    22698817.814       -1936.201  
  21364674.429      639295.449      484582.984    21364671.171       -1448.501  
 15  1 28  6  0 56.0000000  0  8G24G12G22G25G18G14G15G21            
  20564826.380      490237.535      374508.625    20564824.885       -1170.566  
  23179328.813     -272322.051           0.000           0.000        2771.631  
  22490707.206    -1476784.262    -1118946.621    22490702.041        2951.621  
  24461680.738    -1028276.070           0.000           0.000        3388.027  
  20581533.049     -833404.875     -629100.699    20581528.023        1587.915  
  23269510.849    -1017444.965     -760356.746    23269509.861        2001.187  
  22699189.621      937501.898      710675.500    22699186.281       -1936.196  
  21364949.830      640744.266      485711.930    21364946.954       -1449.043  
 15  1 28  6  0 57.0000000  0  8G24G12G22G25G18G14G15G21            
  20565049.426      491408.422      375421.004    20565047.657       -1171.167  
  23178803.189     -275093.195           0.000           0.000        2771.040  
  22490145.821    -1479735.758    -1121246.484    22490140.117        2951.460  
  24461035.345    -1031663.684           0.000           0.000        3387.651  
  20581230.766     -834992.602     -630337.887    20581225.699        1587.539  
  23269129.895    -1019445.969     -761915.961    23269129.037        2000.830  
  22699558.356      939438.141      712184.266    22699554.976       -1936.343  
  21365225.754      642193.547      486841.242    21365222.535       -1449.502  
 15  1 28  6  0 58.0000000  0  8G24G12G22G25G18G14G15G21            
  20565272.343      492579.859      376333.813    20565271.023       -1171.694  
  23178274.466     -277864.230           0.000           0.000        2770.977  
  22489583.641    -1482687.117    -1123546.246    22489578.737        2951.411  
  24460391.108    -1035051.535           0.000           0.000        3387.720  
  20580928.977     -836580.000     -631574.816    20580923.627        1587.241  
  23268749.257    -1021446.824     -763475.070    23268748.236        2000.869  
  22699926.600      941374.430      713693.063    22699923.530       -1936.299  
  21365501.851      643643.375      487970.969    21365498.764       -1450.024  
 15  1 28  6  0 59.0000000  0  8G24G12G22G25G18G14G15G21            
  20565495.348      493751.848      377247.051    20565493.577       -1172.222  
  23177749.356     -280635.027           0.000           0.000        2770.742  
  22489021.986    -1485638.395    -1125845.938    22489016.905        2951.148  
  24459745.298    -1038439.430           0.000           0.000        3388.032  
  20580627.080     -838167.082     -632811.504    20580621.347        1586.987  
  23268368.275    -1023447.516     -765034.039    23268367.626        2000.606  
  22700295.403      943310.746      715201.875    22700292.550       -1936.279  
  21365777.800      645093.711      489101.102    21365774.496       -1450.635  
 15  1 28  6  1  0.0000000  0  8G24G12G22G25G18G14G15G21            
  20565718.158      494924.336      378160.676    20565716.522       -1172.695  
  23177221.354     -283405.570           0.000           0.000        2770.576  
  22488460.384    -1488589.625    -1128145.594    22488455.446        2951.236  
  24459100.444    -1041827.531           0.000           0.000        3388.096  
  20580324.951     -839753.887     -634047.973    20580320.152        1586.675  
  23267987.161    -1025448.133     -766592.965    23267986.695        2000.669  
  22700664.355      945247.066      716710.695    22700660.621       -1936.279  
  21366053.856      646544.492      490231.578    21366050.700       -1450.938  
 15  1 28  6  1  1.0000000  0  8G24G12G22G25G18G14G15G21            
  20565941.423      496097.387      379074.742    20565939.941       -1173.306  
  23176694.705     -286175.934           0.000           0.000        2770.093  
  22487898.874    -1491540.750    -1130445.168    22487894.262        2951.001  
  24458456.113    -1045215.805           0.000           0.000        3388.311  
  20580023.204     -841340.398     -635284.219    20580018.143        1586.289  
  23267606.930    -1027448.594     -768151.762    23267605.711        2000.283  
  22701032.255      947183.398      718219.523    22701029.328       -1936.372  
  21366330.086      647995.781      491362.453    21366326.754       -1451.587  
 15  1 28  6  1  2.0000000  0  8G24G12G22G25G18G14G15G21            
  20566164.925      497270.977      379989.227    20566163.439       -1173.774  
  23176168.402     -288946.055           0.000           0.000        2769.927  
  22487337.324    -1494491.801    -1132744.691    22487332.507        2951.074  
  24457813.357    -1048604.137           0.000           0.000        3388.184  
  20579721.407     -842926.586     -636520.207    20579716.259        1586.045  
  23267226.029    -1029448.934     -769710.461    23267225.123        2000.337  
  22701400.508      949119.777      719728.395    22701397.831       -1936.270  
  21366606.295      649447.574      492493.719    21366603.242       -1451.977  
 15  1 28  6  1  3.0000000  0  8G24G12G22G25G18G14G15G21            
  20566388.431      498445.090      380904.117    20566386.742       -1174.434  
  23175641.279     -291716.070           0.000           0.000        2770.229  
  22486775.426    -1497442.723    -1135044.113    22486770.737        2950.821  
  24457168.383    -1051992.547           0.000           0.000        3388.032  
  20579419.717     -844512.473     -637755.961    20579414.367        1585.640  
  23266845.786    -1031449.113     -771269.043    23266844.755        2000.034  
  22701769.226      951056.215      721237.301    22701765.986       -1936.470  
  21366882.703      650899.875      493625.375    21366879.448       -1452.588  
 15  1 28  6  1  4.0000000  0  8G24G12G22G25G18G14G15G21            
  20566611.568      499619.859      381819.527    20566610.211       -1174.990  
  23175111.862     -294485.563           0.000           0.000        2769.141  
  22486214.280    -1500393.449    -1137343.379    22486209.547        2950.630  
  24456523.491    -1055381.145           0.000           0.000        3388.701  
  20579117.868     -846097.898     -638991.355    20579112.752        1585.259  
  23266465.311    -1033449.055     -772827.434    23266464.031        1999.795  
  22702138.063      952992.758      722746.293    22702134.582       -1936.563  
  21367159.115      652352.762      494757.496    21367156.019       -1453.213  
 15  1 28  6  1  5.0000000  0  8G24G12G22G25G18G14G15G21            
  20566835.488      500795.238      382735.410    20566833.862       -1175.698  
  23174584.876     -297254.910           0.000           0.000        2769.336  
  22485652.813    -1503344.031    -1139642.523    22485647.837        2950.483  
  24455876.790    -1058769.535           0.000           0.000        3387.832  
  20578816.092     -847682.957     -640226.473    20578810.829        1584.805  
  23266084.724    -1035448.789     -774385.656    23266083.659        1999.648  
  22702506.801      954929.402      724255.359    22702503.257       -1936.680  
  21367436.293      653806.238      495890.070    21367432.438       -1453.804  
 15  1 28  6  1  6.0000000  0  8G24G12G22G25G18G14G15G21            
  20567059.037      501971.199      383651.738    20567057.770       -1176.279  
  23174058.979     -300023.891           0.000           0.000        2768.589  
  22485091.832    -1506294.484    -1141941.574    22485086.455        2950.483  
  24455232.800    -1062158.242           0.000           0.000        3388.736  
  20578514.910     -849267.707     -641461.340    20578509.658        1584.600  
  23265703.973    -1037448.348     -775943.742    23265702.874        1999.565  
  22702875.648      956866.113      725764.473    22702871.892       -1936.645  
  21367712.553      655260.246      497023.063    21367709.044       -1454.258  
 15  1 28  6  1  7.0000000  0  8G24G12G22G25G18G14G15G21            
  20567282.881      503147.652      384568.457    20567281.360       -1176.782  
  23173531.943     -302792.691           0.000           0.000        2768.843  
  22484529.954    -1509244.859    -1144240.559    22484525.009        2950.391  
  24454588.616    -1065546.984           0.000           0.000        3388.613  
  20578212.834     -850852.148     -642695.969    20578208.017        1584.326  
  23265323.010    -1039447.770     -777501.719    23265322.506        1999.312  
  22703243.498      958802.855      727273.625    22703240.307       -1936.826  
  21367989.514      656714.715      498156.414    21367985.853       -1454.741  
 15  1 28  6  1  8.0000000  0  8G24G12G22G25G18G14G15G21            
  20567506.796      504324.664      385485.609    20567505.407       -1177.275  
  23173004.439     -305561.277           0.000           0.000        2768.516  
  22483968.552    -1512195.117    -1146539.457    22483963.762        2950.230  
  24453944.365    -1068935.875           0.000           0.000        3389.145  
  20577911.900     -852436.254     -643930.336    20577906.694        1584.004  
  23264943.156    -1041447.063     -779059.605    23264942.449        1999.336  
  22703612.102      960739.609      728782.785    22703608.961       -1936.738  
  21368266.224      658169.699      499290.160    21368263.201       -1455.156  
 15  1 28  6  1  9.0000000  0  8G24G12G22G25G18G14G15G21            
  20567731.217      505502.180      386403.152    20567729.783       -1177.793  
  23172478.882     -308329.637           0.000           0.000        2768.022  
  22483407.476    -1515145.320    -1148838.320    22483402.053        2950.171  
  24453298.713    -1072324.938           0.000           0.000        3389.072  
  20577610.297     -854020.070     -645164.484    20577605.436        1583.696  
  23264562.297    -1043446.246     -780617.406    23264561.864        1999.087  
  22703980.497      962676.371      730291.945    22703977.537       -1936.777  
  21368543.301      659625.176      500424.293    21368539.747       -1455.693  
 15  1 28  6  1 10.0000000  0  8G24G12G22G25G18G14G15G21            
  20567955.738      506680.289      387321.152    20567953.831       -1178.472  
  23171952.268     -311097.863           0.000           0.000        2768.398  
  22482846.066    -1518095.371    -1151137.066    22482840.155        2949.932  
  24452654.114    -1075714.023           0.000           0.000        3389.126  
  20577308.640     -855603.551     -646398.359    20577303.839        1583.242  
  23264182.210    -1045445.258     -782175.074    23264181.427        1998.975  
  22704348.981      964613.215      731801.180    22704346.175       -1936.865  
  21368820.195      661081.191      501558.855    21368816.745       -1456.313  
 15  1 28  6  1 11.0000000  0  8G24G12G22G25G18G14G15G21            
  20568179.881      507858.969      388239.605    20568177.938       -1178.940  
  23171424.925     -313865.656           0.000           0.000        2767.769  
  22482284.693    -1521045.281    -1153435.707    22482279.189        2949.834  
  24452009.103    -1079103.164           0.000           0.000        3389.170  
  20577007.376     -857186.652     -647631.945    20577002.562        1582.842  
  23263801.865    -1047444.055     -783732.574    23263801.105        1998.682  
  22704718.161      966550.148      733310.477    22704714.742       -1936.968  
  21369097.315      662537.750      502693.828    21369093.953       -1456.836  
 15  1 28  6  1 12.0000000  0  8G24G12G22G25G18G14G15G21            
  20568404.361      509038.215      389158.500    20568402.511       -1179.468  
  23170897.367     -316633.254           0.000           0.000        2767.402  
  22481723.383    -1523995.070    -1155734.250    22481718.200        2949.844  
  24451363.997    -1082492.391           0.000           0.000        3389.443  
  20576706.004     -858769.418     -648865.273    20576701.275        1582.622  
  23263421.317    -1049442.688     -785289.953    23263420.521        1998.652  
  22705085.949      968487.137      734819.809    22705083.173       -1936.914  
  21369374.240      663994.840      503829.223    21369371.355       -1457.280  
 15  1 28  6  1 13.0000000  0  8G24G12G22G25G18G14G15G21            
  20568628.973      510217.914      390077.750    20568626.951       -1179.941  
  23170372.075     -319400.695           0.000           0.000        2767.373  
  22481162.168    -1526944.859    -1158032.777    22481156.743        2949.834  
  24450720.057    -1085881.906           0.000           0.000        3389.453  
  20576405.378     -860351.961     -650098.418    20576400.330        1582.456  
  23263041.590    -1051441.258     -786847.277    23263039.989        1998.599  
  22705454.906      970424.063      736329.094    22705451.774       -1936.831  
  21369652.096      665452.359      504964.949    21369648.885       -1457.759  
 15  1 28  6  1 14.0000000  0  8G24G12G22G25G18G14G15G21            
  20568853.249      511398.070      390997.355    20568851.403       -1180.439  
  23169844.933     -322168.090           0.000           0.000        2767.314  
  22480600.553    -1529894.605    -1160331.285    22480595.335        2949.697  
  24450075.304    -1089271.559           0.000           0.000        3389.819  
  20576104.153     -861934.273     -651331.387    20576099.539        1582.197  
  23262660.960    -1053439.773     -788404.563    23262659.910        1998.379  
  22705823.937      972360.977      737838.371    22705820.398       -1936.982  
  21369929.583      666910.254      506100.965    21369925.934       -1458.145  
 15  1 28  6  1 15.0000000  0  8G24G12G22G25G18G14G15G21            
  20569077.912      512578.762      391917.371    20569076.494       -1180.942  
  23169318.649     -324935.063           0.000           0.000        2766.704  
  22480039.188    -1532844.289    -1162629.730    22480034.164        2949.644  
  24449428.264    -1092661.414           0.000           0.000        3389.937  
  20575803.136     -863516.262     -652564.109    20575798.365        1581.821  
  23262280.534    -1055438.180     -789961.758    23262279.281        1998.384  
  22706192.154      974297.859      739347.629    22706188.994       -1936.890  
  21370207.133      668368.688      507237.414    21370203.762       -1458.638  
 15  1 28  6  1 16.0000000  0  8G24G12G22G25G18G14G15G21            
  20569302.561      513760.000      392837.816    20569300.982       -1181.543  
  23168791.784     -327701.898           0.000           0.000        2766.396  
  22479477.928    -1535793.867    -1164928.094    22479472.889        2949.517  
  24448783.518    -1096051.313           0.000           0.000        3389.438  
  20575502.500     -865097.957     -653796.594    20575497.382        1581.494  
  23261900.347    -1057436.445     -791518.844    23261899.323        1998.120  
  22706560.849      976234.809      740856.945    22706557.753       -1936.997  
  21370484.821      669827.605      508374.230    21370481.076       -1459.224  
 15  1 28  6  1 17.0000000  0  8G24G12G22G25G18G14G15G21            
  20569527.438      514941.918      393758.797    20569525.957       -1182.246  
  23168264.317     -330468.434           0.000           0.000        2767.134  
  22478916.972    -1538743.207    -1167226.277    22478911.463        2949.204  
  24448139.286    -1099441.297           0.000           0.000        3390.249  
  20575201.250     -866679.180     -655028.719    20575196.096        1581.040  
  23261519.890    -1059434.418     -793075.703    23261519.027        1997.851  
  22706929.266      978171.902      742366.367    22706926.331       -1937.212  
  21370762.431      671287.172      509511.551    21370759.020       -1459.922  
 15  1 28  6  1 18.0000000  0  8G24G12G22G25G18G14G15G21            
  20569752.798      516124.488      394680.273    20569751.290       -1182.813  
  23167738.879     -333234.582           0.000           0.000        2765.986  
  22478356.135    -1541692.348    -1169524.305    22478350.235        2949.053  
  24447494.172    -1102831.145           0.000           0.000        3389.888  
  20574900.346     -868260.000     -656260.527    20574895.413        1580.703  
  23261139.713    -1061432.152     -794632.371    23261139.007        1997.661  
  22707297.993      980109.148      743875.906    22707294.883       -1937.261  
  21371040.089      672747.332      510649.336    21371036.793       -1460.401  
 15  1 28  6  1 19.0000000  0  8G24G12G22G25G18G14G15G21            
  20569977.840      517307.648      395602.223    20569976.158       -1183.555  
  23167213.748     -336000.391           0.000           0.000        2765.493  
  22477794.612    -1544641.344    -1171822.219    22477789.148        2948.936  
  24446849.863    -1106221.125           0.000           0.000        3389.766  
  20574600.011     -869840.449     -657492.047    20574594.548        1580.225  
  23260759.141    -1063429.719     -796188.914    23260758.160        1997.495  
  22707666.613      982046.469      745385.496    22707663.428       -1937.285  
  21371318.383      674208.047      511787.551    21371314.845       -1461.021  
 15  1 28  6  1 20.0000000  0  8G24G12G22G25G18G14G15G21            
  20570203.219      518491.336      396524.574    20570201.344       -1184.067  
  23166686.713     -338766.043           0.000           0.000        2765.332  
  22477233.407    -1547590.238    -1174120.066    22477228.001        2948.808  
  24446205.198    -1109611.277           0.000           0.000        3389.922  
  20574298.940     -871420.586     -658723.316    20574294.123        1579.951  
  23260378.891    -1065427.098     -797745.309    23260378.051        1997.349  
  22708035.179      983983.809      746895.117    22708031.783       -1937.363  
  21371596.261      675669.273      512926.168    21371592.821       -1461.528  
 15  1 28  6  1 21.0000000  0  8G24G12G22G25G18G14G15G21            
  20570428.526      519675.594      397447.371    20570426.951       -1184.614  
  23166159.722     -341531.418           0.000           0.000        2765.391  
  22476671.901    -1550538.969    -1176417.781    22476666.778        2948.618  
  24445560.212    -1113001.488           0.000           0.000        3389.771  
  20573998.321     -873000.371     -659954.320    20573992.999        1579.663  
  23259999.533    -1067424.336     -799301.594    23259997.994        1997.134  
  22708403.844      985921.219      748404.789    22708400.836       -1937.393  
  21371874.482      677131.039      514065.203    21371870.823       -1462.065  
 15  1 28  6  1 22.0000000  0  8G24G12G22G25G18G14G15G21            
  20570653.742      520860.469      398370.652    20570652.331       -1185.210  
  23165632.910     -344296.586           0.000           0.000        2764.942  
  22476110.926    -1553487.582    -1178715.406    22476105.640        2948.511  
  24444914.439    -1116391.734           0.000           0.000        3390.127  
  20573697.508     -874579.746     -661185.008    20573692.781        1579.204  
  23259619.224    -1069421.336     -800857.691    23259618.453        1996.953  
  22708772.821      987858.789      749914.590    22708769.346       -1937.690  
  21372152.674      678593.383      515204.684    21372149.270       -1462.681  
 15  1 28  6  1 23.0000000  0  8G24G12G22G25G18G14G15G21            
  20570879.114      522046.008      399294.449    20570877.857       -1185.859  
  23165105.782     -347061.230           0.000           0.000        2764.409  
  22475549.466    -1556435.957    -1181012.844    22475544.839        2948.257  
  24444268.710    -1119781.988           0.000           0.000        3390.444  
  20573397.195     -876158.703     -662415.359    20573392.415        1578.677  
  23259239.745    -1071418.070     -802413.586    23259238.264        1996.553  
  22709141.376      989796.461      751424.461    22709138.383       -1937.769  
  21372430.913      680056.332      516344.645    21372427.452       -1463.228  
 15  1 28  6  1 24.0000000  0  8G24G12G22G25G18G14G15G21            
  20571104.993      523232.125      400218.699    20571103.553       -1186.470  
  23164579.792     -349825.637           0.000           0.000        2763.843  
  22474989.288    -1559384.172    -1183310.148    22474983.630        2948.057  
  24443625.149    -1123172.266           0.000           0.000        3390.390  
  20573096.701     -877737.273     -663645.414    20573091.979        1578.325  
  23258859.698    -1073414.621     -803969.332    23258858.257        1996.474  
  22709510.338      991734.266      752934.430    22709506.792       -1937.866  
  21372709.868      681519.875      517485.063    21372706.196       -1463.887  
 15  1 28  6  1 25.0000000  0  8G24G12G22G25G18G14G15G21            
  20571330.807      524418.836      401143.406    20571329.271       -1186.968  
  23164054.874     -352589.934           0.000           0.000        2764.502  
  22474427.916    -1562332.242    -1185607.336    22474422.586        2948.067  
  24442979.410    -1126562.680           0.000           0.000        3390.601  
  20572796.875     -879315.496     -664875.195    20572791.652        1578.062  
  23258480.201    -1075410.969     -805524.922    23258478.510        1996.294  
  22709878.868      993672.117      754444.438    22709875.735       -1937.778  
  21372987.761      682983.918      518625.871    21372984.596       -1464.282  
 15  1 28  6  1 26.0000000  0  8G24G12G22G25G18G14G15G21            
  20571557.114      525606.055      402068.504    20571555.591       -1187.490  
  23163528.921     -355353.793           0.000           0.000        2763.291  
  22473866.670    -1565280.250    -1187904.480    22473861.631        2948.027  
  24442335.269    -1129953.156           0.000           0.000        3390.596  
  20572496.301     -880893.434     -666104.758    20572491.536        1577.778  
  23258099.871    -1077407.238     -807080.453    23258098.681        1996.206  
  22710247.648      995609.980      755954.453    22710244.766       -1937.925  
  21373266.971      684448.445      519767.063    21373263.127       -1464.761  
 15  1 28  6  1 27.0000000  0  8G24G12G22G25G18G14G15G21            
  20571783.130      526793.773      402994.000    20571781.533       -1187.964  
  23163001.353     -358117.656           0.000           0.000        2763.462  
  22473305.997    -1568228.188    -1190201.570    22473300.397        2947.852  
  24441689.952    -1133343.848           0.000           0.000        3390.400  
  20572196.106     -882471.090     -667334.098    20572191.403        1577.539  
  23257719.705    -1079403.359     -808635.871    23257718.651        1996.016  
  22710616.546      997547.828      757464.465    22710613.439       -1937.881  
  21373545.543      685913.473      520908.637    21373542.289       -1465.244  
 15  1 28  6  1 28.0000000  0  8G24G12G22G25G18G14G15G21            
  20572009.278      527982.051      403919.934    20572007.461       -1188.496  
  23162476.151     -360881.148           0.000           0.000        2763.931  
  22472744.848    -1571175.988    -1192498.555    22472739.561        2947.740  
  24441043.941    -1136734.590           0.000           0.000        3390.840  
  20571895.988     -884048.395     -668563.168    20571891.052        1577.188  
  23257340.405    -1081399.348     -810191.180    23257338.847        1995.918  
  22710985.249      999485.738      758974.523    22710981.841       -1937.905  
  21373824.470      687379.000      522050.605    21373820.951       -1465.728  
 15  1 28  6  1 29.0000000  0  8G24G12G22G25G18G14G15G21            
  20572234.815      529170.879      404846.293    20572233.825       -1189.150  
  23161951.185     -363644.375           0.000           0.000        2762.891  
  22472184.186    -1574123.695    -1194795.469    22472178.491        2947.588  
  24440399.436    -1140125.469           0.000           0.000        3390.806  
  20571595.840     -885625.355     -669791.965    20571590.984        1576.821  
  23256960.686    -1083395.148     -811746.355    23256959.107        1995.693  
  22711353.704     1001423.719      760484.641    22711350.706       -1938.071  
  21374103.753      688845.078      523193.000    21374100.251       -1466.416  
 15  1 28  6  1 30.0000000  0  8G24G12G22G25G18G14G15G21            
  20572462.079      530360.309      405773.121    20572460.318       -1189.780  
  23161424.959     -366407.395           0.000           0.000        2762.691  
  22471623.058    -1577071.207    -1197092.230    22471617.750        2947.422  
  24439754.769    -1143516.383           0.000           0.000        3391.045  
  20571295.882     -887201.945     -671020.477    20571290.608        1576.304  
  23256580.291    -1085390.758     -813301.379    23256579.185        1995.479  
  22711723.059     1003361.813      761994.844    22711719.928       -1938.291  
  21374382.766      690311.691      524335.813    21374379.214       -1466.914  
 15  1 28  6  1 31.0000000  0  8G24G12G22G25G18G14G15G21            
  20572687.928      531550.426      406700.488    20572686.817       -1190.415  
  23160902.059     -369170.031           0.000           0.000        2762.617  
  22471061.994    -1580018.512    -1199388.828    22471056.863        2947.188  
  24439108.843    -1146907.297           0.000           0.000        3390.859  
  20570995.667     -888778.109     -672248.656    20570991.298        1575.933  
  23256201.004    -1087386.102     -814856.188    23256199.281        1995.249  
  22712092.361     1005300.031      763505.141    22712088.468       -1938.364  
  21374661.770      691778.957      525479.137    21374658.306       -1467.515  
 15  1 28  6  1 32.0000000  0  8G24G12G22G25G18G14G15G21            
  20572914.729      532741.199      407628.359    20572913.047       -1191.094  
  23160376.551     -371932.375           0.000           0.000        2762.124  
  22470501.666    -1582965.590    -1201685.250    22470496.021        2946.943  
  24438463.810    -1150298.180           0.000           0.000        3391.123  
  20570696.237     -890353.824     -673476.488    20570691.031        1575.552  
  23255820.719    -1089381.191     -816410.801    23255819.070        1995.000  
  22712460.915     1007238.398      765015.559    22712457.015       -1938.442  
  21374941.196      693246.836      526622.938    21374937.655       -1468.193  
 15  1 28  6  1 33.0000000  0  8G24G12G22G25G18G14G15G21            
  20573141.591      533932.633      408556.754    20573139.904       -1191.948  
  23159851.325     -374694.313           0.000           0.000        2761.875  
  22469940.794    -1585912.480    -1203981.523    22469934.900        2946.763  
  24437816.645    -1153689.047           0.000           0.000        3390.771  
  20570396.519     -891929.117     -674703.996    20570391.673        1574.995  
  23255441.474    -1091376.035     -817965.223    23255440.217        1994.726  
  22712829.556     1009176.918      766526.098    22712825.799       -1938.691  
  21375220.776      694715.309      527767.199    21375217.106       -1468.774  
 15  1 28  6  1 34.0000000  0  7G24G22G25G18G14G15G21               
  20573368.107      535124.680      409485.621    20573366.503       -1192.407  
  22469379.797    -1588859.152    -1206277.633    22469374.563        2946.553  
  24437171.877    -1157080.047           0.000           0.000        3391.040  
  20570096.947     -893504.004     -675931.176    20570091.658        1574.629  
  23255062.170    -1093370.633     -819519.445    23255060.542        1994.482  
  22713198.644     1011115.570      768036.730    22713194.872       -1938.721  
  21375499.941      696184.375      528911.922    21375496.556       -1469.346  
 15  1 28  6  1 35.0000000  0  7G24G22G25G18G14G15G21               
  20573595.256      536317.348      410414.969    20573593.993       -1192.949  
  22468818.973    -1591805.684    -1208573.633    22468813.652        2946.416  
  24436525.994    -1160471.031           0.000           0.000        3390.849  
  20569797.133     -895078.520     -677158.070    20569791.941        1574.331  
  23254682.254    -1095365.031     -821073.527    23254681.231        1994.282  
  22713567.608     1013054.309      769547.430    22713563.961       -1938.862  
  21375779.613      697654.027      530057.102    21375776.100       -1469.902  
 15  1 28  6  1 36.0000000  0  7G24G22G25G18G14G15G21               
  20573822.733      537510.586      411344.762    20573820.707       -1193.496  
  22468258.404    -1594752.063    -1210869.508    22468253.179        2946.265  
  24435880.916    -1163862.055           0.000           0.000        3391.250  
  20569497.584     -896652.656     -678384.668    20569492.719        1573.960  
  23254302.906    -1097359.238     -822627.449    23254301.064        1994.141  
  22713936.436     1014993.125      771058.199    22713932.892       -1938.828  
  21376059.805      699124.219      531202.703    21376056.187       -1470.361  
 15  1 28  6  1 37.0000000  0  7G24G22G25G18G14G15G21               
  20574049.331      538704.414      412275.020    20574047.931       -1194.048  
  22467698.048    -1597698.297    -1213165.277    22467692.748        2946.147  
  24435235.698    -1167253.195           0.000           0.000        3391.177  
  20569198.016     -898226.453     -679611.000    20569192.915        1573.652  
  23253924.107    -1099353.273     -824181.234    23253922.080        1994.067  
  22714304.907     1016932.031      772569.039    22714301.858       -1938.901  
  21376339.342      700594.961      532348.730    21376335.876       -1470.962  
 15  1 28  6  1 38.0000000  0  7G24G22G25G18G14G15G21               
  20574276.803      539898.785      413205.699    20574275.551       -1194.644  
  22467137.086    -1600644.418    -1215460.949    22467131.766        2946.050  
  24434590.982    -1170644.508           0.000           0.000        3391.226  
  20568898.451     -899799.898     -680837.063    20568893.736        1573.320  
  23253543.998    -1101347.145     -825734.887    23253542.391        1993.716  
  22714674.102     1018870.977      774079.914    22714670.776       -1938.975  
  21376619.546      702066.223      533495.164    21376615.876       -1471.528  
 15  1 28  6  1 39.0000000  0  7G24G22G25G18G14G15G21               
  20574504.058      541093.734      414136.828    20574502.599       -1195.205  
  22466576.196    -1603590.426    -1217756.539    22466570.869        2945.933  
  24433947.571    -1174035.813           0.000           0.000        3391.811  
  20568599.002     -901373.023     -682062.867    20568594.155        1572.983  
  23253165.277    -1103340.891     -827288.453    23253162.797        1993.765  
  22715043.336     1020809.969      775590.824    22715039.529       -1939.023  
  21376899.577      703538.000      534642.008    21376895.760       -1472.017  
 15  1 28  6  1 40.0000000  0  7G24G22G25G18G14G15G21               
  20574731.656      542289.188      415068.348    20574730.361       -1195.830  
  22466015.849    -1606536.352    -1220052.066    22466010.360        2945.918  
  24433301.683    -1177427.277           0.000           0.000        3391.875  
  20568299.990     -902945.828     -683288.430    20568294.906        1572.681  
  23252785.538    -1105334.465     -828841.887    23252783.653        1993.574  
  22715411.962     1022748.996      777101.746    22715408.728       -1939.087  
  21377179.724      705010.246      535789.207    21377175.766       -1472.490  
 15  1 28  6  1 41.0000000  0  7G24G22G25G18G14G15G21               
  20574959.332      543485.219      416000.320    20574957.734       -1196.299  
  22465455.077    -1609482.164    -1222347.504    22465449.365        2945.732  
  24432655.349    -1180818.750           0.000           0.000        3391.396  
  20568000.871     -904518.297     -684513.742    20567996.005        1572.256  
  23252406.425    -1107327.879     -830395.195    23252404.464        1993.335  
  22715780.452     1024688.063      778612.703    22715777.469       -1939.097  
  21377459.745      706483.059      536936.848    21377456.175       -1473.037  
 15  1 28  6  1 42.0000000  0  7G24G22G25G18G14G15G21               
  20575186.646      544681.840      416932.758    20575185.484       -1196.914  
  22464894.748    -1612427.793    -1224642.793    22464888.958        2945.620  
  24432009.147    -1184210.391           0.000           0.000        3391.250  
  20567701.490     -906090.398     -685738.750    20567696.558        1571.909  
  23252026.841    -1109321.109     -831948.359    23252025.252        1993.135  
  22716149.623     1026627.207      780123.727    22716147.193       -1939.199  
  21377740.135      707956.387      538084.898    21377736.684       -1473.516  
 15  1 28  6  1 43.0000000  0  7G24G22G25G18G14G15G21               
  20575414.980      545879.035      417865.637    20575412.956       -1197.432  
  22464334.142    -1615373.305    -1226937.996    22464328.547        2945.464  
  24431363.254    -1187602.207           0.000           0.000        3391.968  
  20567402.410     -907662.176     -686963.508    20567397.480        1571.709  
  23251648.138    -1111314.188     -833501.402    23251646.106        1993.047  
  22716519.014     1028566.441      781634.813    22716515.917       -1939.189  
  21378020.308      709430.266      539233.367    21378016.870       -1474.102  
 15  1 28  6  1 44.0000000  0  7G24G22G25G18G14G15G21               
  20575642.456      547076.773      418798.938    20575641.229       -1198.081  
  22463773.697    -1618318.711    -1229233.117    22463768.311        2945.303  
  24430719.783    -1190993.965           0.000           0.000        3391.675  
  20567103.166     -909233.617     -688188.004    20567098.450        1571.318  
  23251268.088    -1113307.105     -835054.336    23251266.914        1992.910  
  22716887.729     1030505.664      783145.895    22716884.742       -1939.150  
  21378301.368      710904.629      540382.219    21378297.974       -1474.595  
 15  1 28  6  1 45.0000000  0  7G24G22G25G18G14G15G21               
  20575870.422      548275.043      419732.652    20575869.099       -1198.516  
  22463213.341    -1621264.031    -1231528.168    22463207.540        2945.264  
  24430072.689    -1194385.898           0.000           0.000        3391.782  
  20566804.522     -910804.723     -689412.242    20566799.372        1570.923  
  23250889.250    -1115299.895     -836607.160    23250887.773        1992.705  
  22717256.864     1032444.988      784657.063    22717253.713       -1939.307  
  21378582.109      712379.504      541531.477    21378578.366       -1475.098  
 15  1 28  6  1 46.0000000  0  7G24G22G25G18G14G15G21               
  20576098.771      549473.945      420666.855    20576097.370       -1199.189  
  22462652.567    -1624209.152    -1233823.066    22462647.168        2945.059  
  24429427.903    -1197777.813           0.000           0.000        3391.992  
  20566505.465     -912375.426     -690636.172    20566500.712        1570.464  
  23250509.606    -1117292.426     -838159.766    23250508.198        1992.461  
  22717625.630     1034384.414      786168.297    22717622.791       -1939.551  
  21378862.546      713854.992      542681.203    21378859.053       -1475.752  
 15  1 28  6  1 47.0000000  0  7G24G22G25G18G14G15G21               
  20576326.992      550673.570      421601.629    20576325.582       -1200.054  
  22462092.412    -1627153.988    -1236117.746    22462087.111        2944.790  
  24428784.173    -1201169.719           0.000           0.000        3391.816  
  20566206.711     -913945.660     -691859.730    20566201.662        1570.010  
  23250130.963    -1119284.691     -839712.160    23250129.057        1992.158  
  22717995.109     1036324.020      787679.676    22717991.848       -1939.761  
  21379143.144      715331.129      543831.438    21379139.916       -1476.606  
 15  1 28  6  1 48.0000000  0  7G24G22G25G18G14G15G21               
  20576555.644      551873.887      422536.941    20576553.693       -1200.674  
  22461531.887    -1630098.559    -1238412.207    22461526.816        2944.429  
  24428139.121    -1204561.598           0.000           0.000        3391.899  
  20565908.049     -915515.371     -693082.887    20565903.031        1569.507  
  23249751.742    -1121276.590     -841264.281    23249750.359        1991.841  
  22718364.139     1038263.848      789191.230    22718361.043       -1939.863  
  21379424.613      716807.926      544982.184    21379420.878       -1477.104  
 15  1 28  6  1 49.0000000  0  7G24G22G25G18G14G15G21               
  20576784.158      553074.902      423472.801    20576782.749       -1201.396  
  22460971.500    -1633042.871    -1240706.469    22460966.471        2944.048  
  24427493.548    -1207953.406           0.000           0.000        3391.729  
  20565609.490     -917084.637     -694305.691    20565604.344        1569.004  
  23249373.100    -1123268.199     -842816.184    23249371.513        1991.387  
  22718733.172     1040203.863      790702.930    22718730.356       -1940.156  
  21379705.734      718285.402      546133.457    21379702.223       -1477.979  
