     2.11           OBSERVATION DATA    G (GPS)             RINEX VERSION / TYPE
teqc  2013Mar15     gpsops              20150109 00:10:49UTCPGM / RUN BY / DATE
Linux 2.4.21-27.ELsmp|Opteron|gcc -static|Linux x86_64|=+   COMMENT
BIT 2 OF LLI FLAGS DATA COLLECTED UNDER A/S CONDITION       COMMENT
ABPO                                                        MARKER NAME
33302M001                                                   MARKER NUMBER
GGN                 JPL                                     OBSERVER / AGENCY
ZR520021812         ASHTECH UZ-12       CQ00                REC # / TYPE / VERS
CR6200342009        ASH701945G_M    SCIT                    ANT # / TYPE
  4097216.6805  4429119.0287 -2065771.3676                  APPROX POSITION XYZ
        0.0083        0.0000        0.0000                  ANTENNA: DELTA H/E/N
     1     1                                                WAVELENGTH FACT L1/2
     7    L1    L2    P1    P2    C1    S1    S2            # / TYPES OF OBSERV
    30.0000                                                 INTERVAL
                                                            COMMENT
This data is provided as a public service by NASA/JPL.      COMMENT
No warranty is expressed or implied regarding suitability   COMMENT
for use.  For further information, contact:                 COMMENT
Dave Stowers, NASA/JPL m/s 238-600                          COMMENT
4800 Oak Grove Drive, Pasadena CA 91109 USA                 COMMENT
                                                            COMMENT
Forced Modulo Decimation to 30 seconds                      COMMENT
 SNR is mapped to RINEX snr flag value [0-9]                COMMENT
  L1 & L2: min(max(int(snr_dBHz/6), 0), 9)                  COMMENT
pseudorange smoothing corrections not applied               COMMENT
  2015     1     8     0     0    0.0000000     GPS         TIME OF FIRST OBS
                                                            END OF HEADER
 15  1  8  0  0  0.0000000  0  8G02G12G05G15G18G21G24G13
   4696590.44946   3668584.54746  25127563.5194   25127563.5384   25127564.975
        41.0004         37.0004
  -5568065.21747  -4332487.78946  23839753.2594   23839756.6224   23839754.165
        45.0004         41.0004
 -12617296.80348  -9827710.09948  21921577.6764   21921579.6134   21921577.422
        52.0004         48.0004
 -18765164.23148 -14582488.47448  21737970.6604   21737972.9874   21737970.410
        53.0004         49.0004
  -3061421.71847  -2348349.92446  23764089.0254   23764091.9424   23764090.613
        44.0004         39.0004
 -11321068.08048  -8786925.88147  22332782.2514   22332784.7814   22332783.045
        48.0004         43.0004
 -22554267.56749 -17534584.95748  20575949.1834   20575954.0874   20575948.628
        56.0004         52.0004
  -2729118.17247  -2113850.64747  23262355.7544   23262358.3794   23262356.160
        47.0004         42.0004
 15  1  8  0  0 30.0000000  0  8G02G12G05G15G18G21G24G13
   4794125.36746   3744585.77546  25146123.4794   25146124.4764   25146122.833
        41.0004         37.0004
  -5650844.62047  -4396991.15446  23824000.4454   23824003.3454   23824000.906
        45.0004         41.0004
 -12573157.11348  -9793315.54147  21929976.4044   21929979.3574   21929976.114
        52.0004         47.0004
 -18763840.68749 -14581457.14448  21738223.2314   21738225.2044   21738222.805
        54.0004         49.0004
  -3153313.29447  -2419953.77146  23746603.7144   23746604.6734   23746603.023
        43.0004         39.0004
 -11351959.23248  -8810996.91747  22326902.8524   22326905.8534   22326903.930
        48.0004         43.0004
 -22583625.29349 -17557461.08948  20570362.4624   20570367.4524   20570361.786
        56.0004         52.0004
  -2677833.94347  -2073888.92647  23272115.5034   23272117.0884   23272115.779
        47.0004         42.0004
 15  1  8  0  1  0.0000000  0  8G02G12G05G15G18G21G24G13
   4891538.98246   3820492.51046  25164658.4544   25164661.7304   25164659.518
        41.0004         36.0004
  -5733706.84347  -4461559.06646  23808232.5854   23808234.9694   23808233.894
        45.0004         41.0004
 -12528640.05348  -9758626.92847  21938448.2044   21938450.4794   21938447.764
        52.0004         47.0004
 -18762496.23449 -14580409.51648  21738479.1564   21738481.1464   21738479.136
        54.0004         49.0004
  -3245211.68947  -2491562.92146  23729114.9624   23729117.6554   23729116.555
        43.0004         38.0004
 -11382305.24848  -8834643.16047  22321128.6414   22321131.6244   22321129.421
        48.0004         43.0004
 -22612482.91149 -17579947.53148  20564870.9534   20564875.9874   20564870.133
        56.0004         52.0004
  -2626637.44747  -2033995.55047  23281857.4974   23281860.2254   23281858.173
        47.0004         42.0004
 15  1  8  0  1 30.0000000  0  8G02G12G05G15G18G21G24G13
   4988820.77646   3896296.54346  25183170.7174   25183173.9824   25183172.337
        41.0004         36.0004
  -5816657.01747  -4526195.49746  23792446.6804   23792450.2624   23792448.572
        45.0004         41.0004
 -12483753.89548  -9723650.70347  21946989.5904   21946991.9204   21946988.873
        52.0004         47.0004
 -18761139.38249 -14579352.21548  21738737.4054   21738739.1984   21738736.602
        54.0004         49.0004
  -3337123.21347  -2563182.32446  23711625.6094   23711627.5974   23711626.141
        43.0004         38.0004
 -11412113.70148  -8857870.50847  22315456.1674   22315458.4524   22315456.864
        48.0004         43.0004
 -22640848.12449 -17602050.27648  20559473.3874   20559477.8944   20559472.701
        56.0004         52.0004
  -2575537.25347  -1994177.22547  23291582.1254   23291584.1494   23291582.075
        47.0004         42.0004
 15  1  8  0  2  0.0000000  0  8G02G12G05G15G18G21G24G13
   5085975.54746   3972001.57846  25201658.4544   25201660.9544   25201659.428
        41.0004         37.0004
  -5899686.53147  -4590893.77046  23776648.2834   23776650.0704   23776648.439
        46.0004         41.0004
 -12438491.84648  -9688381.58747  21955602.6324   21955605.0574   21955602.715
        52.0004         47.0004
 -18759763.86449 -14578280.37448  21738998.7734   21739001.0364   21738998.353
        54.0004         49.0004
  -3429039.79947  -2634805.64946  23694133.7994   23694136.1294   23694133.277
        43.0004         38.0004
 -11441377.65247  -8880673.60347  22309888.8094   22309889.6924   22309888.041
        47.0004         42.0004
 -22668714.66249 -17623764.45048  20554170.4874   20554175.2894   20554169.926
        56.0004         52.0004
  -2524526.91047  -1954428.91647  23301288.6694   23301290.9674   23301288.945
        47.0004         42.0004
 15  1  8  0  2 30.0000000  0  8G02G12G05G15G18G21G24G13
   5182999.01346   4047604.29846  25220121.9324   25220124.6834   25220123.954
        41.0004         37.0004
  -5982794.49247  -4655653.15646  23760832.8364   23760835.2924   23760832.492
        46.0004         41.0004
 -12392856.00748  -9652821.19647  21964287.3444   21964289.5674   21964286.988
        52.0004         47.0004
 -18758372.83648 -14577196.45048  21739263.2594   21739265.8844   21739262.958
        53.0004         49.0004
  -3520961.83147  -2706433.20946  23676641.2464   23676643.6434   23676642.390
        43.0004         38.0004
 -11470098.49347  -8903053.45547  22304423.0274   22304423.9404   22304423.003
        47.0004         42.0004
 -22696084.02549 -17645091.21048  20548962.3144   20548967.0384   20548961.623
        56.0004         52.0004
  -2473608.99647  -1914752.60947  23310977.7494   23310980.3454   23310977.611
        47.0004         42.0004
 15  1  8  0  3  0.0000000  0  8G02G12G05G15G18G21G24G13
   5279889.14646   4123103.15346  25238561.2484   25238563.1124   25238559.319
        41.0004         37.0004
  -6065978.29747  -4720471.64946  23745003.3304   23745006.3444   23745003.436
        46.0004         41.0004
 -12346845.84748  -9616969.13247  21973042.6104   21973045.1084   21973042.620
        52.0004         47.0004
 -18756966.63248 -14576100.69848  21739530.9184   21739533.3094   21739530.181
        53.0004         49.0004
  -3612887.70847  -2778063.77646  23659148.9734   23659151.9224   23659148.891
        43.0004         39.0004
 -11498275.57947  -8925009.61547  22299059.7334   22299061.6794   22299060.520
        46.0004         42.0004
 -22722956.89349 -17666031.08548  20543848.4174   20543853.3474   20543848.098
        56.0004         52.0004
  -2422783.65647  -1875148.44947  23320650.1304   23320653.3514   23320649.436
        46.0004         42.0004
 15  1  8  0  3 30.0000000  0  8G02G12G05G15G18G21G24G13
   5376644.09247   4198496.64246  25256970.7924   25256973.3324   25256972.361
        42.0004         37.0004
  -6149235.56347  -4785347.37346  23729160.3784   23729163.4344   23729159.773
        46.0004         41.0004
 -12300461.27748  -9580825.31747  21981869.4864   21981871.7354   21981869.032
        52.0004         47.0004
 -18755545.32048 -14574993.17248  21739801.3904   21739803.7534   21739800.998
        53.0004         49.0004
  -3704815.34247  -2849695.70546  23641655.2724   23641657.9794   23641656.145
        43.0004         39.0004
 -11525908.85847  -8946542.04647  22293801.6284   22293804.8394   22293802.724
        46.0004         42.0004
 -22749332.36949 -17686583.38548  20538829.3884   20538834.1904   20538828.710
        56.0004         52.0004
  -2372050.90547  -1835616.44847  23330303.2174   23330305.7094   23330303.281
        46.0004         42.0004
 15  1  8  0  4  0.0000000  0  8G02G12G05G15G18G21G24G13
   5473261.01947   4273782.60246  25275357.4014   25275359.1884   25275360.083
        42.0004         37.0004
  -6232564.37847  -4850278.86646  23713303.3654   23713306.5304   23713303.668
        45.0004         41.0004
 -12253703.31448  -9544390.53647  21990766.6664   21990769.6444   21990766.204
        52.0004         47.0004
 -18754110.29048 -14573874.95648  21740074.2474   21740076.6814   21740073.726
        53.0004         49.0004
  -3796744.02947  -2921328.46046  23624162.6864   23624164.5354   23624163.538
        44.0004         39.0004
 -11552998.68347  -8967651.00747  22288647.6274   22288648.8164   22288648.112
        46.0004         42.0004
 -22775211.87749 -17706749.22148  20533904.7054   20533909.5624   20533904.279
        56.0004         52.0004
  -2321411.91947  -1796157.49146  23339940.5674   23339942.5474   23339939.544
        46.0004         41.0004
 15  1  8  0  4 30.0000000  0  8G02G12G05G15G18G21G24G13
   5569740.15747   4348961.18646  25293717.4334   25293718.9324   25293717.732
        42.0004         37.0004
  -6315960.94247  -4915263.13746  23697432.9244   23697435.8694   23697433.973
        45.0004         41.0004
 -12206569.76248  -9507663.10147  21999736.0894   21999738.9824   21999735.631
        52.0004         47.0004
 -18752660.16148 -14572744.98148  21740350.6734   21740352.3924   21740350.096
        53.0004         49.0004
  -3888670.02747  -2992959.11646  23606669.1504   23606670.7354   23606670.046
        44.0004         39.0004
 -11579542.98647  -8988334.86646  22283597.0194   22283597.9184   22283596.447
        46.0004         41.0004
 -22800593.62449 -17726527.18548  20529074.7584   20529079.5154   20529074.282
        56.0004         52.0004
  -2270865.03247  -1756770.31246  23349558.4114   23349560.4254   23349557.866
        46.0004         41.0004
 15  1  8  0  5  0.0000000  0  8G02G12G05G15G18G21G24G13
   5666080.93147   4424031.96346  25312048.9664   25312049.8944   25312050.018
        42.0004         37.0004
  -6399419.52447  -4980295.74446  23681550.9954   23681554.2134   23681551.491
        45.0004         41.0004
 -12159058.55848  -9470641.38947  22008777.4304   22008779.6664   22008777.012
        52.0004         47.0004
 -18751193.49348 -14571602.11048  21740629.3134   21740631.5004   21740628.891
        53.0004         49.0004
  -3980590.23147  -3064585.24446  23589177.6264   23589179.8164   23589177.540
        44.0004         39.0004
 -11605540.00847  -9008592.27646  22278649.0654   22278652.0064   22278649.723
        46.0004         41.0004
 -22825475.46149 -17745915.61348  20524339.7244   20524344.7764   20524338.834
        56.0004         52.0004
  -2220408.60947  -1717453.61146  23359160.2484   23359162.5394   23359160.409
        46.0004         41.0004
 15  1  8  0  5 30.0000000  0  8G02G12G05G15G18G21G24G13
   5762272.75247   4498986.69646  25330354.3994   25330354.6024   25330354.171
        42.0004         37.0004
  -6482947.22647  -5045382.21846  23665657.1124   23665659.0834   23665656.443
        45.0004         41.0004
 -12111178.73848  -9433332.44147  22017889.1424   22017890.8944   22017888.104
        52.0004         47.0004
 -18749719.33548 -14570453.41248  21740910.1254   21740911.9914   21740909.673
        53.0004         49.0004
  -4072511.41847  -3136212.13846  23571685.0254   23571687.1994   23571685.945
        43.0004         39.0004
 -11630997.91547  -9028429.60847  22273804.5624   22273806.1004   22273805.129
        46.0004         42.0004
 -22849866.47849 -17764921.58048  20519698.5934   20519703.0514   20519698.020
        56.0004         52.0004
  -2170051.76447  -1678214.51546  23368744.0304   23368745.2014   23368742.395
        46.0004         41.0004
 15  1  8  0  6  0.0000000  0  8G02G12G05G15G18G21G24G13
   5858323.78947   4573831.69946  25348632.1794   25348634.4424   25348631.568
        42.0004         37.0004
  -6566530.61647  -5110512.07546  23649751.5084   23649754.2934   23649751.404
        45.0004         41.0004
 -12062919.83248  -9395728.10247  22027072.1354   22027074.6334   22027071.891
        52.0004         47.0004
 -18748228.04148 -14569291.35248  21741193.7524   21741195.9594   21741193.416
        53.0004         49.0004
  -4164421.29747  -3207830.21846  23554195.6124   23554197.5444   23554195.870
        43.0004         39.0004
 -11655905.48847  -9047838.12347  22269064.9104   22269066.5914   22269064.956
        47.0004         42.0004
 -22873756.31149 -17783537.02048  20515152.0744   20515156.8984   20515151.446
        56.0004         52.0004
  -2119784.38047  -1639045.13846  23378308.3094   23378310.6294   23378309.154
        46.0004         41.0004
 15  1  8  0  6 30.0000000  0  8G02G12G05G15G18G21G24G13
   5954229.60647   4648563.58646  25366880.9644   25366884.0414   25366880.881
        42.0004         37.0004
  -6650169.75747  -5175685.38246  23633835.0584   23633837.5594   23633835.224
        45.0004         41.0004
 -12014284.44148  -9357830.39447  22036327.1754   22036329.3254   22036326.354
        52.0004         47.0004
 -18746722.62648 -14568118.29448  21741480.0264   21741482.2484   21741479.726
        53.0004         49.0004
  -4256320.74047  -3279440.15046  23536708.4984   23536708.3764   23536707.623
        43.0004         39.0004
 -11680265.69147  -9066820.10047  22264429.5424   22264431.2234   22264429.004
        47.0004         43.0004
 -22897147.60649 -17801763.98148  20510701.2264   20510705.7154   20510700.683
        56.0004         52.0004
  -2069609.05947  -1599947.47146  23387857.6164   23387858.6644   23387856.421
        46.0004         41.0004
 15  1  8  0  7  0.0000000  0  8G02G12G05G15G18G21G24G13
   6049985.04347   4723178.28046  25385104.4134   25385106.6834   25385104.447
        42.0004         37.0004
  -6733865.64247  -5240902.91646  23617908.6304   23617911.6584   23617909.284
        46.0004         41.0004
 -11965275.98948  -9319641.98847  22045653.2014   22045655.3364   22045653.097
        52.0004         47.0004
 -18745206.96748 -14566937.26048  21741769.0604   21741770.5604   21741768.222
        53.0004         49.0004
  -4348211.77747  -3351043.54146  23519221.5274   23519223.5034   23519221.402
        43.0004         39.0004
 -11704081.70147  -9085378.01547  22259896.7674   22259899.2504   22259897.302
        47.0004         43.0004
 -22920044.34849 -17819605.57648  20506343.7424   20506348.4454   20506343.244
        56.0004         52.0004
  -2019529.55847  -1560924.48646  23397385.8884   23397389.8984   23397386.419
        46.0004         41.0004
 15  1  8  0  7 30.0000000  0  8G02G12G05G15G18G21G24G13
   6145589.05547   4797674.99046  25403294.9254   25403298.4184   25403298.021
        42.0004         37.0004
  -6817613.84247  -5306161.21746  23601971.9034   23601974.6624   23601972.460
        46.0004         41.0004
 -11915893.01748  -9281161.74847  22055050.7014   22055052.1674   22055049.516
        52.0004         47.0004
 -18743679.90648 -14565747.33348  21742059.2554   21742060.9054   21742058.983
        53.0004         48.0004
  -4440090.79347  -3422637.57346  23501737.6274   23501739.7444   23501738.494
        44.0004         39.0004
 -11727351.76148  -9103510.52647  22255469.2924   22255469.9734   22255468.980
        48.0004         44.0004
 -22942445.08949 -17837060.67748  20502080.9324   20502085.8604   20502080.397
        56.0004         52.0004
  -1969544.57547  -1521975.15046  23406898.1514   23406899.9754   23406898.168
        46.0004         41.0004
 15  1  8  0  8  0.0000000  0  8G02G12G05G15G18G21G24G13
   6241041.75347   4872053.80546  25421464.5634   25421463.7374   25421462.079
        42.0004         37.0004
  -6901409.98447  -5371456.86946  23586025.3934   23586028.9584   23586025.049
        46.0004         41.0004
 -11866133.42148  -9242388.04347  22064519.2144   22064521.7344   22064518.492
        52.0004         47.0004
 -18742139.77648 -14564547.23148  21742352.5474   21742354.3094   21742351.872
        53.0004         48.0004
  -4531954.28647  -3494219.52646  23484255.4894   23484258.7844   23484257.138
        44.0004         39.0004
 -11750074.17848  -9121216.31647  22251144.5284   22251147.2764   22251145.131
        49.0004         45.0004
 -22964347.90149 -17854127.79148  20497913.3884   20497917.7294   20497912.526
        56.0004         52.0004
  -1919652.21447  -1483097.99446  23416392.7114   23416394.9194   23416392.614
        46.0004         41.0004
 15  1  8  0  8 30.0000000  0  8G02G12G05G15G18G21G24G13
   6336340.23546   4946312.46646  25439594.0984   25439600.2594   25439596.462
        41.0004         37.0004
  -6985252.60147  -5436788.73547  23570070.5174   23570073.4364   23570070.385
        46.0004         42.0004
 -11815999.02548  -9203322.29047  22074059.1754   22074061.7144   22074058.531
        52.0004         47.0004
 -18740588.69748 -14563338.59448  21742647.7454   21742649.3304   21742647.010
        53.0004         49.0004
  -4623801.83347  -3565789.03846  23466778.8804   23466779.3664   23466778.334
        44.0004         39.0004
 -11772249.83948  -9138496.05947  22246925.4794   22246927.2904   22246925.399
        49.0004         45.0004
 -22985754.72449 -17870808.42148  20493839.3724   20493844.2114   20493838.731
        56.0004         52.0004
  -1869854.25047  -1444294.40046  23425870.6124   23425871.5954   23425869.567
        46.0004         41.0004
 15  1  8  0  9  0.0000000  0  8G02G12G05G15G18G21G24G13
   6431479.57146   5020447.11946  25457697.7134   25457701.0534   25457698.494
        41.0004         36.0004
  -7069142.20147  -5502157.21147  23554107.7084   23554110.9624   23554107.167
        46.0004         42.0004
 -11765492.35248  -9163966.45547  22083670.5714   22083672.7574   22083670.123
        52.0004         47.0004
 -18739029.29048 -14562123.46448  21742943.9474   21742946.7534   21742943.681
        53.0004         49.0004
  -4715634.23347  -3637346.75246  23449302.4784   23449304.7564   23449303.610
        44.0004         40.0004
 -11793881.35448  -9155351.79247  22242808.4194   22242811.4704   22242808.876
        50.0004         45.0004
 -23006668.56849 -17887104.90848  20489859.8314   20489864.5274   20489859.317
        56.0004         52.0004
  -1820153.47747  -1405566.51946  23435326.8694   23435328.0224   23435326.168
        46.0004         41.0004
 15  1  8  0  9 30.0000000  0  8G02G12G05G15G18G21G24G13
   6526462.10346   5094459.59646  25475773.3914   25475778.7754   25475774.675
        41.0004         36.0004
  -7153071.60747  -5567556.70547  23538136.9884   23538139.6024   23538136.378
        47.0004         42.0004
 -11714609.46248  -9124317.45447  22093353.3644   22093355.7814   22093353.254
        52.0004         47.0004
 -18737458.07748 -14560899.13748  21743243.4054   21743245.0374   21743242.960
        53.0004         49.0004
  -4807445.69747  -3708888.14446  23431832.3144   23431834.0154   23431832.395
        44.0004         40.0004
 -11814964.84148  -9171780.47947  22238796.7084   22238798.7234   22238797.222
        50.0004         46.0004
 -23027085.01849 -17903013.81248  20485974.6614   20485979.3734   20485973.985
        56.0004         52.0004
  -1770545.93147  -1366911.29446  23444766.9874   23444768.3674   23444766.050
        46.0004         41.0004
 15  1  8  0 10  0.0000000  0  8G02G12G05G15G18G21G24G13
   6621285.04946   5168347.72046  25493820.7864   25493821.5344   25493817.896
        40.0004         36.0004
  -7237038.35247  -5632985.29347  23522158.1594   23522161.7974   23522158.509
        47.0004         42.0004
 -11663350.95548  -9084375.77247  22103107.5854   22103109.6044   22103107.715
        52.0004         47.0004
 -18735875.91548 -14559666.27348  21743544.2954   21743546.5854   21743543.467
        53.0004         48.0004
  -4899234.75047  -3780412.07346  23414365.3124   23414367.2814   23414365.211
        45.0004         40.0004
 -11835500.58448  -9187782.35547  22234889.0914   22234890.4344   22234889.040
        51.0004         46.0004
 -23047005.36749 -17918536.14948  20482184.0184   20482188.8184   20482183.387
        56.0004         52.0004
  -1721032.15447  -1328329.12546  23454188.8594   23454190.2474   23454187.965
        46.0004         41.0004
 15  1  8  0 10 30.0000000  0  8G02G12G05G15G18G21G24G13
   6715945.33446   5242109.11546  25511831.0114   25511832.5044   25511830.933
        40.0004         36.0004
  -7321041.35047  -5698442.12947  23506173.5784   23506176.0864   23506173.480
        47.0004         42.0004
 -11611718.06648  -9044142.36347  22112933.4434   22112934.9664   22112932.644
        52.0004         47.0004
 -18734284.31548 -14558426.06548  21743846.9634   21743848.8374   21743846.562
        53.0004         48.0004
  -4991000.93247  -3851918.17946  23396902.4044   23396904.6754   23396902.265
        45.0004         40.0004
 -11855489.84848  -9203358.41847  22231085.1634   22231087.2074   22231085.480
        51.0004         46.0004
 -23066430.77949 -17933672.81848  20478487.7944   20478492.2894   20478487.059
        57.0004         52.0004
  -1671613.44147  -1289821.04546  23463594.2124   23463593.7624   23463593.208
        46.0004         41.0004
 15  1  8  0 11  0.0000000  0  8G02G12G05G15G18G21G24G13
   6810442.56446   5315743.42146  25529813.2704   25529814.6804   25529815.782
        40.0004         36.0004
  -7405076.62547  -5763924.11147  23490181.3844   23490185.1374   23490181.209
        47.0004         42.0004
 -11559709.63348  -9003616.31947  22122829.6984   22122831.9934   22122829.373
        52.0004         47.0004
 -18732682.32048 -14557177.74748  21744151.8394   21744154.3274   21744151.474
        53.0004         49.0004
  -5082740.92147  -3923403.87746  23379444.0694   23379446.3114   23379444.997
        44.0004         40.0004
 -11874931.08748  -9218507.43047  22227385.7334   22227387.2114   22227385.892
        51.0004         46.0004
 -23085360.63649 -17948423.33848  20474885.3074   20474889.9724   20474884.714
        57.0004         52.0004
  -1622288.46947  -1251385.99446  23472978.6444   23472981.2424   23472979.102
        46.0004         41.0004
 15  1  8  0 11 30.0000000  0  7G12G05G15G18G21G24G13
  -7489140.49047  -5829428.37347  23474184.6734   23474187.4514   23474183.986
        47.0004         42.0004
 -11507325.24448  -8962797.32147  22132798.1334   22132800.7844   22132797.679
        51.0004         47.0004
 -18731069.32748 -14555920.86848  21744458.6214   21744461.1084   21744458.081
        53.0004         48.0004
  -5174452.12147  -3994867.12946  23361991.6834   23361995.6194   23361992.924
        44.0004         40.0004
 -11893823.81948  -9233229.02747  22223790.6834   22223792.1434   22223790.846
        51.0004         46.0004
 -23103793.98349 -17962786.96648  20471377.5064   20471382.3724   20471376.944
        57.0004         52.0004
  -1573056.81247  -1213023.66346  23482347.2944   23482348.9374   23482347.208
        46.0004         41.0004
 15  1  8  0 12  0.0000000  0  7G12G05G15G18G21G24G13
  -7573234.06447  -5894955.79647  23458181.7114   23458185.1254   23458181.836
        47.0004         42.0004
 -11454568.43848  -8921688.12547  22142837.6444   22142840.1004   22142837.298
        52.0004         47.0004
 -18729449.30348 -14554658.50748  21744767.5914   21744769.5474   21744767.266
        53.0004         49.0004
  -5266136.39047  -4066309.38746  23344545.8354   23344549.5404   23344545.836
        44.0004         40.0004
 -11912171.45348  -9247525.86347  22220298.1934   22220300.5824   22220298.943
        50.0004         45.0004
 -23121735.49949 -17976767.35248  20467963.4604   20467968.1474   20467962.907
        57.0004         52.0004
  -1523921.84147  -1174736.67446  23491698.4294   23491698.9454   23491696.118
        46.0004         41.0004
 15  1  8  0 12 30.0000000  0  7G12G05G15G18G21G24G13
  -7657353.84147  -5960503.61846  23442173.2294   23442177.7934   23442171.958
        46.0004         41.0004
 -11401438.38048  -8880288.08147  22152947.8914   22152950.2694   22152947.162
        51.0004         47.0004
 -18727821.91748 -14553390.40048  21745076.9704   21745078.9454   21745076.237
        53.0004         48.0004
  -5357791.00947  -4137728.55446  23327104.8614   23327106.7684   23327105.006
        44.0004         40.0004
 -11929973.21348  -9261397.35347  22216911.3964   22216913.3854   22216911.688
        50.0004         45.0004
 -23139183.86149 -17990363.46048  20464642.8364   20464647.5404   20464642.399
        56.0004         52.0004
  -1474882.96847  -1136524.57546  23501030.3004   23501031.4254   23501028.785
        46.0004         41.0004
 15  1  8  0 13  0.0000000  0  7G12G05G15G18G21G24G13
  -7741495.40547  -6026068.43546  23426161.6974   23426166.1974   23426162.285
        46.0004         41.0004
 -11347934.30548  -8838596.60747  22163129.2584   22163131.7204   22163129.146
        51.0004         47.0004
 -18726186.47448 -14552116.02148  21745388.3104   21745390.6094   21745387.904
        53.0004         49.0004
  -5449413.16047  -4209122.42246  23309670.1574   23309671.6094   23309670.515
        44.0004         40.0004
 -11947228.44748  -9274842.95847  22213627.7784   22213630.0694   22213627.871
        49.0004         44.0004
 -23156139.14149 -18003575.35748  20461416.2944   20461421.0734   20461415.647
        56.0004         52.0004
  -1425939.18047  -1098386.56546  23510341.9424   23510344.9574   23510343.080
        46.0004         41.0004
 15  1  8  0 13 30.0000000  0  7G12G05G15G18G21G24G13
  -7825655.88747  -6091647.99146  23410146.6294   23410151.0024   23410146.970
        46.0004         41.0004
 -11294056.15848  -8796613.63747  22173382.2144   22173384.1904   22173381.731
        51.0004         47.0004
 -18724542.44948 -14550834.95248  21745701.2994   21745702.6534   21745701.132
        53.0004         49.0004
  -5541000.02747  -4280488.80446  23292241.6054   23292242.8854   23292242.080
        44.0004         40.0004
 -11963936.40748  -9287862.12747  22210448.9244   22210451.4694   22210448.500
        49.0004         44.0004
 -23172601.29049 -18016402.97948  20458283.8544   20458288.5564   20458283.480
        56.0004         52.0004
  -1377089.82847  -1060322.13546  23519639.9624   23519640.7664   23519639.590
        46.0004         41.0004
 15  1  8  0 14  0.0000000  0  7G12G05G15G18G21G24G13
  -7909829.93247  -6157238.10947  23394128.7174   23394131.6944   23394129.335
        46.0004         42.0004
 -11239801.35248  -8754337.17747  22183706.6574   22183708.4394   22183706.193
        51.0004         47.0004
 -18722887.31848 -14549545.22648  21746015.9734   21746018.3144   21746015.417
        53.0004         49.0004
  -5632547.28547  -4351824.32646  23274820.3704   23274822.8664   23274820.947
        44.0004         40.0004
 -11980094.80948  -9300453.08647  22207372.3674   22207376.7034   22207373.690
        49.0004         44.0004
 -23188567.73049 -18028844.34648  20455245.4684   20455250.2064   20455244.829
        56.0004         52.0004
  -1328332.48047  -1022329.40546  23528917.8874   23528918.4684   23528916.583
        46.0004         41.0004
 15  1  8  0 14 30.0000000  0  7G12G05G15G18G21G24G13
  -7994019.61747  -6222840.42647  23378108.7274   23378111.3554   23378108.255
        46.0004         42.0004
 -11185175.17748  -8711771.32847  22194101.2134   22194103.8054   22194101.053
        51.0004         46.0004
 -18721226.57048 -14548251.13748  21746332.1524   21746333.9564   21746331.782
        53.0004         49.0004
  -5724058.04147  -4423131.40146  23257405.7474   23257408.5094   23257407.468
        45.0004         40.0004
 -11995708.95748  -9312619.96947  22204403.5974   22204404.2214   22204403.008
        49.0004         44.0004
 -23204043.88449 -18040903.67048  20452300.3474   20452305.1834   20452299.992
        56.0004         52.0004
  -1279672.25247   -984412.35546  23538176.2104   23538178.1814   23538177.325
        46.0004         41.0004
 15  1  8  0 15  0.0000000  0  7G12G05G15G18G21G24G13
  -8078220.50847  -6288451.47247  23362085.6154   23362088.5274   23362084.314
        46.0004         42.0004
 -11130176.30648  -8668915.06947  22204567.3274   22204568.8854   22204566.334
        51.0004         46.0004
 -18719558.96748 -14546951.69048  21746649.6104   21746651.3954   21746649.301
        53.0004         49.0004
  -5815528.68547  -4494407.21746  23240000.7434   23240003.5454   23240001.718
        45.0004         40.0004
 -12010777.25648  -9324361.51747  22201534.2394   22201537.8594   22201535.508
        49.0004         45.0004
 -23219028.96449 -18052580.34148  20449448.9124   20449453.5634   20449448.237
        56.0004         52.0004
  -1231107.19547   -946569.45746  23547418.0684   23547420.1784   23547418.612
        46.0004         41.0004
 15  1  8  0 15 30.0000000  0  7G12G05G15G18G21G24G13
  -8162427.74247  -6354067.45247  23346062.1974   23346063.8344   23346061.218
        47.0004         42.0004
 -11074802.71148  -8625766.81947  22215104.5174   22215106.2764   22215103.636
        51.0004         46.0004
 -18717882.38748 -14545645.26048  21746968.0324   21746969.9664   21746967.615
        53.0004         49.0004
  -5906955.34247  -4565648.76246  23222602.7724   23222604.9254   23222603.244
        45.0004         40.0004
 -12025297.99348  -9335676.44447  22198771.4304   22198773.8334   22198771.887
        49.0004         45.0004
 -23233521.38049 -18063873.11248  20446690.9604   20446695.6334   20446690.599
        56.0004         52.0004
  -1182635.41647   -908799.25546  23556643.0144   23556644.0594   23556642.724
        46.0004         41.0004
 15  1  8  0 16  0.0000000  0  7G12G05G15G18G21G24G13
  -8246642.51547  -6419689.31847  23330036.4154   23330038.6694   23330035.683
        47.0004         42.0004
 -11019058.22248  -8582329.55647  22225712.0324   22225714.2524   22225711.528
        51.0004         46.0004
 -18716200.91448 -14544335.01248  21747288.5024   21747290.6264   21747288.298
        53.0004         49.0004
  -5998339.61047  -4636857.27346  23205213.1154   23205213.3214   23205213.271
        45.0004         40.0004
 -12039274.77048  -9346567.41147  22196112.5594   22196114.3314   22196112.511
        50.0004         45.0004
 -23247524.75249 -18074784.81848  20444026.2504   20444030.7084   20444025.883
        56.0004         52.0004
  -1134260.45747   -871104.47346  23565847.5524   23565849.9064   23565846.865
        46.0004         41.0004
 15  1  8  0 16 30.0000000  0  7G12G05G15G18G21G24G13
  -8330859.16947  -6485312.65447  23314010.4174   23314012.2764   23314010.625
        47.0004         42.0004
 -10962940.62848  -8538601.56747  22236391.1184   22236393.7434   22236390.763
        51.0004         46.0004
 -18714512.20148 -14543019.12248  21747609.9824   21747611.3754   21747609.296
        53.0004         49.0004
  -6089676.63447  -4708028.97746  23187831.7794   23187834.4284   23187832.302
        45.0004         40.0004
 -12052705.41048  -9357032.85447  22193555.8894   22193557.9074   22193556.226
        50.0004         45.0004
 -23261037.73249 -18085314.39548  20441454.8724   20441459.4964   20441454.558
        57.0004         52.0004
  -1085979.86447   -833483.25746  23575035.5974   23575036.3944   23575035.662
        46.0004         41.0004
 15  1  8  0 17  0.0000000  0  7G12G05G15G18G21G24G13
  -8415076.06747  -6550936.18947  23297985.5764   23297985.9904   23297985.006
        47.0004         42.0004
 -10906451.56848  -8494584.12847  22247140.9184   22247143.0344   22247139.940
        51.0004         46.0004
 -18712817.32048 -14541698.42648  21747932.1374   21747934.6784   21747931.835
        53.0004         49.0004
  -6180965.95247  -4779163.49746  23170460.3644   23170461.1304   23170460.505
        45.0004         41.0004
 -12065591.81948  -9367074.19947  22191103.1204   22191106.4204   22191104.062
        50.0004         45.0004
 -23274061.28449 -18095462.59748  20438976.4324   20438981.2364   20438975.770
        57.0004         52.0004
  -1037794.64447   -795936.32046  23584204.5844   23584207.0044   23584204.585
        46.0004         41.0004
 15  1  8  0 17 30.0000000  0  7G12G05G15G18G21G24G13
  -8499284.37947  -6616553.02147  23281960.8114   23281961.7864   23281960.761
        47.0004         42.0004
 -10849585.60648  -8450273.00347  22257962.0904   22257964.2724   22257961.462
        51.0004         46.0004
 -18711110.81048 -14540368.67148  21748257.4614   21748258.4524   21748256.808
        53.0004         49.0004
  -6272200.02247  -4850254.96746  23153098.8654   23153100.9484   23153099.062
        45.0004         41.0004
 -12077928.07848  -9376686.83647  22188756.8414   22188757.9844   22188756.665
        49.0004         45.0004
 -23286590.68649 -18105225.75748  20436591.9384   20436596.9484   20436591.294
        57.0004         52.0004
   -989698.84847   -758459.10146  23593356.7774   23593358.6244   23593357.168
        46.0004         41.0004
 15  1  8  0 18  0.0000000  0  7G12G05G15G18G21G24G13
  -8583494.30647  -6682171.10547  23265935.1974   23265937.4314   23265935.374
        47.0004         42.0004
 -10792355.80648  -8405678.35647  22268852.6264   22268855.0674   22268851.914
        51.0004         46.0004
 -18709405.83748 -14539040.10548  21748581.4334   21748583.2874   21748581.031
        53.0004         49.0004
  -6363389.00147  -4921311.28946  23135744.8744   23135748.4044   23135746.231
        46.0004         41.0004
 -12089727.35348  -9385881.03147  22186510.2164   22186513.1774   22186511.418
        49.0004         45.0004
 -23298639.36949 -18114614.32448  20434299.2274   20434304.0574   20434298.929
        57.0004         52.0004
   -941705.49547   -721061.68046  23602489.2694   23602491.4564   23602489.577
        46.0004         41.0004
 15  1  8  0 18 30.0000000  0  7G12G05G15G18G21G24G13
  -8667688.56347  -6747776.98747  23249914.3544   23249914.4964   23249914.665
        47.0004         42.0004
 -10734748.11248  -8360789.25047  22279814.7424   22279816.8724   22279814.996
        51.0004         46.0004
 -18707687.85148 -14537701.40648  21748908.2614   21748910.5854   21748907.911
        53.0004         49.0004
  -6454517.08347  -4992320.15846  23118405.1974   23118407.7094   23118405.162
        46.0004         41.0004
 -12100975.50548  -9394645.83047  22184369.8904   22184372.8974   22184370.791
        50.0004         45.0004
 -23310193.79049 -18123617.75348  20432100.7794   20432105.3644   20432099.956
        57.0004         52.0004
   -893799.71647   -683732.52446  23611606.7204   23611608.7904   23611606.127
        46.0004         41.0004
 15  1  8  0 19  0.0000000  0  7G12G05G15G18G21G24G13
  -8751872.08647  -6813374.49447  23233894.4844   23233896.2734   23233894.784
        47.0004         42.0004
 -10676770.33748  -8315611.76147  22290848.0874   22290849.5244   22290847.114
        51.0004         46.0004
 -18705964.93848 -14536358.86848  21749236.0864   21749238.6224   21749235.507
        53.0004         49.0004
  -6545589.54747  -5063285.69046  23101074.3114   23101076.3774   23101074.410
        46.0004         41.0004
 -12111680.88348  -9402987.70547  22182334.0694   22182336.2224   22182333.576
        49.0004         45.0004
 -23321261.64749 -18132242.04948  20429994.6154   20429999.0264   20429994.112
        57.0004         52.0004
   -845989.34347   -646477.67646  23620704.0814   23620705.7334   23620703.487
        46.0004         41.0004
 15  1  8  0 19 30.0000000  0  7G12G05G15G18G21G24G13
  -8836044.33347  -6878963.21847  23217876.7084   23217876.9834   23217876.061
        47.0004         42.0004
 -10618425.31348  -8270148.11647  22301950.6364   22301952.3024   22301949.743
        51.0004         46.0004
 -18704239.12348 -14535014.06348  21749564.6744   21749566.8314   21749564.625
        53.0004         49.0004
  -6636606.86047  -5134208.25846  23083754.3544   23083755.8934   23083755.396
        46.0004         41.0004
 -12121845.71048  -9410908.36447  22180398.5204   22180400.4704   22180399.325
        49.0004         44.0004
 -23331846.14949 -18140489.69648  20427980.4564   20427985.0014   20427979.855
        57.0004         52.0004
   -798276.30547   -609298.71746  23629783.4614   23629785.6714   23629783.574
        46.0004         41.0004
 15  1  8  0 20  0.0000000  0  7G12G05G15G18G21G24G13
  -8920197.63147  -6944537.17947  23201862.9964   23201864.4194   23201862.594
        47.0004         43.0004
 -10559708.91248  -8224395.08747  22313123.8634   22313125.2444   22313123.038
        51.0004         46.0004
 -18702506.23748 -14533663.74948  21749894.2624   21749896.2594   21749893.459
        53.0004         49.0004
  -6727562.32447  -5205082.64446  23066445.9324   23066447.7644   23066447.470
        46.0004         41.0004
 -12131466.39448  -9418405.00547  22178568.5964   22178570.0154   22178568.312
        49.0004         44.0004
 -23341943.54749 -18148357.77448  20426059.1454   20426063.7334   20426058.410
        57.0004         52.0004
   -750656.22347   -572192.15246  23638845.2534   23638847.7674   23638845.891
        45.0004         41.0004
 15  1  8  0 20 30.0000000  0  7G12G05G15G18G21G24G13
  -9004331.04047  -7010095.62247  23185852.1524   23185854.4924   23185852.738
        47.0004         43.0004
 -10500623.42248  -8178354.46147  22324367.1854   22324368.8634   22324366.733
        50.0004         46.0004
 -18700768.42348 -14532309.60848  21750224.9394   21750227.5454   21750224.971
        53.0004         49.0004
  -6818455.83247  -5275908.75646  23049149.4224   23049152.3454   23049150.048
        45.0004         41.0004
 -12140544.92448  -9425479.18647  22176841.3334   22176842.7894   22176840.969
        49.0004         44.0004
 -23351556.24149 -18155848.17348  20424229.4924   20424234.1944   20424229.022
        57.0004         52.0004
   -703130.98547   -535159.52946  23647889.6004   23647891.4444   23647889.837
        45.0004         41.0004
 15  1  8  0 21  0.0000000  0  7G12G05G15G18G21G24G13
  -9088437.38347  -7075632.98747  23169848.4754   23169849.0934   23169847.062
        47.0004         43.0004
 -10441164.73048  -8132023.01647  22335681.5674   22335684.4294   22335681.193
        50.0004         46.0004
 -18699020.91848 -14530947.90048  21750557.6964   21750559.4824   21750557.007
        53.0004         49.0004
  -6909280.76347  -5346681.42646  23031864.8484   23031868.1554   23031866.863
        45.0004         41.0004
 -12149077.48448  -9432127.92747  22175217.3534   22175218.7354   22175217.271
        49.0004         45.0004
 -23360680.34449 -18162957.84948  20422492.9974   20422497.8274   20422492.503
        57.0004         52.0004
   -655695.55047   -498196.84446  23656915.5244   23656918.0234   23656914.359
        45.0004         41.0004
 15  1  8  0 21 30.0000000  0  7G12G05G15G18G21G24G13
  -9172520.18147  -7141152.01347  23153847.6504   23153850.2134   23153846.787
        47.0004         43.0004
 -10381339.45848  -8085405.93547  22347066.0984   22347068.4444   22347065.572
        50.0004         46.0004
 -18697270.66448 -14529584.06148  21750890.7644   21750892.8084   21750890.020
        53.0004         49.0004
  -7000041.46647  -5417404.04046  23014594.9824   23014596.7764   23014595.698
        45.0004         41.0004
 -12157070.99748  -9438356.63047  22173695.8934   22173698.0244   22173696.259
        49.0004         45.0004
 -23369323.33549 -18169692.63448  20420848.4554   20420853.2784   20420847.731
        57.0004         52.0004
   -608356.24547   -461309.07746  23665924.6764   23665925.9044   23665923.031
        45.0004         41.0004
 15  1  8  0 22  0.0000000  0  7G12G05G15G18G21G24G13
  -9256573.31948  -7206647.92847  23137852.5044   23137853.3954   23137851.535
        48.0004         43.0004
 -10321145.71848  -8038501.72347  22358521.2394   22358522.4884   22358520.889
        50.0004         46.0004
 -18695514.69248 -14528215.76948  21751225.2084   21751226.5814   21751224.501
        53.0004         48.0004
  -7090732.81947  -5488072.62946  22997337.1884   22997337.1454   22997337.172
        45.0004         41.0004
 -12164522.86848  -9444163.27147  22172277.7314   22172279.8084   22172278.394
        50.0004         45.0004
 -23377482.91149 -18176050.72748  20419295.8074   20419300.5334   20419295.184
        57.0004         52.0004
   -561110.15147   -424493.95446  23674914.6294   23674915.9554   23674913.952
        45.0004         40.0004
 15  1  8  0 22 30.0000000  0  8G12G05G15G18G21G24G25G13
  -9340596.21648  -7272120.28347  23121864.1744   23121865.9014   23121862.926
        48.0004         43.0004
 -10260585.81348  -7991312.19647  22370044.9374   22370047.4114   22370043.866
        50.0004         46.0004
 -18693755.52548 -14526844.97548  21751559.6664   21751561.3924   21751559.085
        53.0004         49.0004
  -7181355.49347  -5558687.68546  22980092.1914   22980092.3464   22980092.314
        45.0004         40.0004
 -12171436.10348  -9449550.20347  22170962.6344   22170964.4924   22170962.872
        50.0004         45.0004
 -23385162.02749 -18182034.44248  20417834.5554   20417838.9774   20417834.144
        57.0004         52.0004
  -1010425.69548   -745351.51345  25294764.3534   25294772.1594   25294766.491
        48.0004         35.0004
   -513959.24147   -387753.00146  23683887.2784   23683887.8164   23683887.937
        45.0004         40.0004
 15  1  8  0 23  0.0000000  0  8G12G05G15G18G21G24G25G13
  -9424581.38248  -7337563.23047  23105881.6024   23105884.3274   23105881.218
        48.0004         43.0004
 -10199655.17048  -7943833.77947  22381639.7534   22381642.0474   22381640.045
        51.0004         46.0004
 -18691987.88948 -14525467.59648  21751895.2574   21751897.4144   21751895.378
        53.0004         48.0004
  -7271902.00947  -5629243.40146  22962860.8534   22962862.1794   22962861.894
        45.0004         40.0004
 -12177806.38848  -9454514.06347  22169749.9074   22169752.4324   22169750.034
        49.0004         45.0004
 -23392356.97449 -18187640.88048  20416465.4954   20416469.9164   20416464.959
        57.0004         52.0004
  -1100787.69947   -815763.53445  25277570.2894   25277574.9384   25277571.999
        43.0004         35.0004
   -466898.67247   -351082.42946  23692843.1604   23692844.5584   23692843.094
        45.0004         41.0004
 15  1  8  0 23 30.0000000  0  8G12G05G15G18G21G24G25G13
  -9508532.37848  -7402979.55147  23089905.2844   23089908.1974   23089905.856
        48.0004         43.0004
 -10138361.36348  -7896072.37847  22393304.0944   22393305.8244   22393303.336
        51.0004         46.0004
 -18690218.56948 -14524088.89948  21752233.1134   21752235.0684   21752232.239
        53.0004         48.0004
  -7362377.30947  -5699743.62646  22945645.2974   22945645.5804   22945645.268
        45.0004         40.0004
 -12183640.38548  -9459060.04247  22168639.3334   22168642.2154   22168640.108
        49.0004         44.0004
 -23399075.12349 -18192875.78748  20415187.0064   20415191.5784   20415186.599
        57.0004         52.0004
  -1191357.51946   -886337.49445  25260336.6864   25260339.2284   25260337.441
        40.0004         34.0004
   -419934.70747   -314487.13346  23701780.1104   23701781.7624   23701779.150
        45.0004         40.0004
 15  1  8  0 24  0.0000000  0  8G12G05G15G18G21G24G25G13
  -9592438.62648  -7468361.01447  23073939.6814   23073941.5614   23073939.054
        48.0004         43.0004
 -10076697.47648  -7848022.60247  22405037.7724   22405040.3744   22405037.488
        51.0004         46.0004
 -18688440.35748 -14522703.28048  21752570.3784   21752572.7894   21752569.758
        53.0004         48.0004
  -7452771.45247  -5770180.61846  22928445.8944   22928445.7244   22928444.664
        45.0004         41.0004
 -12188932.11348  -9463183.47447  22167632.8784   22167635.2574   22167633.173
        49.0004         45.0004
 -23405309.22649 -18197733.51648  20414000.9804   20414005.5014   20414000.317
        57.0004         52.0004
  -1282125.71846   -957066.04345  25243065.3954   25243067.9614   25243065.358
        39.0004         33.0004
   -373059.92047   -277961.33346  23710699.9444   23710702.1684   23710698.424
        45.0004         40.0004
 15  1  8  0 24 30.0000000  0  7G12G05G15G18G21G24G13
  -9676305.66348  -7533711.92147  23057980.0904   23057983.3244   23057980.215
        48.0004         44.0004
 -10014671.66348  -7799690.81947  22416841.1934   22416843.7494   22416841.197
        51.0004         46.0004
 -18686661.48048 -14521317.14148  21752909.2764   21752911.0544   21752909.000
        53.0004         48.0004
  -7543090.51047  -5840559.11046  22911258.0114   22911257.9864   22911257.597
        46.0004         41.0004
 -12193690.10348  -9466891.00147  22166728.3284   22166730.1194   22166727.843
        50.0004         45.0004
 -23411068.46349 -18202221.21748  20412904.7554   20412909.4444   20412904.193
        57.0004         52.0004
   -326281.97047   -241510.99846  23719601.9204   23719603.3664   23719601.574
        45.0004         40.0004
 15  1  8  0 25  0.0000000  0  7G12G05G15G18G21G24G13
  -9760121.82248  -7599023.16047  23042030.5234   23042032.4494   23042030.618
        48.0004         44.0004
  -9952275.65248  -7751070.55247  22428713.9234   22428717.1894   22428712.765
        50.0004         46.0004
 -18684872.62748 -14519923.23448  21753249.4704   21753251.5894   21753248.740
        53.0004         48.0004
  -7633323.47047  -5910870.49346  22894085.5974   22894087.6774   22894086.602
        46.0004         41.0004
 -12197905.86748  -9470176.00547  22165925.6924   22165927.7064   22165925.920
        50.0004         45.0004
 -23416344.80749 -18206332.64348  20411900.8744   20411905.2674   20411899.857
        57.0004         52.0004
   -279591.63247   -205128.91546  23728485.6974   23728487.3894   23728486.352
        45.0004         41.0004
 15  1  8  0 25 30.0000000  0  7G12G05G15G18G21G24G13
  -9843889.47648  -7664296.62647  23026090.6334   23026091.6894   23026090.902
        48.0004         44.0004
  -9889515.87248  -7702166.85047  22440656.9374   22440659.1044   22440656.765
        50.0004         46.0004
 -18683079.73148 -14518526.16748  21753591.1564   21753592.7574   21753590.615
        53.0004         49.0004
  -7723474.03947  -5981117.67946  22876930.6534   22876931.3304   22876931.122
        46.0004         41.0004
 -12201586.18048  -9473043.77147  22165225.1674   22165226.8674   22165225.582
        50.0004         45.0004
 -23421145.32449 -18210073.29548  20410986.9634   20410991.5154   20410986.629
        56.0004         52.0004
   -232994.58247   -168819.54046  23737353.3524   23737355.1234   23737353.135
        45.0004         41.0004
 15  1  8  0 26  0.0000000  0  7G12G05G15G18G21G24G13
  -9927607.05648  -7729531.06947  23010159.8204   23010161.2514   23010159.922
        48.0004         44.0004
  -9826394.39948  -7652981.29347  22452668.8884   22452671.3644   22452668.071
        50.0004         46.0004
 -18681284.15648 -14517127.01048  21753932.2734   21753934.7104   21753932.075
        53.0004         49.0004
  -7813541.40547  -6051300.02646  22859791.0344   22859792.6144   22859792.015
        46.0004         41.0004
 -12204732.79248  -9475495.67647  22164626.6794   22164628.0424   22164626.830
        50.0004         45.0004
 -23425471.44949 -18213444.28748  20410164.1304   20410168.4734   20410163.360
        56.0004         52.0004
   -186491.72647   -132583.56246  23746202.3364   23746204.3884   23746201.570
        45.0004         40.0004
 15  1  8  0 26 30.0000000  0  7G12G05G15G18G21G24G13
 -10011264.72148  -7794718.82547  22994238.8894   22994241.5564   22994238.412
        48.0004         44.0004
  -9762904.61748  -7603508.74747  22464750.9474   22464753.4724   22464750.382
        50.0004         46.0004
 -18679479.09948 -14515720.46548  21754276.0914   21754278.2924   21754275.574
        53.0004         49.0004
  -7903516.42247  -6121410.42747  22842669.4894   22842670.1144   22842669.543
        46.0004         42.0004
 -12207339.72348  -9477527.05147  22164130.4084   22164132.0084   22164130.537
        50.0004         45.0004
 -23429318.04849 -18216441.62348  20409431.7994   20409436.3984   20409431.064
        57.0004         52.0004
   -140076.22047    -96415.64346  23755035.6764   23755037.4234   23755034.775
        45.0004         40.0004
 15  1  8  0 27  0.0000000  0  7G12G05G15G18G21G24G13
 -10094867.67348  -7859863.96247  22978331.0014   22978331.4264   22978330.002
        48.0004         44.0004
  -9699055.77148  -7553756.41547  22476901.1904   22476902.8904   22476900.503
        51.0004         46.0004
 -18677672.74748 -14514312.91848  21754619.8934   21754621.4674   21754619.374
        53.0004         49.0004
  -7993405.40147  -6191453.77647  22825564.2504   22825564.7584   22825564.181
        46.0004         42.0004
 -12209415.90348  -9479144.87247  22163735.5634   22163736.2564   22163735.792
        50.0004         45.0004
 -23432693.96949 -18219072.20048  20408789.4224   20408793.9774   20408788.958
        57.0004         52.0004
    -93755.94347    -60321.93146  23763848.8384   23763851.3994   23763848.537
        45.0004         40.0004
 15  1  8  0 27 30.0000000  0  7G12G05G15G18G21G24G13
 -10178406.90248  -7924959.43047  22962433.5064   22962434.1894   22962433.190
        48.0004         43.0004
  -9634841.69548  -7503719.48847  22489120.9904   22489122.9284   22489120.771
        51.0004         46.0004
 -18675858.76748 -14512899.41948  21754964.9384   21754967.0294   21754964.562
        53.0004         48.0004
  -8083199.57147  -6261423.26146  22808476.7354   22808479.2284   22808477.262
        46.0004         41.0004
 -12210955.94448  -9480344.89947  22163442.2894   22163444.0284   22163442.396
        50.0004         45.0004
 -23435594.27949 -18221332.17348  20408237.7364   20408242.2774   20408237.225
        57.0004         52.0004
    -47524.06347    -24297.11446  23772647.2474   23772648.4364   23772647.265
        45.0004         40.0004
 15  1  8  0 28  0.0000000  0  8G12G05G15G18G21G24G25G13
 -10261886.28048  -7990008.26747  22946547.1834   22946548.2104   22946547.865
        48.0004         44.0004
  -9570270.06648  -7453403.94547  22501408.2654   22501409.9994   22501407.860
        51.0004         46.0004
 -18674044.03748 -14511485.34448  21755310.2984   21755312.7574   21755309.444
        53.0004         49.0004
  -8172903.79647  -6331322.66646  22791405.8214   22791409.2024   22791406.972
        46.0004         41.0004
 -12211967.47648  -9481133.09647  22163249.3174   22163251.5454   22163249.499
        50.0004         45.0004
 -23438026.48149 -18223227.38248  20407774.7904   20407779.4244   20407774.282
        57.0004         52.0004
                                                                  25103539.144

     -1387.37847     11653.52646  23781426.4674   23781428.2594   23781426.776
        45.0004         40.0004
 15  1  8  0 28 30.0000000  0  7G12G05G15G18G21G24G13
 -10345292.60648  -8055000.18747  22930675.9284   22930676.9334   22930675.832
        48.0004         44.0004
  -9505331.08148  -7402802.14447  22513765.3584   22513768.5734   22513765.118
        51.0004         46.0004
 -18672218.02748 -14510062.47948  21755658.4144   21755659.9174   21755658.267
        53.0004         49.0004
  -8262505.22647  -6401141.94846  22774355.8294   22774358.7924   22774355.982
        46.0004         41.0004
 -12212441.09448  -9481502.13747  22163159.0104   22163161.8104   22163159.183
        49.0004         45.0004
 -23439980.44349 -18224749.93648  20407403.0574   20407407.4934   20407402.236
        57.0004         52.0004
     44664.78247     47538.32246  23790190.2904   23790191.6254   23790190.515
        45.0004         40.0004
 15  1  8  0 29  0.0000000  0  7G12G05G15G18G21G24G13
 -10428632.40348  -8119940.25547  22914816.9264   22914818.0714   22914816.345
        48.0004         44.0004
  -9440034.90748  -7351922.02447  22526190.4224   22526192.9824   22526189.872
        50.0004         46.0004
 -18670390.17948 -14508638.17748  21756005.6304   21756007.5944   21756004.961
        53.0004         49.0004
  -8352011.21847  -6470886.85147  22757323.7044   22757325.7104   22757323.583
        46.0004         42.0004
 -12212386.83648  -9481459.86647  22163169.2644   22163171.2084   22163169.703
        49.0004         45.0004
 -23441467.72149 -18225908.84148  20407119.8874   20407124.4864   20407119.366
        57.0004         52.0004
     90623.45747     83350.25846  23798936.3254   23798938.3004   23798935.500
        45.0004         40.0004
 15  1  8  0 29 30.0000000  0  7G12G05G15G18G21G24G13
 -10511898.91548  -8184823.22247  22898971.6844   22898974.2664   22898971.177
        48.0004         44.0004
  -9374379.62548  -7300762.08147  22538683.8094   22538687.4294   22538683.321
        50.0004         46.0004
 -18668557.35348 -14507210.00648  21756354.6964   21756356.5774   21756354.063
        53.0004         49.0004
  -8441416.67747  -6540553.43047  22740309.5054   22740312.2854   22740310.339
        46.0004         42.0004
 -12211802.94748  -9481004.89647  22163280.7244   22163283.1744   22163281.295
        50.0004         45.0004
 -23442485.73349 -18226702.08548  20406926.1934   20406930.4604   20406925.819
        57.0004         52.0004
    136491.50247    119091.58346  23807665.3764   23807666.1854   23807663.580
        45.0004         40.0004
 15  1  8  0 30  0.0000000  0  7G12G05G15G18G21G24G13
 -10595086.79848  -8249644.91547  22883142.1604   22883142.8224   22883141.927
        48.0004         44.0004
  -9308362.27748  -7249319.99647  22551247.3044   22551249.7524   22551246.704
        50.0004         45.0004
 -18666716.25348 -14505775.37548  21756705.1214   21756706.8624   21756704.666
        53.0004         49.0004
  -8530716.41447  -6610137.62647  22723316.7814   22723319.3394   22723317.094
        46.0004         42.0004
 -12210686.99848  -9480135.33047  22163493.0204   22163494.7824   22163493.684
        50.0004         45.0004
 -23443032.83649 -18227128.38748  20406822.0554   20406826.3374   20406821.428
        57.0004         52.0004
    182272.78247    154765.28446  23816377.2704   23816377.9684   23816376.986
        45.0004         40.0004
 15  1  8  0 30 30.0000000  0  7G12G05G15G18G21G24G13
 -10678196.15548  -8314405.41447  22867326.1344   22867328.9564   22867325.883
        49.0004         44.0004
  -9241987.27948  -7197599.22047  22563877.9744   22563880.6024   22563876.649
        50.0004         45.0004
 -18664870.30248 -14504336.96648  21757056.3864   21757058.5524   21757056.271
        53.0004         49.0004
  -8619911.60647  -6679640.38447  22706342.5754   22706346.9414   22706343.974
        46.0004         42.0004
 -12209043.52548  -9478854.67947  22163806.2334   22163808.3244   22163806.619
        50.0004         45.0004
 -23443113.28349 -18227191.05848  20406806.8694   20406811.3544   20406806.284
        57.0004         52.0004
    227963.78347    190368.66246  23825070.8834   23825073.8364   23825069.288
        44.0004         40.0004
 15  1  8  0 31  0.0000000  0  7G12G05G15G18G21G24G13
 -10761225.88948  -8379103.87447  22851525.2204   22851528.1964   22851525.129
        49.0004         44.0004
  -9175256.74148  -7145601.40947  22576576.2974   22576578.5314   22576576.751
        50.0004         46.0004
 -18663021.24348 -14502896.13548  21757408.1304   21757409.8634   21757407.714
        53.0004         49.0004
  -8709001.32847  -6749060.93646  22689390.3124   22689391.8554   22689390.203
        46.0004         41.0004
 -12206874.81248  -9477164.78647  22164218.9364   22164221.1854   22164219.302
        50.0004         45.0004
 -23442729.67749 -18226892.13448  20406879.8284   20406884.3414   20406879.159
        57.0004         52.0004
    273563.63447    225901.00646  23833747.8324   23833750.1334   23833746.545
        44.0004         40.0004
 15  1  8  0 31 30.0000000  0  7G12G05G15G18G21G24G13
 -10844169.17448  -8443734.98047  22835741.9254   22835744.4914   22835741.925
        49.0004         44.0004
  -9108168.60448  -7093324.95847  22589343.2194   22589345.1324   22589342.298
        50.0004         46.0004
 -18661165.70648 -14501450.25948  21757761.2574   21757762.8114   21757761.091
        53.0004         49.0004
  -8797980.53447  -6818395.37046  22672457.9694   22672460.3904   22672457.934
        46.0004         41.0004
 -12204179.34448  -9475064.43847  22164731.1624   22164733.2294   22164731.578
        50.0004         45.0004
 -23441880.32049 -18226230.28548  20407041.2434   20407045.8004   20407040.513
        57.0004         52.0004
    319075.51147    261364.80346  23842409.5814   23842411.0504   23842408.038
        44.0004         40.0004
 15  1  8  0 32  0.0000000  0  7G12G05G15G18G21G24G13
 -10927022.82248  -8508296.21547  22819975.2194   22819977.6524   22819975.288
        48.0004         44.0004
  -9040722.31248  -7040769.42647  22602177.5114   22602180.1644   22602177.811
        50.0004         46.0004
 -18659302.65148 -14499998.52148  21758115.8664   21758117.2494   21758115.422
        53.0004         49.0004
  -8886845.83347  -6887641.04347  22655546.5924   22655549.3194   22655547.724
        46.0004         42.0004
 -12200956.47848  -9472553.11247  22165344.1484   22165346.7884   22165344.893
        50.0004         45.0004
 -23440565.10049 -18225205.42848  20407291.7394   20407295.8774   20407291.265
        57.0004         52.0004
    364500.96447    296761.25646  23851053.0874   23851054.9814   23851052.635
        44.0004         40.0004
 15  1  8  0 32 30.0000000  0  7G12G05G15G18G21G24G13
 -11009784.51348  -8572785.81747  22804226.2274   22804229.5554   22804225.603
        48.0004         44.0004
  -8972919.47148  -6987936.05947  22615079.9754   22615082.7944   22615079.811
        50.0004         46.0004
 -18657432.39348 -14498541.17148  21758471.6804   21758473.6954   21758471.103
        53.0004         49.0004
  -8975596.05547  -6956797.06447  22638658.2014   22638660.5354   22638658.392
        47.0004         42.0004
 -12197208.10448  -9469632.30547  22166057.9684   22166059.5054   22166058.480
        49.0004         45.0004
 -23438786.07949 -18223819.16848  20407630.3774   20407634.3424   20407629.629
        57.0004         52.0004
    409839.71547    332090.13546  23859679.7374   23859682.3034   23859679.908
        44.0004         40.0004
 15  1  8  0 33  0.0000000  0  7G12G05G15G18G21G24G13
 -11092455.06548  -8637204.39547  22788494.6254   22788498.8744   22788493.305
        48.0004         44.0004
  -8904764.73348  -6934828.48447  22628049.7444   22628051.6204   22628049.690
        50.0004         45.0004
 -18655559.01648 -14497081.39448  21758827.7254   21758829.7994   21758827.200
        53.0004         48.0004
  -9064232.71747  -7025864.58447  22621791.8934   22621794.2584   22621791.882
        47.0004         42.0004
 -12192939.43648  -9466306.06447  22166870.1044   22166872.6564   22166870.711
        49.0004         45.0004
 -23436548.17449 -18222075.32948  20408056.1034   20408060.5374   20408055.309
        57.0004         52.0004
    455087.95047    367348.48646  23868290.4264   23868292.6694   23868289.840
        44.0004         40.0004
 15  1  8  0 33 30.0000000  0  7G12G05G15G18G21G24G13
 -11175027.04348  -8701546.16147  22772782.0084   22772784.9534   22772780.250
        48.0004         44.0004
  -8836254.09748  -6881443.58047  22641086.0284   22641089.4164   22641085.246
        50.0004         45.0004
 -18653677.53248 -14495615.29748  21759186.2204   21759187.8514   21759185.529
        53.0004         48.0004
  -9152748.68647  -7094838.04847  22604946.8774   22604950.3644   22604948.116
        47.0004         42.0004
 -12188146.66248  -9462571.45247  22167782.3574   22167784.5964   22167782.767
        50.0004         45.0004
 -23433847.96949 -18219971.26348  20408569.8154   20408574.2254   20408569.185
        57.0004         52.0004
    500250.72547    402540.23146  23876886.1594   23876887.7194   23876887.282
        44.0004         40.0004
 15  1  8  0 34  0.0000000  0  7G12G05G15G18G21G24G13
 -11257500.47048  -8765811.12847  22757086.6614   22757090.0864   22757086.630
        48.0004         44.0004
  -8767392.31548  -6827785.05647  22654190.4644   22654193.0404   22654189.448
        50.0004         45.0004
 -18651791.28948 -14494145.49048  21759545.0224   21759546.7164   21759544.596
        53.0004         48.0004
  -9241145.29647  -7163718.50647  22588125.8714   22588128.5204   22588126.695
        47.0004         42.0004
 -12182834.63748  -9458432.20347  22168792.0004   22168794.8944   22168793.232
        49.0004         45.0004
 -23430690.25549 -18217510.69648  20409170.5754   20409174.9574   20409169.987
        57.0004         52.0004
    545325.20047    437663.20346  23885463.4014   23885465.4964   23885461.581
        44.0004         40.0004
 15  1  8  0 34 30.0000000  0  7G12G05G15G18G21G24G13
 -11339866.82548  -8829992.66147  22741412.9364   22741416.8964   22741412.508
        48.0004         44.0004
  -8698175.12748  -6773849.58847  22667361.3384   22667364.4244   22667360.283
        50.0004         45.0004
 -18649895.10348 -14492667.93048  21759905.8634   21759907.2644   21759905.658
        53.0004         48.0004
  -9329415.07247  -7232500.14647  22571328.8594   22571330.5524   22571329.717
        47.0004         42.0004
 -12176999.23548  -9453885.13247  22169903.9034   22169905.5404   22169904.213
        49.0004         45.0004
 -23427070.99849 -18214690.48448  20409859.3364   20409863.6914   20409858.624
        57.0004         52.0004
    590316.46747    472721.32546  23894023.2074   23894027.3414   23894023.007
        44.0004         40.0004
 15  1  8  0 35  0.0000000  0  7G12G05G15G18G21G24G13
 -11422128.97848  -8894093.00347  22725759.1934   22725763.1644   22725759.204
        49.0004         44.0004
  -8628608.36948  -6719641.73647  22680599.7914   22680602.8924   22680599.190
        50.0004         45.0004
 -18647994.06748 -14491186.60148  21760267.5804   21760268.9154   21760266.999
        53.0004         48.0004
  -9417561.07347  -7301185.33747  22554555.5414   22554558.0964   22554556.206
        47.0004         42.0004
 -12170646.98548  -9448935.32947  22171112.4664   22171114.5504   22171112.620
        50.0004         45.0004
 -23422996.79149 -18211515.76848  20410634.7494   20410639.1064   20410633.978
        57.0004         52.0004
    635219.79047    507710.90546  23902568.4954   23902571.7994   23902568.146
        44.0004         40.0004
 15  1  8  0 35 30.0000000  0  7G12G05G15G18G21G24G13
 -11504284.40648  -8958110.19347  22710127.0044   22710129.6214   22710126.341
        49.0004         44.0004
  -8558693.07748  -6665162.30147  22693904.8564   22693906.7894   22693903.193
        50.0004         45.0004
 -18646088.24548 -14489701.54648  21760630.3814   21760631.9204   21760630.112
        53.0004         48.0004
  -9505581.38547  -7369772.58747  22537805.4554   22537808.4644   22537806.572
        47.0004         43.0004
 -12163779.42048  -9443583.99347  22172419.4984   22172421.9004   22172420.030
        50.0004         45.0004
 -23418469.39749 -18207987.91648  20411496.1984   20411500.5874   20411495.530
        57.0004         52.0004
    680035.41147    542632.16746  23911097.4084   23911098.7944   23911097.455
        44.0004         40.0004
 15  1  8  0 36  0.0000000  0  7G12G05G15G18G21G24G13
 -11586324.97848  -9022037.88247  22694514.4394   22694517.5434   22694513.799
        49.0004         45.0004
  -8488425.65148  -6610408.47047  22707276.1744   22707278.7044   22707276.332
        50.0004         45.0004
 -18644172.68548 -14488208.88848  21760994.9164   21760996.6384   21760994.798
        53.0004         48.0004
  -9593469.05347  -7438256.47147  22521082.5584   22521083.6364   22521082.440
        47.0004         43.0004
 -12156392.81248  -9437828.19747  22173825.2914   22173827.1574   22173825.365
        50.0004         45.0004
 -23413485.02449 -18204103.97048  20412444.8054   20412448.9714   20412444.213
        57.0004         52.0004
    724768.54247    577489.12846  23919610.3834   23919610.9124   23919610.033
        44.0004         40.0004
 15  1  8  0 36 30.0000000  0  7G12G05G15G18G21G24G13
 -11668251.42848  -9085876.63747  22678924.3544   22678928.4404   22678923.930
        49.0004         45.0004
  -8417810.60148  -6555383.77047  22720713.7604   22720716.0064   22720713.061
        50.0004         45.0004
 -18642250.76848 -14486711.29148  21761360.2834   21761362.3794   21761360.123
        53.0004         48.0004
  -9681225.17647  -7506637.84547  22504382.2814   22504383.7994   22504383.433
        47.0004         43.0004
 -12148492.07148  -9431671.77047  22175328.3214   22175330.5554   22175329.103
        50.0004         45.0004
 -23408048.53949 -18199867.73648  20413479.2324   20413483.6004   20413478.647
        57.0004         52.0004
    769415.84047    612279.22546  23928106.1024   23928107.4944   23928104.748
        44.0004         40.0004
 15  1  8  0 37  0.0000000  0  7G12G05G15G18G21G24G13
 -11750057.32948  -9149621.45747  22663356.9534   22663360.6314   22663356.291
        49.0004         45.0004
  -8346845.47048  -6500086.29047  22734218.6364   22734220.4494   22734219.109
        50.0004         45.0004
 -18640319.30548 -14485206.25648  21761728.5674   21761729.6264   21761728.100
        53.0004         48.0004
  -9768844.56147  -7574912.68147  22487709.5154   22487710.0774   22487709.892
        47.0004         43.0004
 -12140075.18348  -9425113.15247  22176929.5154   22176931.5394   22176930.361
        50.0004         45.0004
 -23402158.15249 -18195277.81148  20414600.0764   20414604.5634   20414599.614
        57.0004         52.0004
    813981.21247    647005.46346  23936584.9854   23936589.3364   23936586.764
        44.0004         40.0004
 15  1  8  0 37 30.0000000  0  7G12G05G15G18G21G24G13
 -11831743.03648  -9213272.62947  22647812.5634   22647815.9984   22647812.633
        49.0004         45.0004
  -8275534.64248  -6444519.42947  22747788.0624   22747790.4294   22747788.108
        49.0004         45.0004
 -18638381.36248 -14483696.16448  21762096.5514   21762098.8854   21762095.939
        53.0004         48.0004
  -9856328.24448  -7643081.78647  22471062.4364   22471063.3254   22471061.955
        48.0004         43.0004
 -12131146.88948  -9418156.03947  22178629.2874   22178631.9344   22178629.411
        49.0004         45.0004
 -23395818.77049 -18190338.02248  20415806.5864   20415811.2384   20415805.811
        57.0004         52.0004
    858461.53847    681665.42446  23945050.9844   23945051.5384   23945050.145
        44.0004         39.0004
 15  1  8  0 38  0.0000000  0  7G12G05G15G18G21G24G13
 -11913305.39348  -9276827.67247  22632292.3744   22632294.4564   22632291.669
        49.0004         45.0004
  -8203878.73148  -6388683.66647  22761423.5354   22761425.8604   22761423.785
        49.0004         45.0004
 -18636436.18648 -14482180.43948  21762466.8114   21762468.5274   21762466.762
        53.0004         48.0004
  -9943672.94448  -7711142.58547  22454439.8864   22454442.2394   22454440.393
        48.0004         43.0004
 -12121707.94248  -9410801.02247  22180425.0554   22180427.1864   22180425.594
        49.0004         45.0004
 -23389030.96549 -18185048.81248  20417097.8774   20417102.7654   20417097.330
        57.0004         52.0004
    902857.83947    716259.93146  23953498.3604   23953500.0574   23953499.062
        44.0004         39.0004
 15  1  8  0 38 30.0000000  0  7G12G05G15G18G21G24G13
 -11994738.72648  -9340282.19547  22616796.2014   22616797.9574   22616795.802
        49.0004         45.0004
  -8131876.14648  -6332577.77447  22775125.0194   22775127.6494   22775125.249
        49.0004         45.0004
 -18634480.95848 -14480656.88248  21762838.8894   21762840.8924   21762838.304
        53.0004         48.0004
 -10030874.56948  -7779091.90247  22437846.4784   22437847.4144   22437846.333
        48.0004         43.0004
 -12111757.46348  -9403047.40947  22182318.4354   22182320.4644   22182318.956
        49.0004         45.0004
 -23381793.85749 -18179409.50648  20418475.1524   20418479.8964   20418474.532
        57.0004         52.0004
    947172.73647    750791.01446  23961930.3374   23961933.5554   23961930.785
        44.0004         39.0004
 15  1  8  0 39  0.0000000  0  7G12G05G15G18G21G24G13
 -12076043.64648  -9403636.64247  22601324.0144   22601326.7504   22601324.357
        49.0004         45.0004
  -8059530.82248  -6276204.81147  22788892.3004   22788894.2884   22788891.565
        49.0004         44.0004
 -18632518.71048 -14479127.85148  21763211.9394   21763214.2034   21763211.876
        53.0004         48.0004
 -10117933.44348  -7846929.96547  22421279.7584   22421281.2754   22421279.746
        48.0004         44.0004
 -12101299.86348  -9394898.63247  22184309.1844   22184310.7544   22184309.340
        49.0004         45.0004
 -23374111.86649 -18173423.53148  20419936.9824   20419941.5914   20419936.393
        57.0004         52.0004
    991403.41947    785256.47246  23970348.2864   23970351.2014   23970346.842
        44.0004         39.0004
 15  1  8  0 39 30.0000000  0  8G12G05G15G18G21G24G25G13
 -12157215.58948  -9466887.48047  22585877.8644   22585879.5614   22585876.801
        49.0004         45.0004
  -7986843.41548  -6219565.27947  22802724.3664   22802726.1684   22802723.674
        49.0004         44.0004
 -18630548.54848 -14477592.66148  21763587.3734   21763589.3264   21763586.563
        53.0004         48.0004
 -10204846.82948  -7914654.67147  22404741.2604   22404743.1264   22404740.795
        48.0004         44.0004
 -12090335.89048  -9386355.28947  22186396.2984   22186397.5694   22186395.987
        50.0004         45.0004
 -23365986.04049 -18167091.71148  20421483.3214   20421487.9394   20421482.843
        57.0004         52.0004
                                                                  24690664.921

   1035551.32747    819657.42346  23978748.7654   23978752.5634   23978749.783
        44.0004         39.0004
 15  1  8  0 40  0.0000000  0  8G12G05G15G18G21G24G25G13
 -12238254.71648  -9530034.81347  22570456.7644   22570458.3804   22570455.168
        50.0004         45.0004
  -7913817.34448  -6162661.86947  22816620.1644   22816622.6834   22816619.999
        49.0004         44.0004
 -18628572.91548 -14476053.20448  21763962.9714   21763965.4124   21763962.454
        53.0004         48.0004
 -10291615.18548  -7982266.37747  22388228.6984   22388231.0994   22388229.516
        48.0004         43.0004
 -12078869.77648  -9377420.65547  22188577.3904   22188579.5074   22188577.604
        50.0004         45.0004
 -23357420.23549 -18160417.04948  20423113.4144   20423117.7974   20423112.677
        57.0004         52.0004
  -1137607.36448   -828959.06746  24672371.8924   24672377.6884   24672371.013
        53.0004         38.0004
   1079614.19247    853992.09546  23987134.5744   23987136.0184   23987134.676
        44.0004         39.0004
 15  1  8  0 40 30.0000000  0  8G12G05G15G18G21G24G25G13
 -12319151.74248  -9593071.41947  22555061.9214   22555065.0044   22555061.249
        50.0004         45.0004
  -7840447.60848  -6105490.66247  22830582.4784   22830584.3674   22830582.305
        49.0004         44.0004
 -18626585.26048 -14474504.38748  21764341.5054   21764343.2624   21764341.396
        53.0004         48.0004
 -10378229.73148  -8049758.23247  22371745.8544   22371748.7584   22371746.995
        48.0004         43.0004
 -12066896.17948  -9368090.58547  22190855.7364   22190858.1124   22190856.088
        50.0004         45.0004
 -23348409.17849 -18153395.43448  20424828.0664   20424832.4894   20424827.491
        57.0004         52.0004
  -1233873.09348   -903971.27446  24654053.3144   24654057.4704   24654053.962
        48.0004         38.0004
   1123598.77647    888265.79046  23995504.4374   23995507.8934   23995504.587
        44.0004         40.0004
 15  1  8  0 41  0.0000000  0  8G12G05G15G18G21G24G25G13
 -12399901.61448  -9655993.35747  22539695.5744   22539698.3354   22539696.318
        50.0004         45.0004
  -7766733.39148  -6048051.03347  22844610.0664   22844611.7424   22844609.390
        49.0004         45.0004
 -18624583.55648 -14472944.61448  21764722.2474   21764724.2504   21764721.736
        53.0004         48.0004
 -10464686.74448  -8117127.32647  22355294.0044   22355295.9034   22355294.584
        48.0004         43.0004
 -12054415.29848  -9358365.21947  22193230.7334   22193232.9204   22193230.834
        50.0004         45.0004
 -23338953.39449 -18146027.27948  20426627.5524   20426631.9914   20426626.830
        57.0004         52.0004
  -1330263.45147   -979080.56746  24635710.9144   24635716.4384   24635711.368
        45.0004         39.0004
   1167507.33547    922480.19446  24003860.8744   24003862.4024   24003861.149
        44.0004         40.0004
 15  1  8  0 41 30.0000000  0  8G12G05G15G18G21G24G25G13
 -12480507.72048  -9718803.28047  22524356.8214   22524359.2974   22524356.443
        50.0004         45.0004
  -7692682.30148  -5990348.89947  22858701.3254   22858703.0894   22858701.579
        49.0004         45.0004
 -18622574.03248 -14471378.75548  21765104.9574   21765106.8104   21765104.336
        53.0004         48.0004
 -10550989.89448  -8184376.53047  22338871.4944   22338873.6164   22338871.998
        48.0004         43.0004
 -12041434.59648  -9348250.39547  22195700.8234   22195703.4074   22195701.340
        49.0004         45.0004
 -23329059.73249 -18138317.92148  20428510.2844   20428514.5314   20428509.826
        57.0004         52.0004
  -1426782.32847  -1054289.98846  24617343.1004   24617348.5194   24617343.929
        44.0004         39.0004
   1211333.96747    956630.80346  24012200.7854   24012202.4704   24012198.605
        44.0004         40.0004
 15  1  8  0 42  0.0000000  0  8G12G05G15G18G21G24G25G13
 -12560966.73448  -9781498.58647  22509046.4944   22509048.2204   22509045.284
        50.0004         45.0004
  -7618294.52748  -5932384.41547  22872857.5694   22872858.6524   22872856.211
        49.0004         44.0004
 -18620555.52148 -14469805.88548  21765488.8884   21765490.9154   21765488.592
        53.0004         48.0004
 -10637136.44348  -8251503.69747  22322479.0864   22322480.3384   22322478.741
        48.0004         43.0004
 -12027955.11348  -9337746.90547  22198266.2554   22198267.9954   22198265.947
        49.0004         45.0004
 -23318730.07049 -18130268.83148  20430475.9864   20430480.2304   20430475.309
        57.0004         52.0004
  -1523426.70447  -1129597.20346  24598952.4824   24598957.5484   24598953.425
        43.0004         38.0004
   1255079.91647    990718.52946  24020525.2424   24020527.1424   24020526.106
        45.0004         40.0004
 15  1  8  0 42 30.0000000  0  8G12G05G15G18G21G24G25G13
 -12641269.22448  -9844071.92147  22493764.6674   22493767.1794   22493763.925
        50.0004         45.0004
  -7543565.00648  -5874153.63347  22887077.2924   22887079.6244   22887077.504
        49.0004         44.0004
 -18618521.72848 -14468221.10648  21765875.8174   21765877.8534   21765875.276
        53.0004         48.0004
 -10723117.35748  -8318501.79947  22306116.4604   22306119.1054   22306116.971
        48.0004         43.0004
 -12013972.27248  -9326851.19247  22200927.4004   22200929.2484   22200927.455
        50.0004         45.0004
 -23307959.22849 -18121875.96748  20432525.4594   20432529.8984   20432524.877
        57.0004         52.0004
  -1620188.13547  -1204995.64446  24580539.4454   24580542.5174   24580540.187
        43.0004         38.0004
   1298751.77547   1024748.53046  24028834.4844   24028836.8554   24028834.585
        45.0004         40.0004
 15  1  8  0 43  0.0000000  0  8G12G05G15G18G21G24G25G13
 -12721421.21548  -9906527.98747  22478512.5894   22478515.3534   22478513.178
        50.0004         45.0004
  -7468504.10948  -5815664.64447  22901361.7154   22901363.1494   22901360.596
        49.0004         44.0004
 -18616481.18248 -14466631.07348  21766264.1384   21766266.3554   21766264.090
        53.0004         48.0004
 -10808939.55748  -8385376.22547  22289785.1424   22289786.4134   22289785.684
        48.0004         43.0004
 -11999496.52548  -9315571.39147  22203681.7134   22203683.5704   22203681.988
        50.0004         45.0004
 -23296758.00849 -18113147.73848  20434657.0014   20434661.6434   20434656.444
        57.0004         52.0004
  -1717073.29547  -1280490.46646  24562101.2764   24562106.2934   24562101.933
        42.0004         37.0004
   1342341.16247   1058714.27846  24037129.4544   24037132.2604   24037129.050
        44.0004         40.0004
 15  1  8  0 43 30.0000000  0  8G12G05G15G18G21G24G25G13
 -12801410.73048  -9968857.44947  22463290.8774   22463292.9414   22463290.202
        50.0004         45.0004
  -7393103.64748  -5756911.04247  22915709.5654   22915711.7534   22915709.818
        49.0004         44.0004
 -18614424.63248 -14465028.56248  21766655.4914   21766657.1314   21766654.747
        53.0004         48.0004
 -10894591.81248  -8452118.24147  22273485.4434   22273487.7574   22273486.921
        48.0004         43.0004
 -11984520.48548  -9303901.75747  22206531.5154   22206533.0074   22206531.653
        50.0004         45.0004
 -23285118.48249 -18104077.96648  20436871.9394   20436876.4714   20436871.282
        57.0004         52.0004
  -1814070.96747  -1356072.98146  24543643.5844   24543648.5074   24543643.605
        42.0004         37.0004
   1385857.25247   1092622.90546  24045411.8184   24045412.8644   24045411.015
        44.0004         40.0004
 15  1  8  0 44  0.0000000  0  8G12G05G15G18G21G24G25G13
 -12881244.26948 -10031065.36947  22448098.9294   22448101.0384   22448098.674
        50.0004         45.0004
  -7317374.30248  -5697901.18047  22930120.7954   22930121.9784   22930119.671
        49.0004         44.0004
 -18612361.16348 -14463420.66848  21767048.4204   21767050.1314   21767047.973
        53.0004         48.0004
 -10980081.16448  -8518733.32447  22257218.4404   22257220.0354   22257219.143
        48.0004         44.0004
 -11969055.03448  -9291850.76047  22209474.4904   22209476.6574   22209474.836
        50.0004         45.0004
 -23273052.14349 -18094675.61948  20439168.1074   20439172.5464   20439167.448
        57.0004         52.0004
  -1911188.06847  -1431748.55646  24525161.5724   24525166.4774   24525163.766
        42.0004         37.0004
   1429291.53147   1126467.79146  24053676.2434   24053678.0484   24053677.516
        44.0004         39.0004
 15  1  8  0 44 30.0000000  0  8G12G05G15G18G21G24G25G13
 -12960910.31248 -10093142.76947  22432939.1054   22432940.8734   22432938.691
        50.0004         45.0004
  -7241309.23248  -5638629.71247  22944594.2264   22944596.9924   22944594.730
        49.0004         44.0004
 -18610282.49048 -14461800.92048  21767443.1824   21767445.5014   21767442.783
        53.0004         48.0004
 -11065397.21448  -8585213.36047  22240983.1624   22240984.5544   22240984.139
        48.0004         44.0004
 -11953093.90148  -9279413.51147  22212510.9774   22212514.3644   22212511.977
        50.0004         45.0004
 -23260551.99749 -18084935.23348  20441546.6104   20441551.1194   20441546.102
        57.0004         52.0004
  -2008414.34147  -1507509.20046  24506660.9374   24506665.3694   24506660.493
        42.0004         37.0004
   1472652.22047   1160255.33346  24061926.2964   24061929.7014   24061927.138
        44.0004         39.0004
 15  1  8  0 45  0.0000000  0  8G12G05G15G18G21G24G25G13
 -13040411.64548 -10155091.83547  22417810.7654   22417813.1394   22417810.846
        50.0004         45.0004
  -7164914.84748  -5579101.65647  22959131.8104   22959135.0074   22959132.153
        49.0004         44.0004
 -18608193.62448 -14460173.23748  21767841.0164   21767843.1334   21767840.621
        53.0004         48.0004
 -11150543.29848  -8651560.94847  22224780.8414   22224781.2954   22224781.131
        48.0004         43.0004
 -11936644.39148  -9266595.72647  22215641.4274   22215643.6264   22215642.036
        50.0004         45.0004
 -23247625.61949 -18074862.72148  20444006.5254   20444010.7114   20444005.876
        56.0004         52.0004
  -2105752.91847  -1583357.36446  24488137.1144   24488141.3114   24488137.321
        42.0004         37.0004
   1515934.51047   1193981.77946  24070163.8484   24070166.0294   24070163.515
        44.0004         39.0004
 15  1  8  0 45 30.0000000  0  8G12G05G15G18G21G24G25G13
 -13119739.35248 -10216905.59547  22402714.5734   22402716.3264   22402713.918
        50.0004         45.0004
  -7088186.61248  -5519313.44747  22973732.8014   22973734.9424   22973733.121
        49.0004         44.0004
 -18606088.43348 -14458532.82448  21768241.6264   21768244.0204   21768241.719
        53.0004         49.0004
 -11235510.88448  -8717769.45147  22208611.1814   22208612.5944   22208612.520
        48.0004         43.0004
 -11919702.29148  -9253394.08447  22218866.5554   22218867.8324   22218866.050
        49.0004         45.0004
 -23234268.26449 -18064454.38348  20446548.5244   20446552.7274   20446548.020
        56.0004         52.0004
  -2203195.53646  -1659286.60046  24469593.8984   24469597.5404   24469594.189
        41.0004         37.0004
   1559144.80747   1227652.12346  24078386.2974   24078388.5424   24078386.064
        44.0004         39.0004
 15  1  8  0 46  0.0000000  0  8G12G05G15G18G21G24G25G13
 -13198893.19548 -10278583.89447  22387652.5054   22387654.2054   22387652.135
        50.0004         45.0004
  -7011128.63848  -5459268.29847  22988396.1944   22988399.0614   22988396.100
        48.0004         44.0004
 -18603969.42848 -14456881.65248  21768644.9504   21768646.7204   21768644.249
        53.0004         48.0004
 -11320300.64348  -8783839.40547  22192477.6854   22192476.9804   22192477.682
        48.0004         43.0004
 -11902271.62248  -9239811.76347  22222182.2344   22222184.7554   22222182.930
        49.0004         45.0004
 -23220484.75349 -18053713.98048  20449170.9794   20449175.7374   20449170.466
        56.0004         52.0004
  -2300742.72146  -1735297.30446  24451029.8474   24451034.7504   24451031.280
        41.0004         37.0004
   1602280.86747   1261264.64046  24086594.1314   24086597.1914   24086595.117
        43.0004         39.0004
 15  1  8  0 46 30.0000000  0  8G12G05G15G18G21G24G25G13
 -13277871.67048 -10340125.52747  22372623.1744   22372625.3334   22372623.134
        50.0004         45.0004
  -6933743.59648  -5398968.28947  23003122.1744   23003124.2664   23003121.745
        48.0004         44.0004
 -18601837.54848 -14455220.44548  21769050.3974   21769052.7624   21769050.282
        53.0004         48.0004
 -11404911.59948  -8849770.02747  22176375.7944   22176377.5464   22176376.148
        48.0004         43.0004
 -11884355.55548  -9225851.20747  22225591.3514   22225594.0374   22225592.175
        49.0004         45.0004
 -23206278.00849 -18042643.77848  20451874.6144   20451879.1164   20451873.889
        56.0004         52.0004
  -2398393.34246  -1811388.61546  24432448.9174   24432452.7784   24432447.534
        41.0004         37.0004
   1645341.80547   1294818.59246  24094788.3034   24094791.5814   24094787.279
        43.0004         39.0004
 15  1  8  0 47  0.0000000  0  8G12G05G15G18G21G24G25G13
 -13356672.71048 -10401528.91747  22357628.0664   22357630.3164   22357627.522
        50.0004         46.0004
  -6856033.56948  -5338415.04447  23017909.5674   23017912.5844   23017909.371
        48.0004         44.0004
 -18599693.53448 -14453549.78948  21769458.4794   21769460.2324   21769457.576
        53.0004         48.0004
 -11489342.00348  -8915559.94347  22160308.0844   22160310.5534   22160309.292
        48.0004         44.0004
 -11865956.95948  -9211514.63947  22229093.7144   22229095.7394   22229093.394
        49.0004         45.0004
 -23191650.46049 -18031245.68748  20454658.2594   20454662.6874   20454657.740
        56.0004         52.0004
  -2496145.92246  -1887559.33446  24413844.5924   24413849.9584   24413845.058
        41.0004         37.0004
   1688327.44447   1328313.86746  24102967.6864   24102971.0034   24102967.349
        43.0004         38.0004
 15  1  8  0 47 30.0000000  0  8G12G05G15G18G21G24G25G13
 -13435291.19148 -10462790.04447  22342667.4654   22342670.1974   22342666.742
        50.0004         46.0004
  -6777997.57348  -5277607.79047  23032759.9664   23032761.4664   23032759.853
        48.0004         44.0004
 -18597534.88748 -14451867.73048  21769869.7294   21769871.1444   21769870.023
        53.0004         48.0004
 -11573587.79748  -8981205.99947  22144278.0694   22144279.8674   22144277.752
        48.0004         44.0004
 -11847075.44748  -9196801.77847  22232685.6894   22232688.0064   22232686.403
        49.0004         45.0004
 -23176602.01149 -18019519.61948  20457521.7984   20457526.4684   20457521.153
        56.0004         52.0004
  -2593996.19546  -1963806.22646  24395225.6674   24395231.8974   24395225.930
        41.0004         37.0004
   1731240.16947   1361752.32746  24111135.8964   24111135.8404   24111136.165
        43.0004         39.0004
 15  1  8  0 48  0.0000000  0  8G12G05G15G18G21G24G25G13
 -13513722.27548 -10523905.14747  22327742.6294   22327744.9424   22327743.102
        50.0004         46.0004
  -6699635.41148  -5216546.37747  23047671.7864   23047674.4544   23047670.947
        48.0004         44.0004
 -18595359.37548 -14450172.52448  21770283.6054   21770285.2094   21770283.152
        53.0004         48.0004
 -11657644.64348  -9046704.82947  22128281.9374   22128283.8204   22128282.497
        49.0004         44.0004
 -11827711.26048  -9181712.81747  22236372.0124   22236372.8994   22236371.665
        49.0004         45.0004
 -23161132.53249 -18007465.47348  20460465.5224   20460470.3624   20460464.955
        57.0004         52.0004
  -2691940.10746  -2040126.08146  24376587.2354   24376592.9324   24376587.347
        41.0004         37.0004
   1774082.18547   1395135.70246  24119287.5874   24119288.9954   24119288.303
        43.0004         39.0004
 15  1  8  0 48 30.0000000  0  8G12G05G15G18G21G24G25G13
 -13591967.43648 -10584875.37147  22312853.1124   22312855.6844   22312852.985
        50.0004         46.0004
  -6620952.65148  -5155235.14247  23062644.5834   23062646.5344   23062644.462
        48.0004         44.0004
 -18593171.11748 -14448467.39348  21770699.6464   21770701.4834   21770698.955
        53.0004         48.0004
 -11741514.67548  -9112058.10647  22112322.7604   22112324.1824   22112322.515
        49.0004         44.0004
 -11807870.76048  -9166252.68747  22240146.5204   22240149.1684   22240147.127
        50.0004         45.0004
 -23145248.04349 -17995087.94748  20463488.3774   20463492.9534   20463487.676
        57.0004         52.0004
  -2789979.57047  -2116520.39546  24357930.7514   24357936.7754   24357930.293
        42.0004         37.0004
   1816849.90247   1428461.17446  24127426.0984   24127428.0224   24127426.355
        43.0004         39.0004
 15  1  8  0 49  0.0000000  0  8G12G05G15G18G21G24G25G13
 -13670018.86548 -10645694.65547  22298000.4844   22298002.2944   22298000.323
        50.0004         46.0004
  -6541945.89848  -5093671.45847  23077678.7024   23077681.8094   23077679.188
        48.0004         44.0004
 -18590964.83448 -14446748.21348  21771119.4754   21771121.7764   21771119.425
        53.0004         48.0004
 -11825190.73548  -9177260.22647  22096400.2904   22096401.9634   22096399.781
        49.0004         44.0004
 -11787550.77848  -9150418.93447  22244014.5124   22244015.5084   22244014.173
        50.0004         45.0004
 -23128945.35549 -17982384.55348  20466590.5864   20466595.1614   20466590.106
        56.0004         52.0004
  -2888107.22347  -2192983.43246  24339259.1874   24339263.1324   24339257.740
        42.0004         38.0004
   1859548.68947   1461732.92746  24135551.1294   24135552.9694   24135551.009
        43.0004         39.0004
 15  1  8  0 49 30.0000000  0  8G12G05G15G18G21G24G25G13
 -13747875.83448 -10706362.38747  22283184.7234   22283187.0924   22283184.614
        50.0004         46.0004
  -6462618.80648  -5031858.15247  23092774.7244   23092776.0564   23092774.473
        48.0004         44.0004
 -18588742.75948 -14445016.73048  21771543.3004   21771544.2154   21771542.448
        53.0004         48.0004
 -11908672.90348  -9242311.25847  22080513.1664   22080515.6104   22080513.403
        49.0004         44.0004
 -11766755.28048  -9134214.67047  22247971.0254   22247972.9144   22247971.178
        50.0004         45.0004
 -23112228.49249 -17969358.41748  20469771.6254   20469776.2394   20469771.060
        56.0004         52.0004
  -2986323.23747  -2269515.31846  24320568.8614   24320574.1754   24320568.866
        42.0004         38.0004
   1902176.67547   1494949.52246  24143662.9544   24143665.5794   24143663.395
        43.0004         39.0004
 15  1  8  0 50  0.0000000  0  8G12G05G15G18G21G24G25G13
 -13825536.40448 -10766877.08647  22268405.7824   22268408.8664   22268406.027
        51.0004         46.0004
  -6382973.70548  -4969797.05147  23107930.3384   23107933.5434   23107930.447
        48.0004         43.0004
 -18586505.17348 -14443273.15848  21771968.8514   21771970.4914   21771968.953
        53.0004         48.0004
 -11991959.57948  -9307209.95647  22064664.8874   22064665.9754   22064664.612
        49.0004         45.0004
 -11745486.86448  -9117641.87347  22252017.7754   22252019.8694   22252018.390
        50.0004         45.0004
 -23095100.77249 -17956012.13348  20473030.6024   20473035.5294   20473030.060
        56.0004         52.0004
  -3084625.98547  -2346114.80046  24301863.4754   24301867.1854   24301863.752
        43.0004         38.0004
   1944733.42747   1528110.61446  24151760.4624   24151763.5334   24151760.986
        43.0004         38.0004
 15  1  8  0 50 30.0000000  0  8G12G05G15G18G21G24G25G13
 -13902993.15948 -10827232.97047  22253666.5434   22253668.7814   22253666.507
        51.0004         46.0004
  -6303006.93148  -4907485.29747  23123148.0244   23123149.5944   23123147.735
        48.0004         43.0004
 -18584247.08148 -14441513.61548  21772397.9704   21772400.0764   21772397.147
        53.0004         48.0004
 -12075043.73648  -9371950.84947  22048853.3504   22048856.2134   22048853.965
        49.0004         45.0004
 -11723743.11348  -9100698.68947  22256155.6034   22256157.8754   22256156.249
        50.0004         45.0004
 -23077558.71649 -17942342.98948  20476369.0534   20476373.5274   20476368.546
        56.0004         52.0004
  -3183008.49547  -2422776.45746  24283140.1274   24283146.6584   24283142.225
        43.0004         38.0004
   1987224.41647   1561220.45946  24159847.5534   24159849.3514   24159846.940
        43.0004         38.0004
 15  1  8  0 51  0.0000000  0  8G12G05G15G18G21G24G25G13
 -13980247.09048 -10887430.80847  22238965.2904   22238967.9894   22238965.389
        51.0004         46.0004
  -6222724.59248  -4844927.64647  23138426.1484   23138428.1204   23138424.373
        48.0004         43.0004
 -18581972.00948 -14439740.83348  21772831.3394   21772832.7144   21772830.940
        53.0004         49.0004
 -12157927.52848  -9436535.61947  22033081.3884   22033083.2894   22033081.539
        49.0004         45.0004
 -11701530.52348  -9083390.19347  22260382.5444   22260384.4974   22260382.846
        50.0004         45.0004
 -23059608.31049 -17928355.64748  20479785.0524   20479789.4044   20479784.489
        57.0004         52.0004
  -3281472.61347  -2499501.69246  24264404.3654   24264409.4254   24264405.089
        43.0004         39.0004
   2029645.59347   1594275.91446  24167919.4434   24167922.9804   24167918.749
        43.0004         38.0004
 15  1  8  0 51 30.0000000  0  8G12G05G15G18G21G24G25G13
 -14057296.24148 -10947469.07547  22224303.9934   22224306.0584   22224303.648
        51.0004         46.0004
  -6142128.75648  -4782125.70747  23153762.6554   23153765.3754   23153760.965
        48.0004         43.0004
 -18579681.11748 -14437955.73148  21773267.4754   21773268.8264   21773267.243
        53.0004         49.0004
 -12240609.40148  -9500963.04447  22017347.1804   22017349.0724   22017347.473
        49.0004         45.0004
 -11678852.14348  -9065718.72347  22264698.1454   22264700.1544   22264698.829
        50.0004         45.0004
 -23041253.34449 -17914053.06348  20483277.7534   20483282.1714   20483277.017
        57.0004         52.0004
  -3380016.95647  -2576289.44846  24245652.5974   24245656.7614   24245652.884
        43.0004         39.0004
   2071996.63347   1627276.69546  24175978.1824   24175981.0244   24175979.059
        43.0004         38.0004
 15  1  8  0 52  0.0000000  0  8G12G05G15G18G21G24G25G13
 -14134133.03948 -11007341.88147  22209682.2944   22209683.4584   22209681.563
        51.0004         46.0004
  -6061216.46048  -4719077.19547  23169159.7454   23169162.1634   23169158.243
        48.0004         43.0004
 -18577369.28448 -14436154.31148  21773707.5344   21773708.6284   21773707.114
        53.0004         49.0004
 -12323082.40448  -9565227.71947  22001653.3114   22001655.4584   22001653.261
        49.0004         45.0004
 -11655704.69148  -9047681.75447  22269103.0744   22269105.8204   22269103.342
        49.0004         45.0004
 -23022490.32049 -17899432.51548  20486848.3514   20486852.8264   20486847.717
        57.0004         52.0004
  -3478634.48347  -2653134.23746  24226886.4004   24226891.3574   24226885.994
        43.0004         39.0004
   2114282.76247   1660226.92446  24184026.4914   24184026.8294   24184026.156
        43.0004         38.0004
 15  1  8  0 52 30.0000000  0  8G12G05G15G18G21G24G25G13
 -14210756.74248 -11067048.63947  22195101.0344   22195102.8084   22195101.278
        51.0004         46.0004
  -5979991.11248  -4655784.73247  23184615.0434   23184618.4924   23184615.365
        48.0004         43.0004
 -18575037.97448 -14434337.70248  21774150.7484   21774152.6734   21774150.321
        53.0004         48.0004
 -12405346.11648  -9629329.30947  21985998.8884   21986002.3024   21985998.895
        50.0004         45.0004
 -11632092.60848  -9029282.73547  22273595.9974   22273596.9904   22273596.583
        49.0004         45.0004
 -23003323.02949 -17884496.95948  20490495.8224   20490500.1964   20490495.107
        57.0004         52.0004
  -3577324.76247  -2730035.72246  24208105.8464   24208109.8594   24208105.856
        44.0004         39.0004
   2156502.73347   1693125.58146  24192060.7134   24192061.4804   24192060.116
        43.0004         39.0004
 15  1  8  0 53  0.0000000  0  8G12G05G15G18G21G24G25G13
 -14287169.18248 -11126590.77047  22180560.3154   22180562.3414   22180559.575
        51.0004         46.0004
  -5898458.82348  -4592253.10047  23200131.0974   23200134.2414   23200130.364
        48.0004         43.0004
 -18572691.56348 -14432509.33148  21774596.6494   21774599.1214   21774596.454
        53.0004         48.0004
 -12487402.97548  -9693269.71247  21970384.2944   21970386.7274   21970384.737
        50.0004         45.0004
 -11608022.15848  -9010526.54747  22278176.9124   22278178.9584   22278176.875
        49.0004         45.0004
 -22983757.89649 -17869251.39348  20494218.8094   20494223.2774   20494218.162
        57.0004         52.0004
  -3676090.09047  -2806995.69746  24189311.7694   24189315.7984   24189312.046
        44.0004         39.0004
   2198652.38847   1725969.44146  24200081.5314   24200082.7674   24200081.051
        43.0004         39.0004
 15  1  8  0 53 30.0000000  0  8G12G05G15G18G21G24G25G13
 -14363358.63048 -11185959.14547  22166062.1944   22166064.0964   22166062.026
        51.0004         46.0004
  -5816612.46648  -4528476.73747  23215705.9884   23215708.8244   23215705.742
        48.0004         44.0004
 -18570321.08148 -14430662.20548  21775048.0614   21775049.7254   21775047.543
        53.0004         48.0004
 -12569242.24548  -9757040.57347  21954810.5924   21954812.7724   21954811.005
        50.0004         45.0004
 -11583487.33748  -8991408.51247  22282846.0224   22282846.7284   22282846.204
        49.0004         45.0004
 -22963788.85349 -17853691.09648  20498018.8344   20498023.0404   20498018.117
        57.0004         52.0004
  -3774919.61847  -2884005.70046  24170505.1814   24170510.3304   24170504.935
        44.0004         39.0004
   2240740.61547   1758765.44446  24208089.6264   24208092.1394   24208090.795
        43.0004         39.0004
 15  1  8  0 54  0.0000000  0  8G12G05G15G18G21G24G25G13
 -14439322.38948 -11245151.66347  22151606.8244   22151608.0194   22151606.532
        51.0004         46.0004
  -5734453.83148  -4464457.04947  23231339.8694   23231343.4654   23231339.261
        48.0004         44.0004
 -18567926.10148 -14428795.98848  21775503.6424   21775505.6954   21775503.718
        53.0004         48.0004
 -12650861.54948  -9820640.02647  21939279.0274   21939280.9494   21939279.370
        50.0004         45.0004
 -11558490.38048  -8971930.37647  22287602.1814   22287603.8644   22287602.892
        49.0004         45.0004
 -22943417.32849 -17837817.18148  20501895.2544   20501899.5464   20501894.739
        56.0004         52.0004
  -3873810.97047  -2961063.87946  24151686.2694   24151692.6774   24151686.410
        44.0004         39.0004
   2282768.02747   1791514.07846  24216086.6664   24216088.2054   24216086.371
        43.0004         38.0004
 15  1  8  0 54 30.0000000  0  8G12G05G15G18G21G24G25G13
 -14515066.88448 -11304173.31447  22137193.1764   22137195.2014   22137192.794
        51.0004         46.0004
  -5651993.59748  -4400202.33947  23247031.9744   23247035.3904   23247031.414
        48.0004         44.0004
 -18565515.70248 -14426917.76448  21775962.6854   21775964.5954   21775962.439
        53.0004         48.0004
 -12732268.18048  -9884073.75347  21923787.5774   21923789.6404   21923788.385
        49.0004         45.0004
 -11533042.77548  -8952101.07047  22292444.5974   22292446.5054   22292445.456
        49.0004         45.0004
 -22922655.25749 -17821638.93448  20505846.5664   20505850.5434   20505845.968
        56.0004         52.0004
  -3972771.07847  -3038175.63646  24132855.5244   24132859.2124   24132855.731
        44.0004         39.0004
   2324725.81247   1824208.44846  24224071.7184   24224074.7784   24224071.392
        43.0004         39.0004
 15  1  8  0 55  0.0000000  0  8G12G05G15G18G21G24G25G13
 -14590580.04348 -11363014.71447  22122823.7304   22122825.2404   22122823.073
        51.0004         47.0004
  -5569224.32848  -4335706.82747  23262782.1504   23262786.0874   23262781.339
        48.0004         43.0004
 -18563080.33748 -14425020.07848  21776426.2164   21776428.0014   21776425.540
        53.0004         48.0004
 -12813450.59348  -9947332.76947  21908339.8284   21908340.9214   21908339.945
        49.0004         45.0004
 -11507137.10448  -8931914.84247  22297374.3414   22297375.7404   22297374.952
        49.0004         45.0004
 -22901495.00149 -17805150.41048  20509872.9554   20509877.2054   20509872.481
        56.0004         52.0004
  -4071788.41947  -3115331.96046  24114011.5544   24114017.8994   24114012.251
        44.0004         39.0004
   2366623.56147   1856856.04246  24232043.3674   24232046.2964   24232044.308
        43.0004         39.0004
 15  1  8  0 55 30.0000000  0  8G12G05G15G18G21G24G25G13
 -14665861.21248 -11421675.32747  22108497.6154   22108499.6524   22108498.319
        51.0004         47.0004
  -5486149.71848  -4270973.37547  23278591.2874   23278593.6094   23278589.096
        48.0004         43.0004
 -18560621.21848 -14423103.89348  21776894.2154   21776896.0274   21776893.598
        53.0004         48.0004
 -12894408.35848 -10010416.74047  21892933.7554   21892935.6844   21892934.470
        49.0004         45.0004
 -11480778.31048  -8911375.54147  22302390.8664   22302391.8654   22302390.800
        49.0004         45.0004
 -22879940.53449 -17788354.71148  20513974.7014   20513978.7904   20513974.074
        56.0004         52.0004
  -4170862.62047  -3192532.62146  24095159.6014   24095164.4274   24095160.131
        44.0004         39.0004
   2408459.86347   1889455.74646  24240003.9444   24240009.1934   24240003.496
        43.0004         39.0004
 15  1  8  0 56  0.0000000  0  8G12G05G15G18G21G24G25G13
 -14740908.00148 -11480153.32647  22094217.2614   22094218.1404   22094215.746
        51.0004         47.0004
  -5402771.87148  -4206003.64747  23294456.7194   23294460.0024   23294456.637
        48.0004         43.0004
 -18558139.18648 -14421169.84848  21777366.2084   21777368.5014   21777365.522
        53.0004         49.0004
 -12975139.69848 -10073324.27147  21877571.2124   21877572.3634   21877571.753
        49.0004         45.0004
 -11453968.65448  -8890484.88847  22307491.7534   22307494.7184   22307492.254
        50.0004         45.0004
 -22857994.68249 -17771254.04048  20518150.8434   20518154.9814   20518150.376
        56.0004         52.0004
  -4269991.92847  -3269776.20446  24076295.4014   24076300.0494   24076296.514
        44.0004         39.0004
   2450234.79747   1922007.62346  24247954.5854   24247958.3644   24247955.973
        43.0004         39.0004
 15  1  8  0 56 30.0000000  0  8G12G05G15G18G21G24G25G13
 -14815717.91448 -11538446.73647  22079980.9394   22079982.5054   22079981.185
        51.0004         47.0004
  -5319092.56648  -4140799.01447  23310381.0984   23310383.4934   23310379.753
        48.0004         43.0004
 -18555633.95348 -14419217.72148  21777843.1284   21777845.0994   21777843.003
        53.0004         49.0004
 -13055642.81848 -10136053.96647  21862252.2014   21862252.9984   21862252.610
        49.0004         45.0004
 -11426710.47648  -8869244.76047  22312679.8064   22312680.8804   22312679.414
        50.0004         45.0004
 -22835660.01049 -17753850.38848  20522400.7884   20522405.1184   20522400.245
        56.0004         52.0004
  -4369174.25347  -3347061.11146  24057421.5484   24057426.3524   24057422.700
        44.0004         40.0004
   2491948.26247   1954511.60746  24255892.0904   24255896.2754   24255893.621
        43.0004         39.0004
 15  1  8  0 57  0.0000000  0  8G12G05G15G18G21G24G25G13
 -14890286.36748 -11596552.00247  22065790.9824   22065792.6294   22065791.040
        51.0004         47.0004
  -5235111.45547  -4075359.20447  23326362.0174   23326363.1134   23326360.389
        47.0004         43.0004
 -18553103.42248 -14417245.87648  21778325.3394   21778326.8284   21778324.680
        53.0004         49.0004
 -13135913.84448 -10198602.80347  21846976.3794   21846979.2174   21846977.174
        50.0004         45.0004
 -11399004.39248  -8847655.60947  22317951.0834   22317954.1914   22317951.549
        49.0004         45.0004
 -22812936.42149 -17736143.67948  20526724.8284   20526729.3194   20526724.275
        56.0004         52.0004
  -4468405.42747  -3424384.07946  24038537.7394   24038543.4724   24038538.100
        44.0004         40.0004
   2533602.65747   1986969.58046  24263820.0944   24263822.2514   24263820.040
        43.0004         39.0004
 15  1  8  0 57 30.0000000  0  8G12G05G15G18G21G24G25G13
 -14964612.74048 -11654468.62547  22051647.3904   22051649.0914   22051646.855
        51.0004         47.0004
  -5150832.85647  -4009687.58247  23342399.9934   23342401.5634   23342400.541
        47.0004         42.0004
 -18550549.13648 -14415255.53248  21778810.5484   21778813.0044   21778810.215
        53.0004         49.0004
 -13215952.37248 -10260970.46847  21831745.2164   21831748.1734   21831746.287
        50.0004         45.0004
 -11370855.03748  -8825721.05347  22323308.0784   22323310.8074   22323308.363
        50.0004         45.0004
 -22789828.33549 -17718137.37348  20531122.2934   20531126.9534   20531121.792
        56.0004         52.0004
  -4567685.22447  -3501744.93346  24019646.0634   24019652.6434   24019645.930
        44.0004         40.0004
   2575196.74347   2019380.52846  24271734.9794   24271736.6764   24271734.153
        43.0004         39.0004
 15  1  8  0 58  0.0000000  0  8G12G05G15G18G21G24G25G13
 -15038692.08648 -11712192.76947  22037549.8104   22037552.5074   22037549.250
        51.0004         47.0004
  -5066256.56047  -3943783.99347  23358493.7874   23358495.0634   23358493.420
        47.0004         42.0004
 -18547968.80048 -14413244.89048  21779301.6074   21779303.6264   21779300.726
        53.0004         49.0004
 -13295754.50548 -10323153.94647  21816560.7384   21816561.7914   21816560.691
        50.0004         45.0004
 -11342263.01648  -8803441.55847  22328747.9864   22328750.6144   22328749.007
        49.0004         45.0004
 -22766336.07949 -17699831.71248  20535592.6074   20535597.5314   20535592.153
        56.0004         52.0004
  -4667009.37147  -3579140.35146  24000745.0594   24000751.8074   24000746.119
        44.0004         40.0004
   2616732.67347   2051746.16846  24279638.6954   24279640.9354   24279639.576
        43.0004         39.0004
 15  1  8  0 58 30.0000000  0  8G12G05G15G18G21G24G25G13
 -15112520.78248 -11769721.59747  22023500.3564   22023502.8624   22023500.107
        51.0004         46.0004
  -4981383.16147  -3877648.90547  23374645.8804   23374646.5254   23374645.629
        47.0004         43.0004
 -18545361.12148 -14411212.94248  21779798.1044   21779800.1454   21779797.643
        53.0004         48.0004
 -13375316.59548 -10385150.38047  21801420.0374   21801421.8914   21801420.478
        50.0004         46.0004
 -11313229.24248  -8780817.86847  22334274.9154   22334276.0614   22334274.438
        49.0004         45.0004
 -22742460.41149 -17681227.28648  20540136.0714   20540140.6964   20540135.508
        56.0004         52.0004
  -4766374.35847  -3656567.59346  23981837.1024   23981843.5704   23981837.285
        45.0004         40.0004
   2658212.05947   2084067.75646  24287532.4094   24287533.8464   24287531.894
        43.0004         39.0004
 15  1  8  0 59  0.0000000  0  8G12G05G15G18G21G24G25G13
 -15186099.75748 -11827055.84847  22009498.9094   22009501.1384   22009498.770
        51.0004         47.0004
  -4896218.06647  -3811286.52647  23390852.0644   23390852.3674   23390851.507
        47.0004         42.0004
 -18542729.51048 -14409162.34248  21780298.9934   21780300.4964   21780298.500
        53.0004         48.0004
 -13454640.37848 -10446961.11247  21786325.8234   21786327.7444   21786325.777
        50.0004         46.0004
 -11283760.17848  -8757854.94247  22339881.6724   22339884.7354   22339882.100
        49.0004         45.0004
 -22718207.16149 -17662328.64448  20544751.4744   20544755.8774   20544750.791
        56.0004         52.0004
  -4865781.65647  -3734027.80746  23962920.3144   23962926.5554   23962920.158
        45.0004         40.0004
   2699631.52247   2116342.66346  24295412.6704   24295415.6534   24295413.961
        43.0004         39.0004
 15  1  8  0 59 30.0000000  0  8G12G05G15G18G21G24G25G13
 -15259418.96448 -11884187.67347  21995546.6094   21995549.1914   21995546.925
        51.0004         47.0004
  -4810755.70247  -3744692.50547  23407114.2334   23407115.6284   23407114.842
        47.0004         42.0004
 -18540065.88848 -14407086.80448  21780805.6224   21780807.8124   21780805.214
        53.0004         48.0004
 -13533716.26248 -10508578.68347  21771277.6844   21771279.4364   21771278.076
        51.0004         46.0004
 -11253850.80348  -8734548.96147  22345573.0974   22345574.7614   22345573.603
        49.0004         45.0004
 -22693571.76249 -17643132.22448  20549439.4044   20549443.8474   20549438.883
        56.0004         52.0004
  -4965221.59847  -3811513.45346  23943997.2654   23944003.9594   23943997.540
        45.0004         40.0004
   2740999.03947   2148577.05646  24303286.5894   24303288.0054   24303285.590
        43.0004         38.0004
 15  1  8  1  0  0.0000000  0  8G12G05G15G18G21G24G25G13
 -15332483.02448 -11941120.69347  21981643.6744   21981645.4614   21981642.323
        51.0004         47.0004
  -4725005.20647  -3677873.96947  23423432.1344   23423433.3274   23423432.159
        47.0004         42.0004
 -18537377.23948 -14404991.75248  21781317.1604   21781319.3884   21781316.796
        53.0004         48.0004
 -13612549.16048 -10570006.90447  21756276.3754   21756278.0044   21756276.520
        51.0004         46.0004
 -11223510.53648  -8710907.19647  22351345.9654   22351349.0764   22351346.818
        49.0004         45.0004
 -22668562.74749 -17623644.67148  20554198.3254   20554202.7514   20554197.746
        56.0004         52.0004
  -5064698.97647  -3889028.27046  23925067.3164   23925073.2334   23925067.498
        45.0004         40.0004
   2782307.81447   2180765.72046  24311147.3674   24311149.8824   24311143.510
        43.0004         38.0004
 15  1  8  1  0 30.0000000  0  8G12G05G15G18G21G24G25G13
 -15405282.70948 -11997847.68547  21967789.9744   21967792.1324   21967790.348
        51.0004         47.0004
  -4638962.07047  -3610827.40147  23439806.0424   23439807.2804   23439804.977
        47.0004         42.0004
 -18534657.26448 -14402872.29748  21781834.7244   21781836.9524   21781834.130
        53.0004         48.0004
 -13691130.81648 -10631239.35947  21741322.5404   21741324.5394   21741322.765
        51.0004         46.0004
 -11192735.61748  -8686926.75147  22357202.1984   22357205.9884   22357203.129
        49.0004         45.0004
 -22643176.67449 -17603863.30448  20559029.0224   20559033.3384   20559028.425
        56.0004         52.0004
  -5164205.09847  -3966565.48446  23906132.6604   23906137.7354   23906131.962
        45.0004         40.0004
   2823564.77647   2212913.97846  24318997.0894   24319000.1164   24318996.896
        43.0004         38.0004
 15  1  8  1  1  0.0000000  0  8G12G05G15G18G21G24G25G13
 -15477818.65448 -12054369.17547  21953987.1304   21953989.0144   21953986.443
        51.0004         47.0004
  -4552631.18547  -3543556.60947  23456233.2854   23456235.4794   23456233.265
        47.0004         42.0004
 -18531908.81048 -14400730.65448  21782357.8104   21782359.8984   21782357.793
        53.0004         48.0004
 -13769462.15248 -10692276.76547  21726416.0944   21726419.3124   21726416.826
        51.0004         46.0004
 -11161532.12348  -8662612.33447  22363140.6904   22363143.5784   22363141.146
        49.0004         45.0004
 -22617419.08249 -17583792.44648  20563930.5934   20563934.8614   20563929.921
        56.0004         52.0004
  -5263741.19647  -4044126.06246  23887191.3314   23887196.7504   23887190.869
        45.0004         40.0004
   2864767.04747   2245019.63246  24326838.9354   24326841.2994   24326837.621
        43.0004         38.0004
 15  1  8  1  1 30.0000000  0  8G12G05G15G18G21G24G25G13
 -15550087.64448 -12110682.65847  21940234.5264   21940236.7854   21940233.931
        52.0004         47.0004
  -4466014.01147  -3476062.74247  23472716.3494   23472719.8954   23472714.764
        47.0004         42.0004
 -18529130.61048 -14398565.83648  21782886.6134   21782888.4074   21782885.977
        53.0004         48.0004
 -13847540.44048 -10753116.99047  21711558.3604   21711561.1684   21711558.805
        50.0004         46.0004
 -11129901.85048  -8637965.38447  22369160.4614   22369161.8504   22369160.812
        49.0004         45.0004
 -22591291.55149 -17563433.32448  20568902.4734   20568906.8534   20568902.000
        56.0004         52.0004
  -5363304.12647  -4121707.53646  23868244.4464   23868249.8394   23868244.910
        45.0004         40.0004
   2905915.63847   2277083.44746  24334667.7584   24334670.8824   24334668.455
        43.0004         38.0004
 15  1  8  1  2  0.0000000  0  8G12G05G15G18G21G24G25G13
 -15622085.10248 -12166784.54447  21926534.2334   21926535.9314   21926533.731
        52.0004         47.0004
  -4379110.54947  -3408345.77947  23489253.3394   23489257.3774   23489251.613
        46.0004         42.0004
 -18526320.64648 -14396376.27048  21783421.8864   21783423.3094   21783421.720
        53.0004         48.0004
 -13925362.01048 -10813757.16747  21696749.7914   21696751.5384   21696749.986
        50.0004         46.0004
 -11097845.66848  -8612986.54747  22375260.1634   22375262.5244   22375259.980
        49.0004         45.0004
 -22564794.53349 -17542786.29348  20573944.9014   20573949.3304   20573944.266
        56.0004         52.0004
  -5462889.74047  -4199306.69746  23849293.6114   23849300.5454   23849293.848
        45.0004         40.0004
   2947012.97347   2309107.33446  24342488.7884   24342492.3044   24342489.233
        43.0004         39.0004
 15  1  8  1  2 30.0000000  0  8G12G05G15G18G21G24G25G13
 -15693806.37348 -12222671.22447  21912885.5894   21912888.0844   21912884.633
        52.0004         47.0004
  -4291920.79447  -3340405.73947  23505844.5934   23505848.3324   23505844.474
        46.0004         42.0004
 -18523476.69448 -14394160.21548  21783962.6504   21783964.4454   21783961.716
        53.0004         48.0004
 -14002922.74748 -10874194.10547  21681990.3324   21681992.5344   21681990.856
        50.0004         46.0004
 -11065363.80548  -8587676.02047  22381441.6874   22381443.5024   22381441.998
        49.0004         45.0004
 -22537928.31249 -17521851.56648  20579057.5454   20579061.6224   20579056.906
        56.0004         52.0004
  -5562493.78547  -4276920.21546  23830339.2634   23830346.4604   23830339.151
        45.0004         40.0004
   2988061.48347   2341093.18146  24350301.1694   24350302.9864   24350301.237
        43.0004         39.0004
 15  1  8  1  3  0.0000000  0  8G12G05G15G18G21G24G25G13
 -15765254.29848 -12278344.90747  21899289.4194   21899291.4724   21899289.750
        52.0004         47.0004
  -4204452.12047  -3272248.33547  23522488.4484   23522493.5184   23522487.222
        46.0004         42.0004
 -18520603.63748 -14391921.46748  21784509.1874   21784511.4554   21784509.071
        53.0004         48.0004
 -14080225.23648 -10934429.80947  21667280.2814   21667283.1114   21667280.676
        50.0004         45.0004
 -11032464.56748  -8562040.26047  22387700.5684   22387704.1724   22387701.625
        49.0004         45.0004
 -22510700.74049 -17500635.27348  20584238.6914   20584242.8844   20584238.015
        56.0004         52.0004
  -5662119.32947  -4354550.48746  23811381.8094   23811388.6444   23811380.685
        45.0004         40.0004
   3029056.03847   2373036.96046  24358102.2964   24358103.0734   24358101.470
        43.0004         39.0004
 15  1  8  1  3 30.0000000  0  8G12G05G15G18G21G24G25G13
 -15836421.15348 -12333799.58447  21885747.4274   21885749.1034   21885746.907
        52.0004         47.0004
  -4116701.33647  -3203871.11747  23539187.5994   23539192.3714   23539186.384
        46.0004         42.0004
 -18517695.93348 -14389655.72948  21785062.6554   21785064.6034   21785061.929
        53.0004         48.0004
 -14157262.43948 -10994458.78947  21652619.9714   21652622.0414   21652620.582
        50.0004         45.0004
 -10999145.14948  -8536077.08147  22394042.3574   22394044.1054   22394042.459
        49.0004         45.0004
 -22483108.32549 -17479134.68848  20589489.0604   20589493.3594   20589488.683
        56.0004         52.0004
  -5761758.69647  -4432191.53646  23792421.3124   23792427.9894   23792421.177
        45.0004         40.0004
   3070002.49547   2404943.25346  24365893.5314   24365894.9944   24365893.366
        43.0004         39.0004
 15  1  8  1  4  0.0000000  0  8G12G05G15G18G21G24G25G13
 -15907305.95948 -12389034.47247  21872258.4624   21872260.3484   21872258.700
        52.0004         47.0004
  -4028671.81747  -3135276.70447  23555939.1084   23555942.8824   23555939.028
        46.0004         42.0004
 -18514754.71848 -14387363.88348  21785622.4264   21785624.4924   21785621.631
        53.0004         48.0004
 -14234033.84248 -11054280.66447  21638010.9944   21638013.9314   21638011.501
        50.0004         45.0004
 -10965409.78748  -8509789.79647  22400462.3414   22400463.6444   22400461.808
        49.0004         44.0004
 -22455155.23649 -17457353.04848  20594808.4734   20594812.9004   20594808.010
        56.0004         52.0004
  -5861411.19247  -4509842.81146  23773457.5094   23773463.3814   23773458.250
        45.0004         41.0004
   3110899.80747   2436811.26546  24373674.8744   24373678.2384   24373678.178
        43.0004         38.0004
 15  1  8  1  4 30.0000000  0  8G12G05G15G18G21G24G25G13
 -15977904.06148 -12444045.96647  21858824.0584   21858825.6094   21858823.352
        52.0004         47.0004
  -3940363.59147  -3066465.12547  23572744.2084   23572747.6144   23572743.606
        46.0004         42.0004
 -18511778.01548 -14385044.38248  21786188.6994   21786190.8204   21786188.704
        53.0004         48.0004
 -14310535.47248 -11113892.33047  21623453.5974   21623456.1364   21623453.998
        50.0004         46.0004
 -10931259.36248  -8483179.08347  22406960.6474   22406962.2344   22406961.073
        49.0004         44.0004
 -22426842.53449 -17435291.19748  20600196.1274   20600200.4744   20600195.641
        56.0004         52.0004
  -5961072.77247  -4587501.16646  23754493.4484   23754498.1584   23754493.187
        45.0004         41.0004
   3151750.09847   2468642.62446  24381450.1554   24381450.5704   24381449.275
        43.0004         38.0004
 15  1  8  1  5  0.0000000  0  8G12G05G15G18G21G24G25G13
 -16048214.08648 -12498832.97847  21845444.3264   21845445.9834   21845444.246
        52.0004         47.0004
  -3851780.20947  -2997439.13747  23589601.3744   23589604.5334   23589600.555
        47.0004         42.0004
 -18508766.69548 -14382697.90148  21786761.8374   21786764.0314   21786761.326
        53.0004         48.0004
 -14386766.83948 -11173293.39647  21608946.9584   21608948.8064   21608947.657
        50.0004         46.0004
 -10896698.21748  -8456248.33847  22413536.5504   22413538.9574   22413537.705
        49.0004         44.0004
 -22398173.27249 -17412951.50448  20605651.6284   20605656.2074   20605651.074
        56.0004         52.0004
  -6060742.35847  -4665165.75846  23735526.7344   23735531.7454   23735526.853
        45.0004         41.0004
   3192552.70047   2500436.84746  24389213.0754   24389214.9864   24389213.003
        43.0004         38.0004
 15  1  8  1  5 30.0000000  0  8G12G05G15G18G21G24G25G13
 -16118233.90948 -12553393.85747  21832119.7244   21832121.4514   21832119.149
        52.0004         47.0004
  -3762923.59147  -2928200.23447  23606510.6874   23606513.3104   23606510.669
        47.0004         42.0004
 -18505720.26548 -14380324.06348  21787341.2934   21787343.6324   21787340.977
        53.0004         48.0004
 -14462725.87048 -11232482.23347  21594492.5724   21594494.7364   21594492.892
        50.0004         46.0004
 -10861728.96648  -8428999.56847  22420191.4494   22420194.1034   22420191.661
        49.0004         45.0004
 -22369150.74249 -17390336.53548  20611174.7124   20611179.2154   20611174.039
        56.0004         52.0004
  -6160417.85547  -4742834.95946  23716558.9704   23716564.0764   23716559.008
        45.0004         41.0004
   3233307.59547   2532193.88546  24396969.7284   24396970.4834   24396969.163
        43.0004         38.0004
 15  1  8  1  6  0.0000000  0  8G12G05G15G18G21G24G25G13
 -16187956.55748 -12607723.17647  21818852.2944   21818853.9864   21818852.120
        52.0004         47.0004
  -3673791.55347  -2858746.72947  23623472.4374   23623474.7064   23623472.229
        47.0004         42.0004
 -18502634.51448 -14377919.59848  21787928.8344   21787930.6844   21787928.210
        53.0004         48.0004
 -14538405.79848 -11291453.60947  21580091.1754   21580093.4194   21580091.637
        50.0004         46.0004
 -10826350.05048  -8401431.59747  22426923.4104   22426925.6824   22426924.164
        49.0004         44.0004
 -22339772.52549 -17367444.41548  20616765.1094   20616769.4184   20616764.653
        56.0004         52.0004
  -6260092.54047  -4820503.53246  23697592.2934   23697597.0644   23697591.034
        46.0004         41.0004
   3274019.89647   2563917.72846  24404717.6134   24404719.7034   24404718.045
        43.0004         38.0004
 15  1  8  1  6 30.0000000  0  8G12G05G15G18G21G24G25G13
 -16257382.66348 -12661821.42547  21805640.9074   21805642.8544   21805640.600
        52.0004         47.0004
  -3584389.43647  -2789082.75947  23640485.1644   23640487.3744   23640484.610
        47.0004         42.0004
 -18499511.95848 -14375486.44848  21788522.5604   21788525.1244   21788522.573
        53.0004         48.0004
 -14613807.77748 -11350208.38847  21565742.8564   21565744.8254   21565742.896
        51.0004         46.0004
 -10790567.36748  -8373548.99047  22433732.8384   22433735.1954   22433733.524
        49.0004         45.0004
 -22310044.16149 -17344279.45248  20622422.1074   20622426.5504   20622421.754
        56.0004         52.0004
  -6359767.28147  -4898172.13446  23678624.9334   23678629.4454   23678624.170
        46.0004         41.0004
   3314686.94047   2595606.31046  24412455.9884   24412457.7334   24412455.823
        43.0004         38.0004
 15  1  8  1  7  0.0000000  0  8G12G05G15G18G21G24G25G13
 -16326509.77548 -12715686.68648  21792486.5354   21792488.0224   21792485.865
        52.0004         48.0004
  -3494719.40747  -2719210.04347  23657548.8434   23657550.7194   23657548.272
        46.0004         42.0004
 -18496352.66448 -14373024.66948  21789124.2604   21789126.4164   21789123.791
        53.0004         48.0004
 -14688929.90948 -11408745.10647  21551447.7324   21551449.1134   21551448.010
        51.0004         46.0004
 -10754383.89148  -8345354.07847  22440617.9924   22440621.4144   22440618.734
        49.0004         44.0004
 -22279968.82549 -17320844.11948  20628145.4394   20628149.9704   20628144.691
        56.0004         52.0004
  -6459439.92747  -4975839.11346  23659657.7314   23659662.1854   23659657.599
        46.0004         41.0004
   3355308.64847   2627259.57046  24420185.8274   24420187.0094   24420184.037
        43.0004         38.0004
 15  1  8  1  7 30.0000000  0  8G12G05G15G18G21G24G25G13
 -16395333.04748 -12769315.18948  21779389.8824   21779391.6894   21779389.715
        52.0004         48.0004
  -3404780.56647  -2649127.85247  23674664.0444   23674665.5894   23674664.254
        46.0004         42.0004
 -18493153.17448 -14370531.56548  21789732.8844   21789734.8104   21789732.653
        53.0004         48.0004
 -14763767.38848 -11467060.01847  21537206.5234   21537208.3064   21537206.823
        51.0004         46.0004
 -10717800.31448  -8316847.40447  22447580.5374   22447583.2834   22447580.429
        49.0004         45.0004
 -22249545.64349 -17297137.74048  20633934.5864   20633939.1774   20633934.008
        56.0004         52.0004
  -6559105.32947  -5053500.44046  23640691.8504   23640696.0584   23640691.942
        46.0004         41.0004
   3395888.18847   2658879.96246  24427907.4414   24427910.8274   24427908.422
        43.0004         38.0004
 15  1  8  1  8  0.0000000  0  8G12G05G15G18G21G24G25G13
 -16463849.03548 -12822704.25248  21766351.2414   21766353.5564   21766351.327
        52.0004         48.0004
  -3314575.22647  -2578837.99346  23691829.5444   23691831.1594   23691827.419
        46.0004         41.0004
 -18489912.92448 -14368006.70448  21790349.5944   21790351.1884   21790348.913
        53.0004         48.0004
 -14838318.12348 -11525151.49247  21523019.4944   21523022.0594   21523020.040
        51.0004         46.0004
 -10680817.77848  -8288029.84447  22454617.9824   22454620.7814   22454618.181
        49.0004         45.0004
 -22218776.74749 -17273161.96848  20639789.6584   20639794.1184   20639789.032
        56.0004         52.0004
  -6658761.02147  -5131154.20546  23621727.5364   23621732.0794   23621727.820
        46.0004         41.0004
   3436426.65947   2690468.36646  24435622.7634   24435624.0764   24435622.003
        43.0004         38.0004
 15  1  8  1  8 30.0000000  0  8G12G05G15G18G21G24G25G13
 -16532053.51348 -12875850.57548  21753372.1744   21753374.6474   21753372.118
        52.0004         48.0004
  -3224103.65647  -2508340.68146  23709043.8594   23709046.8644   23709045.085
        46.0004         41.0004
 -18486629.84448 -14365448.47648  21790974.5744   21790976.0074   21790973.892
        53.0004         48.0004
 -14912578.36148 -11583016.60547  21508888.3734   21508890.8254   21508888.863
        51.0004         46.0004
 -10643438.02448  -8258902.78347  22461731.6454   22461732.6444   22461731.345
        49.0004         44.0004
 -22187663.26349 -17248917.69748  20645710.2474   20645714.8914   20645709.901
        56.0004         52.0004
  -6758402.82447  -5208797.14046  23602766.6774   23602769.5714   23602766.964
        46.0004         41.0004
   3476926.15447   2722026.38746  24443329.4564   24443330.8694   24443328.419
        43.0004         38.0004
 15  1  8  1  9  0.0000000  0  8G12G05G15G18G21G24G25G13
 -16599948.08948 -12928755.42648  21740452.3794   21740454.0804   21740452.190
        52.0004         48.0004
  -3133371.72247  -2437640.49446  23726309.7554   23726313.6714   23726309.161
        46.0004         41.0004
 -18483307.35648 -14362859.52448  21791606.7014   21791608.6924   21791606.133
        53.0004         48.0004
 -14986549.71848 -11640656.61447  21494812.3174   21494814.4444   21494812.921
        51.0004         46.0004
 -10605668.14348  -8229471.71447  22468918.1884   22468920.9954   22468918.692
        49.0004         45.0004
 -22156211.36349 -17224409.71548  20651695.6314   20651699.9534   20651694.976
        56.0004         52.0004
  -6858032.38947  -5286430.55246  23583807.1684   23583811.9604   23583807.015
        45.0004         41.0004
   3517383.18747   2753551.32846  24451027.5134   24451030.4464   24451026.529
        43.0004         38.0004
 15  1  8  1  9 30.0000000  0  8G12G05G15G18G21G24G25G13
 -16667525.52048 -12981413.14948  21727592.8874   21727595.0624   21727592.184
        52.0004         48.0004
  -3042376.86247  -2366735.43846  23743624.3134   23743627.9844   23743625.936
        45.0004         41.0004
 -18479940.29648 -14360235.85448  21792247.0574   21792249.3534   21792246.960
        53.0004         48.0004
 -15060225.14848 -11698066.04147  21480792.8364   21480794.4054   21480793.167
        51.0004         46.0004
 -10567505.74548  -8199734.78047  22476180.5024   22476182.9214   22476180.940
        49.0004         44.0004
 -22124418.72349 -17199636.23048  20657745.4944   20657749.6884   20657744.920
        56.0004         52.0004
  -6957642.46047  -5364048.77346  23564852.9134   23564855.5924   23564852.642
        45.0004         40.0004
   3557803.09347   2785047.35346  24458718.4834   24458720.3984   24458718.537
        43.0004         38.0004
 15  1  8  1 10  0.0000000  0  8G12G05G15G18G21G24G25G13
 -16734788.38648 -13033825.74848  21714793.0994   21714795.8344   21714792.946
        52.0004         48.0004
  -2951125.75647  -2295630.69946  23760988.1034   23760991.7724   23760988.427
        45.0004         40.0004
 -18476533.40848 -14357581.14248  21792895.9264   21792897.4804   21792894.965
        53.0004         48.0004
 -15133607.77548 -11755247.29647  21466827.9664   21466830.0634   21466828.814
        51.0004         47.0004
 -10528959.05948  -8169698.42347  22483516.3844   22483518.0994   22483516.085
        49.0004         44.0004
 -22092292.87049 -17174603.08748  20663858.7104   20663863.4034   20663858.286
        56.0004         52.0004
  -7057235.74647  -5441653.90946  23545900.3004   23545903.0334   23545900.579
        45.0004         40.0004
   3598181.23947   2816510.80746  24466401.1904   24466405.6034   24466402.579
        42.0004         38.0004
 15  1  8  1 10 30.0000000  0  8G12G05G15G18G21G24G25G13
 -16801728.48748 -13085986.85248  21702054.7734   21702057.4114   21702053.978
        52.0004         48.0004
  -2859615.22747  -2224323.80846  23778401.5104   23778406.6644   23778403.081
        45.0004         40.0004
 -18473080.63948 -14354890.68548  21793553.0614   21793554.7144   21793552.230
        53.0004         48.0004
 -15206689.98548 -11812194.47047  21452921.0874   21452923.3934   21452921.596
        51.0004         47.0004
 -10490025.42148  -8139360.52547  22490924.2344   22490926.4984   22490924.571
        49.0004         44.0004
 -22059830.84449 -17149307.99948  20670035.9314   20670040.5224   20670035.538
        56.0004         52.0004
  -7156804.38847  -5519239.84546  23526952.9464   23526956.1124   23526953.607
        45.0004         40.0004
   3638523.69647   2847946.44746  24474079.9414   24474081.5294   24474078.318
        42.0004         38.0004
 15  1  8  1 11  0.0000000  0  8G12G05G15G18G21G24G25G13
 -16868344.93848 -13137895.75648  21689378.1214   21689380.5734   21689378.043
        52.0004         48.0004
  -2767849.21847  -2152817.84046  23795864.0584   23795868.8644   23795862.710
        45.0004         40.0004
 -18469582.86148 -14352165.15348  21794218.2254   21794219.9614   21794217.965
        53.0004         48.0004
 -15279471.19948 -11868907.10447  21439071.4324   21439073.0194   21439071.842
        51.0004         47.0004
 -10450708.81948  -8108724.22747  22498405.8204   22498408.4144   22498406.557
        49.0004         44.0004
 -22027036.38149 -17123753.86548  20676276.8024   20676280.9404   20676276.331
        56.0004         52.0004
  -7256347.37747  -5596805.79446  23508010.8444   23508013.4614   23508010.500
        44.0004         40.0004
   3678829.71847   2879353.71346  24481749.2054   24481751.9204   24481749.454
        42.0004         38.0004
 15  1  8  1 11 30.0000000  0  8G12G05G15G18G21G24G25G13
 -16934632.42848 -13189548.33548  21676764.5284   21676766.3144   21676763.930
        52.0004         48.0004
  -2675826.72547  -2081112.01346  23813376.1194   23813380.0354   23813375.566
        45.0004         40.0004
 -18466037.00948 -14349402.16348  21794893.2064   21794894.6694   21794892.923
        53.0004         48.0004
 -15351946.18648 -11925381.11447  21425279.8384   21425282.0074   21425280.303
        51.0004         47.0004
 -10411009.58648  -8077789.75247  22505960.6374   22505962.2414   22505960.928
        48.0004         44.0004
 -21993909.34649 -17097940.59548  20682580.6254   20682584.8174   20682580.103
        56.0004         52.0004
  -7355859.55747  -5674347.74346  23489073.6934   23489076.0714   23489073.283
        44.0004         40.0004
   3719102.43847   2910735.00946  24489414.3474   24489416.1124   24489412.102
        42.0004         37.0004
 15  1  8  1 12  0.0000000  0  8G12G05G15G18G21G24G25G13
 -17000591.83248 -13240945.25448  21664211.9384   21664215.0064   21664211.650
        52.0004         48.0004
  -2583553.56547  -2009210.87246  23830935.1244   23830940.0784   23830935.402
        45.0004         40.0004
 -18462445.96048 -14346603.94448  21795576.4954   21795578.4064   21795575.563
        53.0004         48.0004
 -15424116.68348 -11981617.84847  21411546.5564   21411548.0604   21411546.840
        52.0004         47.0004
 -10370933.76348  -8046561.84947  22513587.2574   22513588.2854   22513587.621
        48.0004         44.0004
 -21960455.43849 -17071872.61248  20688946.8174   20688950.7874   20688946.537
        56.0004         52.0004
  -7455342.05247  -5751866.55246  23470142.2484   23470145.6304   23470143.321
        44.0004         40.0004
   3759339.02847   2942088.19346  24497069.0834   24497072.8074   24497069.167
        42.0004         38.0004
 15  1  8  1 12 30.0000000  0  8G12G05G15G18G21G24G25G13
 -17066219.36448 -13292083.56948  21651723.9024   21651725.9224   21651723.949
        52.0004         48.0004
  -2491030.38847  -1937114.90546  23848541.6354   23848545.9714   23848540.782
        45.0004         41.0004
 -18458807.52548 -14343768.81448  21796268.9144   21796270.5094   21796268.085
        53.0004         48.0004
 -15495979.37748 -12037614.74647  21397871.3184   21397873.2264   21397871.938
        52.0004         47.0004
 -10330482.54748  -8015041.43047  22521284.4864   22521286.9614   22521284.552
        48.0004         44.0004
 -21926675.70949 -17045550.73448  20695374.7264   20695378.7354   20695374.192
        56.0004         51.0004
  -7554790.82447  -5829359.07746  23451218.3614   23451221.7924   23451218.315
        45.0004         40.0004
   3799541.37047   2973414.64546  24504720.0204   24504722.1884   24504721.014
        42.0004         37.0004
 15  1  8  1 13  0.0000000  0  8G12G05G15G18G21G24G25G13
 -17131511.64348 -13342960.64948  21639299.0384   21639301.2844   21639298.405
        53.0004         48.0004
  -2398258.47847  -1864825.11846  23866196.1814   23866199.9554   23866195.281
        45.0004         41.0004
 -18455121.08648 -14340896.28048  21796970.1164   21796972.0914   21796969.526
        53.0004         48.0004
 -15567530.75748 -12093369.06147  21384255.8894   21384257.3154   21384256.249
        52.0004         47.0004
 -10289658.66848  -7983230.62447  22529052.6524   22529054.7634   22529053.157
        48.0004         43.0004
 -21892572.09449 -17018976.48348  20701864.5344   20701868.3464   20701863.896
        56.0004         51.0004
  -7654202.89747  -5906823.01046  23432300.5944   23432304.2154   23432301.099
        45.0004         40.0004
   3839710.76547   3004715.41546  24512363.6064   24512364.1974   24512362.464
        42.0004         38.0004
 15  1  8  1 13 30.0000000  0  8G12G05G15G18G21G24G25G13
 -17196466.80448 -13393575.04548  21626938.7444   21626940.9954   21626938.577
        53.0004         48.0004
  -2305240.41047  -1792343.54246  23883898.3094   23883900.8204   23883898.979
        45.0004         41.0004
 -18451386.48548 -14337986.20748  21797681.1674   21797682.6934   21797680.847
        53.0004         48.0004
 -15638769.79048 -12148879.99747  21370698.9834   21370700.8104   21370699.283
        52.0004         47.0004
 -10248465.97848  -7951132.43247  22536892.6514   22536894.3424   22536892.523
        48.0004         44.0004
 -21858148.04249 -16992152.54448  20708415.2544   20708419.1384   20708414.830
        56.0004         52.0004
  -7753576.36947  -5984256.86846  23413390.2414   23413394.6744   23413389.722
        45.0004         41.0004
   3879847.06447   3035990.42346  24520001.7664   24520003.7624   24520001.266
        42.0004         38.0004
 15  1  8  1 14  0.0000000  0  8G12G05G15G18G21G24G25G13
 -17261078.74748 -13443921.99248  21614643.3524   21614645.6554   21614642.762
        53.0004         48.0004
  -2211974.95947  -1719669.19246  23901646.3944   23901648.8464   23901646.438
        46.0004         41.0004
 -18447599.25548 -14335035.12748  21798401.8314   21798403.6334   21798401.319
        53.0004         48.0004
 -15709690.48048 -12204142.86147  21357203.5254   21357205.2184   21357203.651
        52.0004         47.0004
 -10206902.99748  -7918745.68547  22544800.4694   22544802.2294   22544800.951
        48.0004         43.0004
 -21823401.70749 -16965077.47748  20715026.9594   20715031.2554   20715026.471
        56.0004         51.0004
  -7852905.12447  -6061655.87146  23394488.9654   23394492.5794   23394488.225
        45.0004         41.0004
   3919954.59547   3067243.01146  24527634.7794   24527636.0774   24527634.653
        42.0004         37.0004
 15  1  8  1 14 30.0000000  0  8G12G05G15G18G21G24G25G13
 -17325346.57548 -13494000.80048  21602413.5234   21602416.0264   21602413.350
        53.0004         48.0004
  -2118465.92747  -1646805.02946  23919440.3294   23919443.6954   23919439.190
        46.0004         41.0004
 -18443760.58448 -14332043.96148  21799132.0974   21799134.4934   21799131.825
        53.0004         48.0004
 -15780292.30448 -12259157.26647  21343767.9374   21343770.2054   21343768.594
        52.0004         47.0004
 -10164974.24448  -7886073.96047  22552780.3444   22552782.1664   22552780.290
        48.0004         43.0004
 -21788337.46749 -16937754.69548  20721699.6494   20721703.7984   20721699.042
        56.0004         51.0004
  -7952188.20747  -6139019.28646  23375596.0304   23375600.6144   23375596.604
        46.0004         41.0004
   3960032.60647   3098472.57346  24535261.5524   24535264.1364   24535261.185
        42.0004         38.0004
 15  1  8  1 15  0.0000000  0  8G12G05G15G18G21G24G25G13
 -17389267.62548 -13543809.40148  21590249.8934   21590252.0484   21590249.659
        53.0004         48.0004
  -2024715.28447  -1573752.60346  23937281.1754   23937284.1344   23937280.645
        46.0004         41.0004
 -18439869.65348 -14329012.07148  21799872.2514   21799874.3534   21799871.413
        53.0004         48.0004
 -15850572.91448 -12313921.37547  21330394.2484   21330396.1844   21330395.028
        52.0004         47.0004
 -10122682.67148  -7853119.48347  22560828.3404   22560829.3624   22560827.579
        48.0004         43.0004
 -21752956.89549 -16910185.41948  20728432.1654   20728436.7704   20728431.612
        56.0004         51.0004
  -8051422.92747  -6216345.01146  23356711.5994   23356717.3904   23356712.644
        46.0004         41.0004
   4000081.71047   3129679.63246  24542881.6354   24542884.1884   24542882.276
        42.0004         37.0004
 15  1  8  1 15 30.0000000  0  8G12G05G15G18G21G24G25G13
 -17452839.82248 -13593346.16348  21578152.4544   21578154.7274   21578151.844
        53.0004         48.0004
  -1930725.14747  -1500513.57046  23955167.5154   23955170.3564   23955166.696
        46.0004         41.0004
 -18435926.24748 -14325939.30748  21800622.7464   21800625.1704   21800622.696
        53.0004         48.0004
 -15920530.70848 -12368433.94347  21317081.6724   21317083.9834   21317082.134
        52.0004         47.0004
 -10080031.74848  -7819885.03247  22568944.3004   22568944.8244   22568944.404
        48.0004         44.0004
 -21717263.54749 -16882372.41848  20735224.5164   20735228.9994   20735223.895
        56.0004         51.0004
  -8150607.19947  -6293631.44247  23337837.3844   23337842.9404   23337836.934
        46.0004         42.0004
   4040102.00347   3160864.22346  24550497.6054   24550499.1274   24550498.167
        42.0004         37.0004
 15  1  8  1 16  0.0000000  0  8G12G05G15G18G21G24G25G13
 -17516059.13248 -13642607.94648  21566122.4614   21566124.7054   21566122.006
        53.0004         48.0004
  -1836496.35647  -1427088.56346  23973098.6884   23973101.3214   23973098.743
        46.0004         41.0004
 -18431928.37248 -14322824.08648  21801383.6244   21801385.8804   21801383.168
        53.0004         48.0004
 -15990162.14848 -12422692.19947  21303831.0474   21303833.6534   21303831.444
        52.0004         47.0004
 -10037022.62248  -7786371.42447  22577127.8644   22577129.9564   22577128.454
        48.0004         44.0004
 -21681258.55649 -16854316.57548  20742075.6894   20742080.3774   20742075.061
        56.0004         51.0004
  -8249737.05447  -6370875.46847  23318973.7184   23318980.1234   23318973.521
        46.0004         42.0004
   4080095.75247   3192028.12546  24558109.2274   24558111.5354   24558109.118
        42.0004         37.0004
 15  1  8  1 16 30.0000000  0  8G12G05G15G18G21G24G25G13
 -17578926.39048 -13691595.40248  21554158.9454   21554160.7544   21554159.099
        53.0004         48.0004
  -1742034.66847  -1353482.05946  23991073.8934   23991076.6764   23991072.847
        46.0004         41.0004
 -18427878.77648 -14319668.56948  21802154.3064   21802156.1074   21802154.299
        52.0004         48.0004
 -16059468.37448 -12476697.04747  21290642.8294   21290644.1614   21290642.588
        52.0004         47.0004
  -9993661.43548  -7752583.49747  22585378.8314   22585381.4024   22585379.401
        48.0004         43.0004
 -21644947.24849 -16826022.04748  20748985.9694   20748989.9454   20748985.468
        56.0004         51.0004
  -8348813.42347  -6448077.79147  23300119.2424   23300126.8674   23300119.629
        46.0004         42.0004
   4120060.21847   3223169.21846  24565713.0174   24565716.0934   24565714.541
        42.0004         37.0004
 15  1  8  1 17  0.0000000  0  8G12G05G15G18G21G24G25G13
 -17641429.66448 -13740299.23148  21542264.9834   21542266.8984   21542264.737
        53.0004         48.0004
  -1647332.52947  -1279688.20447  24009094.8104   24009096.6394   24009095.121
        46.0004         42.0004
 -18423767.32348 -14316464.84548  21802936.7004   21802938.4604   21802935.980
        52.0004         48.0004
 -16128437.37648 -12530439.12747  21277518.7824   21277519.9274   21277518.761
        52.0004         47.0004
  -9949941.94948  -7718516.36047  22593699.2674   22593701.6184   22593699.468
        48.0004         44.0004
 -21608322.59049 -16797483.35048  20755954.9964   20755959.4874   20755954.529
        56.0004         51.0004
  -8447824.02647  -6525228.89447  23281278.8114   23281285.4484   23281278.696
        47.0004         42.0004
   4160005.75747   3254295.56746  24573314.7144   24573316.2034   24573314.320
        42.0004         37.0004
 15  1  8  1 17 30.0000000  0  8G12G05G15G18G21G24G25G13
 -17703578.58348 -13788726.94148  21530438.6384   21530440.3284   21530438.477
        53.0004         48.0004
  -1552403.91747  -1205717.87646  24027159.9374   24027161.8434   24027159.681
        46.0004         41.0004
 -18419605.26548 -14313221.68948  21803728.9594   21803730.3534   21803728.209
        53.0004         48.0004
 -16197079.38748 -12583926.40847  21264456.3574   21264457.7824   21264456.867
        52.0004         47.0004
  -9905878.90248  -7684181.52647  22602084.1084   22602085.3614   22602084.581
        48.0004         44.0004
 -21571399.38849 -16768712.02648  20762981.7854   20762985.9224   20762981.358
        56.0004         51.0004
  -8546778.43447  -6602336.19647  23262448.6674   23262456.0624   23262447.648
        47.0004         42.0004
   4199920.72147   3285398.08246  24580912.0444   24580912.3934   24580910.124
        42.0004         37.0004
 15  1  8  1 18  0.0000000  0  8G12G05G15G18G21G24G25G13
 -17765359.38348 -13836867.80248  21518682.3694   21518683.7654   21518681.877
        53.0004         48.0004
  -1457239.77847  -1131564.02246  24045267.8464   24045271.4424   24045267.074
        46.0004         41.0004
 -18415380.89648 -14309929.97848  21804532.5744   21804535.0104   21804531.924
        53.0004         48.0004
 -16265381.13148 -12637148.54247  21251458.6314   21251460.6954   21251458.980
        52.0004         47.0004
  -9861463.61848  -7649572.22147  22610535.1224   22610539.0614   22610535.988
        48.0004         44.0004
 -21534168.45749 -16739700.90448  20770066.1454   20770071.0604   20770065.571
        56.0004         51.0004
  -8645662.94347  -6679389.01347  23243630.6234   23243639.1604   23243630.677
        47.0004         43.0004
   4239817.12347   3316486.12246  24588501.9044   24588503.4304   24588504.066
        42.0004         37.0004
 15  1  8  1 18 30.0000000  0  8G12G05G15G18G21G24G25G13
 -17826777.71648 -13884726.22548  21506994.2034   21506996.4504   21506993.991
        53.0004         48.0004
  -1361850.65447  -1057234.84946  24063420.2454   24063423.0254   24063418.724
        46.0004         41.0004
 -18411101.65448 -14306595.51248  21805346.8324   21805349.1854   21805347.104
        53.0004         48.0004
 -16333348.20648 -12690109.88747  21238525.0274   21238526.5914   21238525.101
        52.0004         47.0004
  -9816708.02148  -7614697.72547  22619052.3384   22619054.6634   22619052.887
        48.0004         43.0004
 -21496640.94649 -16710458.69048  20777207.7644   20777212.0794   20777207.192
        56.0004         51.0004
  -8744483.08347  -6756391.70047  23224825.6034   23224833.2464   23224825.521
        47.0004         43.0004
   4279687.53547   3347553.90146  24596089.8144   24596090.8654   24596088.545
        42.0004         37.0004
 15  1  8  1 19  0.0000000  0  8G12G05G15G18G21G24G25G13
 -17887824.47448 -13932295.11648  21495377.6084   21495379.9244   21495377.319
        53.0004         49.0004
  -1266231.79147   -982726.67146  24081616.0284   24081617.2774   24081616.078
        45.0004         41.0004
 -18406760.05048 -14303212.45948  21806173.2894   21806175.6394   21806172.938
        53.0004         48.0004
 -16400972.19348 -12742803.90047  21225656.7044   21225658.2564   21225656.883
        52.0004         47.0004
  -9771608.11348  -7579554.92347  22627633.5744   22627638.0534   22627634.256
        48.0004         43.0004
 -21458812.00749 -16680981.59648  20784406.0984   20784410.3994   20784405.401
        56.0004         51.0004
  -8843229.54547  -6833336.97447  23206036.0994   23206042.4884   23206036.290
        47.0004         43.0004
   4319539.50346   3378607.33246  24603674.5024   24603675.9664   24603673.204
        41.0004         37.0004
 15  1  8  1 19 30.0000000  0  8G12G05G15G18G21G24G25G13
 -17948501.50348 -13979575.90348  21483831.2744   21483833.4474   21483831.351
        53.0004         49.0004
  -1170389.77247   -908044.59346  24099854.2914   24099856.0364   24099852.329
        45.0004         40.0004
 -18402359.62148 -14299783.55648  21807010.3674   21807012.9624   21807010.188
        53.0004         48.0004
 -16468255.06548 -12795232.11948  21212852.9354   21212854.8954   21212853.485
        52.0004         48.0004
  -9726170.17748  -7544148.73447  22636281.4344   22636284.3754   22636281.483
        48.0004         43.0004
 -21420688.46549 -16651274.94748  20791661.0104   20791665.1004   20791660.477
        56.0004         51.0004
  -8941904.04648  -6910226.16447  23187258.5074   23187265.1904   23187258.352
        48.0004         43.0004
   4359369.32146   3409643.52746  24611251.5824   24611254.9704   24611251.391
        41.0004         37.0004
 15  1  8  1 20  0.0000000  0  8G12G05G15G18G21G24G25G13
 -18008800.80848 -14026562.35848  21472356.7274   21472358.7084   21472356.506
        53.0004         49.0004
  -1074321.56847   -833186.28346  24118133.9064   24118136.9294   24118133.954
        45.0004         40.0004
 -18397894.39948 -14296304.16848  21807860.2224   21807862.6644   21807859.279
        53.0004         48.0004
 -16535189.22648 -12847388.60048  21200116.5024   21200118.3494   21200116.494
        52.0004         48.0004
  -9680392.70648  -7508477.99447  22644992.5364   22644995.0374   22644992.897
        48.0004         44.0004
 -21382267.93049 -16621336.86348  20798971.8804   20798976.3344   20798971.303
        56.0004         51.0004
  -9040498.68448  -6987053.13047  23168496.9474   23168502.5174   23168497.421
        48.0004         43.0004
   4399182.76847   3440666.95046  24618826.9454   24618833.1674   24618826.787
        42.0004         37.0004
 15  1  8  1 20 30.0000000  0  8G12G05G15G18G21G24G25G13
 -18068724.45948 -14073256.09648  21460953.6504   21460955.6374   21460953.486
        53.0004         49.0004
   -978033.62147   -758156.72446  24136457.4894   24136460.8254   24136456.546
        45.0004         40.0004
 -18393368.07348 -14292777.17548  21808721.3134   21808723.9784   21808721.192
        53.0004         48.0004
 -16601777.02848 -12899275.18148  21187444.6544   21187447.0834   21187445.366
        52.0004         48.0004
  -9634283.27548  -7472548.56947  22653766.4264   22653768.2634   22653766.968
        48.0004         43.0004
 -21343556.74449 -16591172.29948  20806338.5294   20806343.2984   20806337.880
        56.0004         51.0004
  -9139015.13348  -7063819.16747  23149750.0564   23149755.3374   23149751.308
        48.0004         43.0004
   4438976.35347   3471674.90546  24626400.8054   24626405.3924   24626400.541
        42.0004         37.0004
 15  1  8  1 21  0.0000000  0  8G12G05G15G18G21G24G25G13
 -18128269.88648 -14119655.11948  21449622.6704   21449624.4944   21449622.109
        53.0004         49.0004
   -881527.87347   -682957.47546  24154822.0044   24154823.6364   24154822.149
        45.0004         40.0004
 -18388780.00248 -14289202.06748  21809594.6564   21809596.4914   21809594.087
        53.0004         48.0004
 -16668016.10448 -12950890.04748  21174840.3324   21174842.1594   21174840.552
        52.0004         48.0004
  -9587843.74948  -7436361.96147  22662603.9874   22662605.7774   22662604.354
        48.0004         43.0004
 -21304557.39649 -16560783.19848  20813759.8584   20813764.2294   20813759.302
        56.0004         51.0004
  -9237450.81548  -7140522.26947  23131019.5034   23131023.8594   23131018.975
        48.0004         43.0004
   4478750.88147   3502668.00946  24633969.5194   24633973.2454   24633968.002
        42.0004         37.0004
 15  1  8  1 21 30.0000000  0  8G12G05G15G18G21G24G25G13
 -18187430.12748 -14165754.00048  21438365.0214   21438366.5884   21438364.640
        53.0004         49.0004
   -784801.99347   -607586.68746  24173228.5234   24173230.8924   24173228.074
        45.0004         40.0004
 -18384124.44748 -14285574.37148  21810480.8184   21810482.2914   21810480.486
        53.0004         48.0004
 -16733899.56248 -13002227.80748  21162302.6534   21162304.9364   21162303.073
        53.0004         48.0004
  -9541073.23648  -7399917.40247  22671504.1544   22671505.7024   22671504.703
        48.0004         44.0004
 -21265267.34749 -16530167.58248  20821236.6734   20821240.7824   20821236.094
        56.0004         51.0004
  -9335798.48148  -7217156.79547  23112303.6724   23112308.5944   23112304.178
        48.0004         43.0004
   4518511.79947   3533650.49746  24641534.7054   24641539.9864   24641535.555
        42.0004         38.0004
 15  1  8  1 22  0.0000000  0  8G12G05G15G18G21G24G25G13
 -18246206.03648 -14211553.39048  21427179.6434   21427181.7564   21427179.733
        53.0004         49.0004
   -687861.25847   -532048.46946  24191675.1874   24191678.9784   24191675.307
        44.0004         40.0004
 -18379404.32948 -14281896.35748  21811378.9634   21811381.0944   21811378.243
        53.0004         48.0004
 -16799429.04548 -13053289.73248  21149832.5354   21149834.8924   21149833.191
        53.0004         48.0004
  -9493977.87548  -7363219.74947  22680466.1934   22680469.4884   22680466.543
        48.0004         43.0004
 -21225692.57249 -16499330.08548  20828767.2934   20828771.4864   20828766.820
        56.0004         51.0004
  -9434058.78348  -7293723.24147  23093604.9954   23093610.3774   23093605.604
        48.0004         43.0004
   4558256.43547   3564620.29046  24649100.0824   24649101.9614   24649100.181
        42.0004         38.0004
 15  1  8  1 22 30.0000000  0  8G12G05G15G18G21G24G25G13
 -18304592.45448 -14257049.28548  21416069.2564   21416070.8214   21416068.750
        53.0004         49.0004
   -590705.46747   -456342.67546  24210163.7554   24210166.5874   24210162.051
        44.0004         40.0004
 -18374615.83548 -14278165.07448  21812290.3064   21812292.5264   21812289.823
        53.0004         48.0004
 -16864599.47048 -13104071.87648  21137430.9894   21137432.7934   21137431.633
        52.0004         48.0004
  -9446557.89348  -7326269.11347  22689491.9234   22689492.6284   22689490.654
        48.0004         44.0004
 -21185832.80349 -16468270.52448  20836352.6334   20836356.5354   20836351.917
        56.0004         51.0004
  -9532226.24847  -7370217.34947  23074924.9324   23074930.3824   23074925.203
        47.0004         43.0004
   4597988.35347   3595580.14446  24656662.7224   24656664.4814   24656661.104
        42.0004         38.0004
 15  1  8  1 23  0.0000000  0  8G12G05G15G18G21G24G25G13
 -18362591.94048 -14302243.67548  21405032.2464   21405033.5004   21405032.075
        53.0004         49.0004
   -493341.40347   -380474.58146  24228691.9354   24228693.5884   24228689.595
        44.0004         40.0004
 -18369763.23648 -14274383.83648  21813213.3874   21813215.7104   21813212.640
        53.0004         48.0004
 -16929413.25548 -13154576.11448  21125097.6684   21125099.8864   21125098.143
        53.0004         48.0004
  -9398820.88348  -7289071.45747  22698574.5824   22698575.9824   22698574.270
        48.0004         43.0004
 -21145695.11849 -16436994.40748  20843990.4044   20843994.7744   20843989.797
        56.0004         51.0004
  -9630303.20147  -7446640.92147  23056262.3184   23056266.2554   23056261.390
        47.0004         43.0004
   4637703.40447   3626526.84846  24664218.8454   24664221.6064   24664219.631
        42.0004         38.0004
 15  1  8  1 23 30.0000000  0  8G12G05G15G18G21G24G25G13
 -18420196.02448 -14347129.96548  21394070.7974   21394072.0204   21394070.126
        53.0004         49.0004
   -395765.34447   -304441.30946  24247259.7764   24247261.8044   24247260.049
        45.0004         40.0004
 -18364839.53648 -14270547.19948  21814150.2004   21814152.3574   21814149.831
        53.0004         48.0004
 -16993862.54048 -13204796.34148  21112833.4494   21112835.6394   21112833.944
        53.0004         48.0004
  -9350763.94748  -7251624.50347  22707719.7264   22707721.8614   22707720.041
        48.0004         44.0004
 -21105276.25349 -16405499.19148  20851682.0244   20851686.2974   20851681.367
        55.0004         51.0004
  -9728281.02447  -7522987.25247  23037616.5834   23037621.1584   23037615.855
        47.0004         43.0004
   4677408.48647   3657465.80346  24671774.1454   24671776.6974   24671772.527
        42.0004         37.0004
 15  1  8  1 24  0.0000000  0  8G12G05G15G18G21G24G25G13
 -18477401.01948 -14391705.26648  21383184.5644   21383186.6944   21383184.099
        53.0004         48.0004
   -297978.06047   -228243.44346  24265867.9614   24265870.7844   24265867.828
        45.0004         40.0004
 -18359843.08048 -14266653.86448  21815100.7204   21815103.7054   21815100.635
        53.0004         48.0004
 -17057944.05148 -13254729.98148  21100639.2854   21100641.3294   21100639.802
        53.0004         48.0004
  -9302389.49948  -7213930.13247  22716924.5574   22716924.7174   22716924.720
        48.0004         43.0004
 -21064577.31649 -16373785.73248  20859426.4584   20859430.7984   20859425.959
        55.0004         51.0004
  -9826155.89447  -7599253.36647  23018991.6244   23018996.3844   23018991.442
        47.0004         43.0004
   4717105.22947   3688398.25946  24679326.8204   24679331.1404   24679326.711
        42.0004         37.0004
 15  1  8  1 24 30.0000000  0  8G12G05G15G18G21G24G25G13
 -18534213.61748 -14435974.80948  21372373.5394   21372375.3854   21372373.044
        53.0004         49.0004
   -199990.94947   -151889.86446  24284514.1884   24284517.6064   24284512.304
        45.0004         40.0004
 -18354782.09648 -14262710.25248  21816064.2914   21816066.4504   21816064.147
        53.0004         48.0004
 -17121664.62648 -13304382.36348  21088513.2514   21088515.3014   21088514.014
        53.0004         48.0004
  -9253708.50948  -7175996.88447  22726188.5844   22726191.4244   22726187.982
        48.0004         43.0004
 -21023610.14349 -16341863.25748  20867222.1784   20867226.8224   20867221.635
        55.0004         51.0004
  -9923934.10548  -7675444.15047  23000385.4464   23000391.5634   23000384.157
        48.0004         43.0004
   4756785.51646   3719317.88346  24686876.2014   24686879.9224   24686878.229
        41.0004         36.0004
 15  1  8  1 25  0.0000000  0  8G12G05G15G18G21G24G25G13
 -18590620.31748 -14479928.07148  21361639.6004   21361641.4854   21361638.998
        53.0004         49.0004
   -101794.99847    -75373.55746  24303200.9374   24303203.9614   24303197.858
        45.0004         40.0004
 -18349644.41548 -14258706.87348  21817041.8204   21817044.1104   21817041.181
        53.0004         48.0004
 -17185010.86748 -13353743.06648  21076458.7684   21076460.4904   21076459.287
        53.0004         48.0004
  -9204713.08148  -7137818.64147  22735512.4644   22735513.1144   22735511.895
        48.0004         43.0004
 -20982365.19949 -16309724.34548  20875071.1134   20875075.3364   20875070.621
        55.0004         51.0004
 -10021601.67148  -7751548.73147  22981799.4094   22981805.7734   22981799.526
        48.0004         43.0004
   4796461.63446   3750234.27946  24694428.7514   24694430.3034   24694426.749
        41.0004         37.0004
 15  1  8  1 25 30.0000000  0  9G12G05G15G18G21G24G25G13G22
 -18646623.93948 -14523567.24748  21350982.3954   21350984.7754   21350981.835
        53.0004         49.0004
     -3397.39947      1299.88046  24321925.4024   24321928.8984   24321925.836
        45.0004         41.0004
 -18344434.16748 -14254646.94748  21818033.4714   21818035.5214   21818033.161
        53.0004         48.0004
 -17247985.65248 -13402814.32848  21064475.3334   21064477.1214   21064475.442
        53.0004         48.0004
  -9155411.24948  -7099401.63547  22744892.6244   22744895.8064   22744892.981
        48.0004         43.0004
 -20940850.70249 -16277375.39148  20882971.1654   20882975.4714   20882970.411
        55.0004         51.0004
 -10119161.14048  -7827569.07447  22963234.4684   22963240.7174   22963234.097
        48.0004         43.0004
   4836129.05046   3781143.90346  24701977.3804   24701980.1654   24701977.961
        41.0004         37.0004
  -1687796.60148  -1270340.81046  24328749.0844   24328751.3604   24328749.265
        48.0004         38.0004
 15  1  8  1 26  0.0000000  0  9G12G05G15G18G21G24G25G13G22
 -18702221.08848 -14566889.68648  21340402.6444   21340405.4264   21340402.500
        53.0004         49.0004
     95200.50547     78129.38646  24340688.4134   24340691.0194   24340688.086
        45.0004         40.0004
 -18339149.81248 -14250529.28348  21819039.2564   21819041.3424   21819038.441
        53.0004         48.0004
 -17310586.17348 -13451593.95248  21052563.0974   21052564.6064   21052563.209
        53.0004         48.0004
  -9105805.48348  -7060747.82047  22754334.8944   22754334.5884   22754333.421
        48.0004         43.0004
 -20899067.51449 -16244817.05848  20890922.1614   20890926.5714   20890921.587
        55.0004         51.0004
 -10216608.86048  -7903502.34847  22944691.1664   22944696.0834   22944690.615
        48.0004         43.0004
   4875789.50246   3812048.11946  24709522.9634   24709526.1284   24709524.186
        41.0004         37.0004
  -1787951.90347  -1348383.89546  24309689.2154   24309691.3904   24309690.399
        45.0004         38.0004
 15  1  8  1 26 30.0000000  0  9G12G05G15G18G21G24G25G13G22
 -18757409.21448 -14609893.41348  21329901.0134   21329902.9964   21329900.416
        53.0004         49.0004
    193996.82847    155113.51846  24359488.6954   24359490.3834   24359487.353
        45.0004         40.0004
 -18333789.97648 -14246352.79648  21820058.6534   21820061.2824   21820058.766
        53.0004         48.0004
 -17372809.77648 -13500079.87348  21040722.1744   21040724.2114   21040722.797
        53.0004         48.0004
  -9055898.28148  -7021859.08047  22763830.9074   22763832.3674   22763830.186
        48.0004         43.0004
 -20857018.32449 -16212051.45948  20898923.3964   20898928.1514   20898922.594
        55.0004         51.0004
 -10313941.92148  -7979346.26447  22926169.4764   22926174.3524   22926168.942
        48.0004         44.0004
   4915444.23747   3842947.84546  24717070.1014   24717074.1244   24717069.710
        42.0004         37.0004
  -1888046.64347  -1426379.78546  24290642.0464   24290643.3384   24290643.119
        44.0004         39.0004
 15  1  8  1 27  0.0000000  0  9G12G05G15G18G21G24G25G13G22
 -18812187.75548 -14652577.98048  21319477.1774   21319479.0064   21319477.242
        53.0004         49.0004
    292987.43447    232249.03446  24378325.8884   24378327.7514   24378325.068
        45.0004         40.0004
 -18328355.57948 -14242118.20548  21821093.1164   21821095.3574   21821092.731
        53.0004         48.0004
 -17434655.93148 -13548271.66848  21028952.1564   21028955.0784   21028953.276
        53.0004         48.0004
  -9005694.17948  -6982739.02547  22773381.9364   22773385.2624   22773383.956
        48.0004         43.0004
 -20814706.69949 -16179081.37248  20906975.1074   20906979.7394   20906974.619
        55.0004         51.0004
 -10411159.11148  -8055099.89847  22907668.9394   22907673.8274   22907669.113
        48.0004         44.0004
   4955092.69647   3873842.70546  24724614.4594   24724618.9564   24724615.985
        42.0004         37.0004
  -1988080.50347  -1504328.24946  24271606.1994   24271607.2134   24271607.046
        43.0004         39.0004
 15  1  8  1 27 30.0000000  0  9G12G05G15G18G21G24G25G13G22
 -18866551.13448 -14694939.03948  21309132.1384   21309133.5434   21309131.377
        53.0004         49.0004
    392173.45947    309536.83446  24397200.3214   24397201.8174   24397198.906
        44.0004         40.0004
 -18322842.80648 -14237822.55648  21822142.4454   21822144.5584   21822141.890
        53.0004         48.0004
 -17496119.93448 -13596165.69648  21017256.5164   21017258.9944   21017256.921
        53.0004         48.0004
  -8955193.28248  -6943387.67847  22782993.7064   22782996.1944   22782993.944
        48.0004         44.0004
 -20772132.32149 -16145906.53348  20915076.6584   20915081.7104   20915076.057
        55.0004         51.0004
 -10508254.91548  -8130758.95347  22889191.8904   22889198.2274   22889193.398
        48.0004         44.0004
   4994737.82347   3904734.96846  24732159.3854   24732162.7234   24732158.307
        42.0004         37.0004
  -2088048.53247  -1582225.40146  24252582.4034   24252583.4824   24252583.409
        43.0004         38.0004
 15  1  8  1 28  0.0000000  0  9G12G05G15G18G21G24G25G13G22
 -18920497.74448 -14736975.35448  21298866.6734   21298868.0704   21298866.407
        53.0004         49.0004
    491552.17147    386974.76846  24416110.4294   24416113.0754   24416110.111
        44.0004         40.0004
 -18317251.50348 -14233465.70948  21823206.2174   21823208.6124   21823205.820
        53.0004         48.0004
 -17557199.81748 -13643760.41348  21005634.2084   21005635.8824   21005634.160
        53.0004         48.0004
  -8904398.83148  -6903807.59147  22792659.3124   22792661.9864   22792660.178
        48.0004         43.0004
 -20729298.32849 -16112529.40548  20923227.9164   20923232.8764   20923227.279
        55.0004         51.0004
 -10605227.14348  -8206321.69547  22870740.0464   22870745.1974   22870738.936
        48.0004         44.0004
   5034380.48247   3935625.28146  24739703.5354   24739707.4114   24739703.369
        42.0004         37.0004
  -2187948.87347  -1660069.82046  24233573.1714   24233574.4214   24233574.002
        43.0004         38.0004
 15  1  8  1 28 30.0000000  0  9G12G05G15G18G21G24G25G13G22
 -18974029.82449 -14778688.63948  21288679.5414   21288681.1454   21288679.568
        54.0004         49.0004
    591116.49647    464557.34846  24435055.9024   24435059.1054   24435055.852
        44.0004         39.0004
 -18311585.29248 -14229050.48748  21824284.2994   21824286.6274   21824284.198
        53.0004         48.0004
 -17617898.49348 -13691058.07948  20994083.1894   20994084.8194   20994083.838
        53.0004         48.0004
  -8853318.92548  -6864005.06747  22802379.1174   22802382.3884   22802380.117
        48.0004         44.0004
 -20686211.24049 -16078955.05448  20931427.3474   20931431.4974   20931426.811
        55.0004         51.0004
 -10702077.77948  -8281789.69947  22852308.4284   22852314.8214   22852308.619
        48.0004         44.0004
   5074016.44047   3966510.39046  24747245.3994   24747248.7144   24747247.018
        42.0004         37.0004
  -2287784.64747  -1737863.92046  24214575.1174   24214576.7524   24214575.426
        43.0004         39.0004
 15  1  8  1 29  0.0000000  0  9G12G05G15G18G21G24G25G13G22
 -19027135.83948 -14820069.94148  21278573.8784   21278575.1814   21278573.444
        53.0004         49.0004
    690873.56747    542290.09746  24454039.4824   24454043.5954   24454040.576
        44.0004         39.0004
 -18305834.01748 -14224568.99448  21825378.8914   21825380.9874   21825378.479
        53.0004         48.0004
 -17678204.42048 -13738049.71248  20982607.8164   20982609.4464   20982607.995
        53.0004         48.0004
  -8801947.30148  -6823975.24647  22812155.3744   22812157.0224   22812156.025
        48.0004         44.0004
 -20642864.53449 -16045178.41148  20939675.8984   20939680.2954   20939675.157
        55.0004         51.0004
 -10798794.80548  -8357153.58247  22833903.6874   22833909.3804   22833904.052
        48.0004         44.0004
   5113655.85347   3997398.18646  24754789.5034   24754793.2234   24754787.419
        42.0004         37.0004
  -2387544.52947  -1815598.91646  24195590.6754   24195593.1884   24195591.071
        43.0004         39.0004
 15  1  8  1 29 30.0000000  0  9G12G05G15G18G21G24G25G13G22
 -19079817.54949 -14861120.60448  21268548.7124   21268550.3934   21268548.562
        54.0004         49.0004
    790817.18447    620168.22846  24473058.0534   24473062.4924   24473058.497
        43.0004         39.0004
 -18300000.69448 -14220023.55548  21826489.2204   21826491.3774   21826488.768
        53.0004         48.0004
 -17738119.41148 -13784736.71648  20971206.1334   20971207.7724   20971206.522
        53.0004         48.0004
  -8750290.70248  -6783723.34347  22821985.4804   22821987.4634   22821985.155
        48.0004         43.0004
 -20599264.71049 -16011204.52348  20947972.5754   20947976.7434   20947972.027
        55.0004         51.0004
 -10895379.36248  -8432414.24747  22815523.0464   22815529.8124   22815524.030
        48.0004         44.0004
   5153296.02047   4028286.58646  24762331.9974   24762336.2274   24762332.998
        42.0004         37.0004
  -2487229.72447  -1893275.69246  24176622.4944   24176622.8524   24176621.937
        43.0004         39.0004
 15  1  8  1 30  0.0000000  0  9G12G05G15G18G21G24G25G13G22
 -19132075.23249 -14901840.87348  21258604.5724   21258606.0774   21258603.809
        54.0004         49.0004
    890942.31047    698187.79646  24492109.6114   24492113.7064   24492109.847
        43.0004         39.0004
 -18294086.92448 -14215415.43848  21827614.2384   21827616.4764   21827613.424
        53.0004         48.0004
 -17797643.87248 -13831119.41548  20959879.1394   20959880.7204   20959879.342
        53.0004         48.0004
  -8698354.74348  -6743253.79247  22831868.3134   22831870.0054   22831868.952
        48.0004         43.0004
 -20555416.37249 -15977036.99548  20956316.7244   20956321.2054   20956315.957
        55.0004         51.0004
 -10991831.31348  -8507571.58547  22797169.9294   22797176.5444   22797169.471
        48.0004         44.0004
   5192935.08946   4059174.12446  24769873.5524   24769880.1364   24769873.559
        41.0004         37.0004
  -2586841.15347  -1970894.97346  24157666.1734   24157667.5774   24157667.404
        43.0004         39.0004
 15  1  8  1 30 30.0000000  0  9G12G05G15G18G21G24G25G13G22
 -19183903.73249 -14942226.70948  21248741.7274   21248743.4164   21248742.082
        54.0004         49.0004
    991250.13147    776349.72346  24511197.2534   24511202.3814   24511197.467
        43.0004         39.0004
 -18288088.79448 -14210741.59248  21828755.8214   21828757.5534   21828755.507
        53.0004         48.0004
 -17856772.97548 -13877194.03948  20948626.7454   20948628.6354   20948627.497
        53.0004         48.0004
  -8646139.69748  -6702566.74747  22841805.1144   22841807.2954   22841805.470
        48.0004         43.0004
 -20511319.28049 -15942675.63348  20964708.3294   20964712.3014   20964707.982
        55.0004         51.0004
 -11088145.02748  -8582621.21847  22778842.1314   22778847.8064   22778842.269
        48.0004         44.0004
   5232576.71146   4090063.64546  24777420.7924   24777422.7684   24777418.351
        41.0004         36.0004
  -2686373.84647  -2048452.91046  24138726.0794   24138726.7714   24138726.904
        43.0004         38.0004
 15  1  8  1 31  0.0000000  0  9G12G05G15G18G21G24G25G13G22
 -19235300.53149 -14982276.15248  21238961.3154   21238963.0734   21238960.632
        54.0004         49.0004
   1091738.77047    854652.54046  24530320.9854   24530324.3694   24530319.859
        43.0004         39.0004
 -18282005.23448 -14206001.17448  21829913.4624   21829915.4754   21829913.055
        53.0004         48.0004
 -17915504.26348 -13922958.68348  20937450.5354   20937452.8094   20937450.851
        53.0004         48.0004
  -8593647.82547  -6661663.99347  22851793.2724   22851795.4244   22851793.635
        47.0004         43.0004
 -20466975.27449 -15908121.86048  20973146.3434   20973150.7804   20973145.739
        55.0004         51.0004
 -11184317.40348  -8657560.68447  22760541.6824   22760547.5864   22760541.235
        49.0004         44.0004
   5272222.11946   4120956.12246  24784965.0104   24784966.3184   24784962.371
        41.0004         37.0004
  -2785825.08647  -2125947.35846  24119801.5634   24119800.6624   24119801.973
        43.0004         38.0004
 15  1  8  1 31 30.0000000  0  9G12G05G15G18G21G24G25G13G22
 -19286262.37849 -15021986.67248  21229263.3124   21229265.2964   21229263.151
        54.0004         49.0004
   1192406.57147    933094.96646  24549477.4674   24549481.7674   24549477.533
        43.0004         38.0004
 -18275834.50048 -14201192.82648  21831088.0214   21831089.5074   21831087.733
        53.0004         48.0004
 -17973834.91848 -13968411.13648  20926350.5394   20926353.1104   20926350.766
        53.0004         48.0004
  -8540881.59047  -6620547.44847  22861833.8164   22861837.1344   22861834.872
        47.0004         43.0004
 -20422386.17749 -15873377.11248  20981631.0784   20981635.8064   20981630.532
        55.0004         50.0004
 -11280344.89548  -8732387.27347  22742268.9734   22742273.9344   22742268.226
        49.0004         44.0004
   5311873.16446   4151852.99646  24792509.7004   24792510.1994   24792509.970
        41.0004         37.0004
  -2885192.25547  -2203376.28746  24100893.2474   24100894.3864   24100893.180
        43.0004         39.0004
 15  1  8  1 32  0.0000000  0  9G12G05G15G18G21G24G25G13G22
 -19336790.26649 -15061359.04148  21219648.7694   21219650.1854   21219648.354
        54.0004         49.0004
   1293248.29247   1011672.90946  24568666.3074   24568670.8824   24568666.731
        43.0004         39.0004
 -18269578.74248 -14196318.21548  21832278.0074   21832279.8594   21832277.385
        53.0004         48.0004
 -18031765.92048 -14013552.17048  20915326.6744   20915328.6594   20915327.288
        53.0004         49.0004
  -8487847.17247  -6579221.95247  22871926.9924   22871928.7074   22871927.152
        47.0004         43.0004
 -20377557.35249 -15838445.57748  20990162.4174   20990166.5794   20990161.813
        55.0004         50.0004
 -11376228.01748  -8807101.35647  22724022.3654   22724027.5404   22724023.355
        49.0004         44.0004
   5351527.05146   4182752.06446  24800056.2804   24800058.3084   24800055.327
        41.0004         37.0004
  -2984476.27547  -2280740.43446  24082000.6564   24082000.7674   24081999.814
        43.0004         39.0004
 15  1  8  1 32 30.0000000  0  9G12G05G15G18G21G24G25G13G22
 -19386878.48049 -15100388.81148  21210117.0914   21210118.5654   21210116.539
        54.0004         49.0004
   1394265.42847   1090387.55446  24587890.6874   24587893.3404   24587889.834
        43.0004         38.0004
 -18263232.94148 -14191373.45348  21833485.2404   21833488.0814   21833484.947
        53.0004         48.0004
 -18089291.09848 -14058376.99148  20904379.9424   20904381.5864   20904380.515
        53.0004         49.0004
  -8434543.56248  -6537686.68547  22882070.6434   22882071.5624   22882071.155
        48.0004         43.0004
 -20332487.03849 -15803325.85448  20998738.8304   20998743.2984   20998738.054
        55.0004         50.0004
 -11471959.81448  -8881697.53747  22705804.4934   22705810.2504   22705805.255
        49.0004         44.0004
   5391189.05146   4213657.42246  24807603.2074   24807605.7384   24807602.524
        41.0004         37.0004
  -3083670.64647  -2358034.73946  24063122.0944   24063125.3224   24063123.099
        43.0004         39.0004
 15  1  8  1 33  0.0000000  0  9G12G05G15G18G21G24G25G13G22
 -19436525.38849 -15139074.70748  21200669.3504   21200671.0384   21200669.024
        54.0004         49.0004
   1495454.76047   1169236.38346  24607146.4424   24607149.8544   24607145.003
        43.0004         38.0004
 -18256797.62848 -14186358.94348  21834710.4244   21834712.4274   21834709.884
        53.0004         48.0004
 -18146409.61148 -14102884.92448  20893511.0864   20893512.5904   20893511.161
        53.0004         49.0004
  -8380975.31148  -6495945.19147  22892265.2834   22892266.0594   22892264.260
        48.0004         43.0004
 -20287179.19149 -15768021.04148  21007360.4134   21007364.6844   21007359.866
        55.0004         50.0004
 -11567538.95048  -8956174.75247  22687616.6584   22687622.4534   22687617.498
        49.0004         44.0004
   5430858.50146   4244568.61346  24815151.8384   24815154.1264   24815151.403
        41.0004         37.0004
  -3182774.81347  -2435258.76746  24044263.8904   24044263.6834   24044264.933
        43.0004         39.0004
 15  1  8  1 33 30.0000000  0  9G12G05G15G18G21G24G25G13G22
 -19485730.47549 -15177416.32748  21191305.7504   21191307.6324   21191305.577
        54.0004         49.0004
   1596812.61947   1248216.52446  24626434.5844   24626435.8914   24626434.311
        42.0004         38.0004
 -18250272.93848 -14181274.78748  21835951.8344   21835953.9144   21835951.733
        53.0004         48.0004
 -18203121.12048 -14147075.70348  20882718.8574   20882721.1404   20882719.259
        53.0004         48.0004
  -8327146.84947  -6454000.93247  22902506.9194   22902510.1644   22902507.187
        47.0004         43.0004
 -20241637.74049 -15732534.21148  21016026.4384   21016031.1874   21016025.814
        55.0004         50.0004
 -11662963.99248  -9030531.89247  22669458.4024   22669463.5894   22669457.317
        49.0004         44.0004
   5470535.21646   4275485.45446  24822701.9184   24822704.7814   24822701.219
        41.0004         37.0004
  -3281787.86747  -2512411.73446  24025421.9974   24025423.1774   24025422.810
        43.0004         39.0004
 15  1  8  1 34  0.0000000  0  9G12G05G15G18G21G24G25G13G22
 -19534487.95449 -15215409.16048  21182027.5744   21182029.3884   21182027.089
        54.0004         49.0004
   1698340.21647   1327328.90346  24645756.1984   24645755.4164   24645755.315
        42.0004         38.0004
 -18243654.40148 -14176117.51048  21837211.2954   21837213.4954   21837211.523
        53.0004         48.0004
 -18259419.95348 -14190944.92648  20872006.3654   20872007.3724   20872006.360
        53.0004         49.0004
  -8273057.35047  -6411853.28747  22912799.4744   22912801.9614   22912801.019
        47.0004         43.0004
 -20195860.77049 -15696863.84548  21024737.5394   21024742.2824   21024736.973
        55.0004         50.0004
 -11758228.47448  -9104763.92647  22651329.8914   22651334.8494   22651330.113
        49.0004         44.0004
   5510223.64346   4306411.42446  24830255.1164   24830257.2174   24830255.737
        41.0004         37.0004
  -3380704.16347  -2589489.33846  24006598.7214   24006600.1354   24006599.346
        44.0004         39.0004
 15  1  8  1 34 30.0000000  0  9G12G05G15G18G21G24G25G13G22
 -19582799.03049 -15253054.15048  21172834.1184   21172836.1114   21172834.038
        54.0004         49.0004
   1800032.46147   1406569.60246  24665107.5224   24665107.6034   24665107.045
        42.0004         37.0004
 -18236944.16548 -14170888.77648  21838488.3044   21838490.9414   21838487.621
        53.0004         48.0004
 -18315307.21048 -14234493.44448  20861370.5794   20861372.6144   20861371.223
        53.0004         49.0004
  -8218713.09147  -6369507.11347  22923142.0934   22923142.5194   22923141.793
        47.0004         43.0004
 -20149854.23749 -15661014.61248  21033492.5584   21033497.1174   21033492.015
        55.0004         50.0004
 -11853333.01048  -9178871.32747  22633232.0734   22633236.5394   22633231.558
        49.0004         44.0004
   5549921.32446   4337344.60946  24837808.7014   24837812.3014   24837808.580
        41.0004         36.0004
  -3479524.84647  -2666492.46946  23987794.2394   23987794.9474   23987794.728
        44.0004         40.0004
 15  1  8  1 35  0.0000000  0  9G12G05G15G18G21G24G25G13G22
 -19630657.31549 -15290346.31548  21163727.3734   21163728.9454   21163727.119
        54.0004         49.0004
   1901891.03747   1485939.88446  24684491.0434   24684490.0894   24684489.852
        42.0004         38.0004
 -18230137.31148 -14165584.75348  21839783.5804   21839785.6974   21839783.041
        53.0004         48.0004
 -18370776.66548 -14277716.39848  20850815.4564   20850817.4974   20850815.813
        53.0004         49.0004
  -8164113.06747  -6326961.66247  22933529.6184   22933533.5444   22933531.298
        47.0004         43.0004
 -20103616.06049 -15624984.87348  21042291.3304   21042296.2004   21042290.907
        55.0004         50.0004
 -11948270.61448  -9252848.64447  22615165.9194   22615170.7564   22615166.071
        49.0004         44.0004
   5589633.21946   4368288.89746  24845363.8984   24845369.2504   24845364.459
        41.0004         36.0004
  -3578243.37747  -2743416.00046  23969009.4164   23969010.5744   23969009.900
        45.0004         40.0004
 15  1  8  1 35 30.0000000  0  9G12G05G15G18G21G24G25G13G22
 -19678064.58349 -15327287.03848  21154706.0954   21154707.4284   21154705.693
        54.0004         49.0004
   2003909.92847   1565435.09446  24703904.2334   24703902.7154   24703903.377
        42.0004         38.0004
 -18223236.41848 -14160207.45248  21841096.4654   21841098.8474   21841096.112
        53.0004         48.0004
 -18425830.05648 -14320615.14848  20840339.3484   20840340.8854   20840339.383
        53.0004         49.0004
  -8109264.14547  -6284222.25647  22943968.9704   22943970.8514   22943969.609
        47.0004         43.0004
 -20057152.65949 -15588779.63648  21051133.1844   21051137.6034   21051132.656
        55.0004         50.0004
 -12043042.29648  -9326696.68347  22597130.5294   22597136.3734   22597130.938
        49.0004         44.0004
   5629356.50946   4399242.06346  24852924.0974   24852928.8064   24852922.787
        41.0004         36.0004
  -3676861.35247  -2820261.17446  23950242.3924   23950244.0764   23950243.578
        45.0004         40.0004
 15  1  8  1 36  0.0000000  0  9G12G05G15G18G21G24G25G13G22
 -19725017.62249 -15363873.81048  21145771.0364   21145772.5174   21145770.827
        54.0004         49.0004
   2106087.51447   1645053.96946  24723348.3964   24723346.4414   24723348.786
        42.0004         38.0004
 -18216239.48148 -14154755.29948  21842428.5114   21842431.1024   21842428.281
        53.0004         48.0004
 -18480464.43548 -14363187.39548  20829942.5864   20829944.1874   20829943.057
        53.0004         49.0004
  -8054168.34447  -6241290.47347  22954454.9914   22954454.9314   22954453.748
        47.0004         42.0004
 -20010465.55649 -15552400.09048  21060017.5514   21060021.7474   21060017.150
        55.0004         50.0004
 -12137644.27348  -9400412.47247  22579129.0244   22579134.2914   22579129.204
        49.0004         44.0004
   5669093.18946   4430205.65046  24860486.9514   24860489.5494   24860485.531
        41.0004         37.0004
  -3775375.66847  -2897025.58346  23931495.8594   23931496.6884   23931497.168
        45.0004         40.0004
 15  1  8  1 36 30.0000000  0  9G12G05G15G18G21G24G25G13G22
 -19771512.63249 -15400103.67148  21136923.5154   21136925.1354   21136923.424
        54.0004         49.0004
   2208423.88947   1724796.59046  24742821.0984   24742822.5464   24742820.716
        42.0004         38.0004
 -18209143.80548 -14149226.21348  21843779.0184   21843780.8894   21843778.381
        53.0004         48.0004
 -18534676.20849 -14405430.33248  20819626.5574   20819628.1644   20819626.719
        54.0004         49.0004
  -7998826.71947  -6198167.10247  22964983.1204   22964986.0874   22964983.662
        47.0004         42.0004
 -19963555.00249 -15515846.41648  21068944.1514   21068948.6244   21068943.232
        55.0004         50.0004
 -12232072.05848  -9473992.53147  22561159.7064   22561164.7704   22561160.113
        49.0004         44.0004
   5708845.91046   4461181.71646  24868050.1154   24868053.2694   24868049.395
        41.0004         36.0004
  -3873782.37947  -2973706.11246  23912769.6914   23912771.9234   23912770.837
        45.0004         41.0004
 15  1  8  1 37  0.0000000  0  9G12G05G15G18G21G24G25G13G22
 -19817549.69949 -15435976.69948  21128163.0574   21128164.5604   21128162.325
        54.0004         49.0004
   2310914.32847   1804659.23746  24762323.7204   24762326.3914   24762323.468
        42.0004         38.0004
 -18201950.86748 -14143621.34648  21845147.5324   21845149.0014   21845147.071
        53.0004         48.0004
 -18588465.38149 -14447343.97948  20809390.6584   20809392.4444   20809390.998
        54.0004         49.0004
  -7943244.38747  -6154856.21747  22975560.8454   22975563.5494   22975561.809
        47.0004         43.0004
 -19916425.45149 -15479122.10048  21077912.9714   21077917.2904   21077912.353
        55.0004         50.0004
 -12326324.95948  -9547436.32547  22543224.6874   22543228.4864   22543224.106
        49.0004         44.0004
   5748613.21546   4492169.16246  24875618.1854   24875620.6384   24875618.790
        41.0004         36.0004
  -3972081.35047  -3050302.68246  23894063.9044   23894065.7154   23894064.583
        45.0004         41.0004
 15  1  8  1 37 30.0000000  0  9G12G05G15G18G21G24G25G13G22
 -19863105.42349 -15471474.65548  21119493.7074   21119495.3004   21119493.552
        54.0004         49.0004
   2413577.82847   1884656.73746  24781861.5684   24781862.2634   24781859.967
        43.0004         38.0004
 -18194638.05348 -14137923.07648  21846539.2944   21846541.0234   21846538.684
        52.0004         48.0004
 -18641808.66749 -14488910.17948  20799239.7774   20799241.6524   20799240.116
        54.0004         49.0004
  -7887403.50448  -6111343.85847  22986188.2324   22986188.8264   22986188.497
        48.0004         43.0004
 -19869058.49249 -15442212.78948  21086926.0094   21086930.8694   21086925.543
        55.0004         50.0004
 -12420379.12148  -9620725.24247  22525326.0104   22525331.1944   22525326.635
        49.0004         44.0004
   5788417.39446   4523185.33546  24883192.9164   24883195.0774   24883193.193
        41.0004         36.0004
  -4070249.17847  -3126797.06046  23875382.6874   23875385.4834   23875383.748
        45.0004         40.0004
 15  1  8  1 38  0.0000000  0  9G12G05G15G18G21G24G25G13G22
 -19908218.29949 -15506627.53948  21110909.0914   21110911.3164   21110908.357
        54.0004         49.0004
   2516371.81747   1964755.91246  24801421.5474   24801422.6744   24801421.250
        43.0004         38.0004
 -18187244.60548 -14132161.96748  21847946.0854   21847948.3684   21847945.137
        52.0004         48.0004
 -18694744.50549 -14530158.88848  20789166.0534   20789168.1614   20789166.397
        54.0004         49.0004
  -7831347.55147  -6067663.93647  22996854.5304   22996856.9834   22996854.984
        47.0004         42.0004
 -19821496.62649 -15405151.60648  21095976.9024   21095981.5264   21095976.385
        55.0004         50.0004
 -12514272.05748  -9693888.55047  22507459.3224   22507464.9034   22507459.403
        49.0004         44.0004
   5828218.93246   4554199.43546  24890767.7124   24890767.4334   24890766.149
        40.0004         36.0004
  -4168324.05747  -3203219.01246  23856720.4274   23856720.7024   23856720.807
        45.0004         40.0004
 15  1  8  1 38 30.0000000  0  9G12G05G15G18G21G24G25G13G22
 -19952864.63649 -15541416.88148  21102413.0244   21102415.1994   21102412.830
        54.0004         49.0004
   2619315.72247   2044971.91246  24821013.1494   24821012.4924   24821011.620
        43.0004         38.0004
 -18179748.10148 -14126320.55648  21849372.6534   21849374.8804   21849372.478
        52.0004         48.0004
 -18747249.66849 -14571071.99948  20779174.8454   20779176.5534   20779175.139
        54.0004         49.0004
  -7775057.48147  -6023801.55947  23007565.9564   23007567.6194   23007566.100
        47.0004         42.0004
 -19773720.39749 -15367923.38048  21105068.4324   21105073.4374   21105067.861
        55.0004         50.0004
 -12607979.29348  -9766907.14547  22489626.9674   22489631.8954   22489627.908
        49.0004         45.0004
   5868040.46646   4585229.12346  24898346.3314   24898345.6824   24898343.649
        40.0004         36.0004
  -4266281.93747  -3279549.78346  23838080.7094   23838080.3534   23838080.874
        45.0004         40.0004
 15  1  8  1 39  0.0000000  0  9G12G05G15G18G21G24G25G13G22
 -19997039.53849 -15575838.88548  21094007.0674   21094008.8114   21094006.648
        54.0004         49.0004
   2722410.21347   2125305.25646  24840631.7734   24840631.0924   24840631.284
        43.0004         38.0004
 -18172144.59748 -14120395.76348  21850819.0534   21850821.7284   21850818.803
        52.0004         48.0004
 -18799318.82049 -14611645.37048  20769266.6214   20769268.1154   20769266.879
        54.0004         49.0004
  -7718533.83947  -5979757.16847  23018321.9924   23018325.1834   23018322.727
        47.0004         42.0004
 -19725729.63849 -15330527.99648  21114200.5744   21114205.4074   21114199.904
        55.0004         50.0004
 -12701495.19648  -9839776.66347  22471831.9474   22471837.5264   22471830.608
        49.0004         45.0004
   5907885.93746   4616277.47246  24905928.1904   24905928.2864   24905926.955
        40.0004         36.0004
  -4364117.98047  -3355785.62746  23819462.8044   23819462.9284   23819463.100
        45.0004         41.0004
 15  1  8  1 39 30.0000000  0  9G12G05G15G18G21G24G25G13G22
 -20040745.01249 -15609895.09548  21085690.1134   21085692.0574   21085690.112
        54.0004         49.0004
   2825648.60247   2205750.71846  24860277.7084   24860276.3564   24860277.100
        43.0004         38.0004
 -18164436.96748 -14114389.83948  21852286.0264   21852288.2644   21852285.627
        52.0004         48.0004
 -18850954.45649 -14651880.93648  20759440.2964   20759442.5924   20759440.868
        54.0004         49.0004
  -7661783.67247  -5935536.26747  23029120.7594   23029124.0264   23029121.743
        47.0004         43.0004
 -19677530.33049 -15292970.10948  21123372.8984   21123377.0624   21123372.701
        55.0004         50.0004
 -12794821.12348  -9912498.14147  22454072.2254   22454077.6754   22454072.513
        49.0004         44.0004
   5947751.87246   4647341.75246  24913514.8484   24913515.3684   24913513.970
        40.0004         36.0004
  -4461834.11247  -3431928.06346  23800867.7594   23800869.2554   23800868.156
        45.0004         41.0004
 15  1  8  1 40  0.0000000  0  9G12G05G15G18G21G24G25G13G22
 -20083980.38849 -15643584.99648  21077462.7004   21077464.4464   21077462.320
        54.0004         49.0004
   2929027.60047   2286305.73746  24879949.5704   24879949.0714   24879950.547
        43.0004         38.0004
 -18156625.33748 -14108302.88148  21853772.6854   21853775.1964   21853772.188
        52.0004         48.0004
 -18902155.61749 -14691777.94148  20749697.0814   20749699.4254   20749697.669
        54.0004         49.0004
  -7604811.63947  -5891142.47747  23039962.3304   23039965.5864   23039962.545
        47.0004         43.0004
 -19629126.11249 -15255252.54948  21132584.0594   21132588.8554   21132583.227
        55.0004         50.0004
 -12887955.37748  -9985070.24947  22436348.8074   22436354.7264   22436348.026
        49.0004         44.0004
   5987638.03146   4678421.76346  24921104.0004   24921105.8724   24921104.332
        40.0004         36.0004
  -4559428.88347  -3507975.93046  23782295.7564   23782295.5564   23782296.785
        45.0004         41.0004
 15  1  8  1 40 30.0000000  0  9G12G05G15G18G21G24G25G13G22
 -20126740.08349 -15676904.23148  21069325.8214   21069327.5304   21069325.428
        54.0004         49.0004
   3032548.75147   2366971.52646  24899650.8964   24899646.5754   24899649.022
        42.0004         38.0004
 -18148705.00248 -14102131.21148  21855280.0264   21855282.2344   21855279.367
        53.0004         48.0004
 -18952916.90449 -14731332.19548  20740037.8554   20740039.4424   20740038.008
        54.0004         49.0004
  -7547616.48347  -5846574.82247  23050846.1494   23050848.8474   23050847.079
        47.0004         42.0004
 -19580515.54049 -15217374.19448  21141834.3994   21141838.5194   21141833.701
        55.0004         50.0004
 -12980891.55848 -10057488.01847  22418664.7884   22418669.5534   22418664.820
        49.0004         45.0004
   6027548.88046   4709521.03546  24928699.6294   24928701.3054   24928702.403
        40.0004         36.0004
  -4656896.63747  -3583924.81646  23763747.5224   23763748.0804   23763748.923
        46.0004         41.0004
 15  1  8  1 41  0.0000000  0  9G12G05G15G18G21G24G25G13G22
 -20169022.95649 -15709851.91748  21061279.3634   21061281.3394   21061279.153
        54.0004         49.0004
   3136208.88647   2447745.62146  24919377.0454   24919372.9854   24919374.889
        42.0004         38.0004
 -18140675.74548 -14095874.67248  21856807.6784   21856809.9144   21856807.814
        53.0004         48.0004
 -19003237.23449 -14770542.85148  20730462.1424   20730463.6624   20730462.175
        54.0004         49.0004
  -7490202.42047  -5801836.60747  23061772.6204   23061774.5604   23061773.022
        47.0004         42.0004
 -19531701.77449 -15179337.51548  21151123.3234   21151127.5844   21151123.144
        55.0004         50.0004
 -13073627.72248 -10129749.94947  22401018.0924   22401022.3634   22401016.433
        49.0004         45.0004
   6067484.73446   4740639.77846  24936298.6974   24936301.9204   24936297.077
        40.0004         36.0004
  -4754235.65547  -3659773.39346  23745224.5704   23745225.6094   23745225.477
        46.0004         41.0004
 15  1  8  1 41 30.0000000  0  9G12G05G15G18G21G24G25G13G22
 -20210828.41549 -15742427.58948  21053323.9254   21053325.7384   21053323.646
        54.0004         49.0004
   3240004.09847   2528624.95846  24939127.4904   24939122.3364   24939125.360
        42.0004         37.0004
 -18132538.15748 -14089533.71348  21858355.8344   21858358.2764   21858355.711
        53.0004         48.0004
 -19053116.19049 -14809409.57248  20720970.4184   20720972.2334   20720970.630
        54.0004         49.0004
  -7432574.01047  -5756931.38647  23072737.9894   23072740.2474   23072738.554
        46.0004         42.0004
 -19482688.76449 -15141145.57048  21160450.0144   21160454.8154   21160449.369
        55.0004         50.0004
 -13166162.59348 -10201855.01947  22383407.6304   22383413.4804   22383408.725
        49.0004         45.0004
   6107445.00446   4771777.59346  24943902.3384   24943905.5094   24943902.429
        40.0004         36.0004
  -4851445.27047  -3735521.13146  23726726.5614   23726726.7924   23726727.084
        46.0004         41.0004
 15  1  8  1 42  0.0000000  0  9G12G05G15G18G21G24G25G13G22
 -20252153.44849 -15774628.90348  21045460.7704   21045461.9724   21045460.089
        54.0004         49.0004
   3343933.50447   2609608.86746  24958905.2134   24958899.4204   24958903.842
        42.0004         37.0004
 -18124289.94748 -14083106.55548  21859925.9204   21859928.3494   21859925.296
        52.0004         48.0004
 -19102550.68649 -14847929.96548  20711563.4094   20711565.3774   20711563.645
        54.0004         49.0004
  -7374733.17447  -5711860.61647  23083745.6374   23083747.9064   23083745.944
        47.0004         43.0004
 -19433477.88449 -15102799.44748  21169814.9594   21169819.5084   21169814.465
        54.0004         50.0004
 -13258492.10748 -10273800.07647  22365838.2854   22365843.6574   22365837.960
        49.0004         45.0004
   6147431.83046   4802936.06946  24951510.7724   24951513.6294   24951511.274
        40.0004         36.0004
  -4948522.19047  -3811165.48746  23708253.1734   23708253.0984   23708254.434
        46.0004         41.0004
 15  1  8  1 42 30.0000000  0  9G12G05G15G18G21G24G25G13G22
 -20292993.79449 -15806452.54648  21037688.7664   21037690.2784   21037688.548
        54.0004         49.0004
   3447997.18946   2690697.39246  24978707.4864   24978701.2804   24978706.258
        41.0004         36.0004
 -18115927.52448 -14076590.41248  21861516.9744   21861520.0794   21861516.472
        52.0004         48.0004
 -19151536.14249 -14886100.46148  20702241.6874   20702243.4954   20702242.047
        54.0004         49.0004
  -7316680.55047  -5666624.81647  23094792.6474   23094794.9114   23094793.043
        47.0004         43.0004
 -19384068.51649 -15064298.66148  21179216.5924   21179221.5734   21179216.031
        54.0004         50.0004
 -13350611.10348 -10345581.08547  22348308.8594   22348314.6604   22348309.514
        49.0004         45.0004
   6187448.63246   4834117.90746  24959126.5694   24959131.6954   24959125.804
        40.0004         36.0004
  -5045461.52347  -3886702.62446  23689805.4644   23689807.7424   23689807.096
        46.0004         41.0004
 15  1  8  1 43  0.0000000  0  9G12G05G15G18G21G24G25G13G22
 -20333349.91849 -15837898.86748  21030009.2394   21030011.0604   21030009.140
        54.0004         50.0004
   3552190.74046   2771887.12546  24998536.2664   24998528.6894   24998532.820
        41.0004         36.0004
 -18107452.05248 -14069986.17148  21863130.3814   21863131.9504   21863129.824
        52.0004         48.0004
 -19200073.11249 -14923921.48048  20693005.3434   20693007.5364   20693005.674
        54.0004         49.0004
  -7258421.11947  -5621227.87947  23105879.1964   23105881.1324   23105879.766
        47.0004         42.0004
 -19334465.64249 -15025647.08448  21188655.9784   21188660.9334   21188655.363
        54.0004         50.0004
 -13442519.02648 -10417197.62647  22330819.6334   22330825.0874   22330818.583
        49.0004         45.0004
   6227494.08146   4865322.07346  24966749.0824   24966752.7394   24966748.390
        40.0004         36.0004
  -5142263.13047  -3962132.41846  23671385.5664   23671386.6634   23671386.330
        46.0004         41.0004
 15  1  8  1 43 30.0000000  0  9G12G05G15G18G21G24G25G13G22
 -20373220.56249 -15868966.90148  21022422.0784   21022424.1224   21022421.796
        54.0004         50.0004
   3656511.28346   2853175.81545  25018385.1054   25018377.0514   25018385.189
        40.0004         35.0004
 -18098863.04948 -14063293.46748  21864765.1704   21864766.7134   21864764.891
        52.0004         48.0004
 -19248160.43549 -14961392.12648  20683854.6704   20683856.7204   20683855.128
        54.0004         49.0004
  -7199958.70247  -5575672.75747  23117003.5944   23117005.0804   23117003.852
        46.0004         42.0004
 -19284672.03549 -14986846.88448  21198131.0934   21198136.4104   21198130.820
        54.0004         50.0004
 -13534213.65148 -10488647.95747  22313370.2174   22313375.3334   22313370.557
        49.0004         45.0004
   6267568.21346   4896548.60046  24974373.0104   24974378.0794   24974373.567
        40.0004         36.0004
  -5238925.54447  -4037453.75946  23652992.3104   23652992.4114   23652992.785
        46.0004         41.0004
 15  1  8  1 44  0.0000000  0  9G12G05G15G18G21G24G25G13G22
 -20412599.29049 -15899651.62148  21014928.4574   21014930.5004   21014928.591
        54.0004         50.0004
   3760960.74446   2934564.95946  25038261.5164   25038257.1264   25038260.455
        40.0004         36.0004
 -18090154.90148 -14056507.92648  21866421.5524   21866423.1474   21866421.255
        52.0004         48.0004
 -19295791.60949 -14998507.33048  20674790.8614   20674792.8474   20674791.300
        54.0004         49.0004
  -7141291.64647  -5529958.19447  23128168.0784   23128169.3994   23128168.195
        46.0004         42.0004
 -19234684.96949 -14947895.94048  21207643.8164   21207648.5114   21207643.380
        54.0004         50.0004
 -13625687.69748 -10559926.41047  22295963.1174   22295968.4054   22295962.579
        49.0004         45.0004
   6307676.66946   4927801.86446  24982007.4494   24982010.6684   24982005.553
        40.0004         36.0004
  -5335441.78647  -4112661.20746  23634625.5094   23634625.0364   23634626.263
        46.0004         41.0004
 15  1  8  1 44 30.0000000  0  9G12G05G15G18G21G24G25G13G22
 -20451490.16249 -15929956.20148  21007527.8114   21007529.8334   21007527.188
        54.0004         50.0004
   3865531.11846   3016048.33445  25058159.4344   25058155.0844   25058159.858
        40.0004         35.0004
 -18081332.53848 -14049633.38648  21868100.0974   21868102.8204   21868099.733
        52.0004         48.0004
 -19342970.99349 -15035270.48948  20665812.8524   20665814.9164   20665813.189
        54.0004         49.0004
  -7082429.22447  -5484091.39647  23139369.4294   23139369.9214   23139369.261
        47.0004         42.0004
 -19184513.24949 -14908801.11548  21217191.4254   21217195.5844   21217190.487
        54.0004         50.0004
 -13716944.43948 -10631035.52347  22278597.7654   22278603.2394   22278597.879
        50.0004         45.0004
   6347814.29546   4959077.83646  24989646.4254   24989647.8774   24989644.582
        40.0004         36.0004
  -5431815.53147  -4187757.60546  23616285.3914   23616285.3684   23616286.102
        46.0004         41.0004
 15  1  8  1 45  0.0000000  0  9G12G05G15G18G21G24G25G13G22
 -20489886.20249 -15959875.19448  21000221.3754   21000223.4854   21000221.492
        54.0004         50.0004
   3970225.42846   3097628.28146  25078081.0914   25078079.1274   25078081.237
        40.0004         36.0004
 -18072389.34548 -14042664.70148  21869801.9034   21869804.6024   21869801.299
        52.0004         48.0004
 -19389691.30349 -15071675.93348  20656922.7474   20656924.3834   20656922.940
        54.0004         49.0004
  -7023369.14547  -5438070.56547  23150608.2034   23150608.9034   23150607.677
        47.0004         42.0004
 -19134153.54649 -14869559.80448  21226774.3814   21226778.9884   21226773.568
        54.0004         50.0004
 -13807975.61648 -10701968.89047  22261274.8374   22261280.5574   22261275.950
        50.0004         45.0004
   6387987.45946   4990381.52245  24997291.4674   24997291.2614   24997290.374
        40.0004         35.0004
  -5528039.28147  -4262737.13746  23597975.0154   23597974.5144   23597975.718
        46.0004         41.0004
 15  1  8  1 45 30.0000000  0  9G12G05G15G18G21G24G25G13G22
 -20527791.88249 -15989412.09148  20993008.4854   20993010.1034   20993008.204
        54.0004         50.0004
   4075035.18646   3179298.20146  25098025.0794   25098025.1924   25098026.827
        40.0004         36.0004
 -18063330.55748 -14035605.94148  21871526.1104   21871528.6554   21871525.634
        52.0004         48.0004
 -19435957.08749 -15107727.20448  20648118.1504   20648120.1384   20648118.779
        54.0004         49.0004
  -6964120.74247  -5391902.98147  23161882.3464   23161883.4644   23161882.624
        47.0004         42.0004
 -19083614.16449 -14830178.49248  21236392.0684   21236396.3284   21236391.607
        54.0004         50.0004
 -13898784.69748 -10772729.18047  22243994.8424   22244000.2784   22243994.800
        50.0004         45.0004
   6428191.06746   5021708.94045  25004938.2384   25004941.0264   25004938.444
        40.0004         35.0004
  -5624116.59547  -4337602.55346  23579692.8514   23579692.5374   23579693.506
        46.0004         41.0004
 15  1  8  1 46  0.0000000  0  9G12G05G15G18G21G24G25G13G22
 -20565196.19549 -16018558.31048  20985890.3134   20985892.1254   20985890.536
        54.0004         50.0004
   4179967.35746   3261063.46746  25117995.5934   25117994.7574   25117994.787
        41.0004         36.0004
 -18054145.81448 -14028449.03148  21873274.3524   21873276.3594   21873274.543
        52.0004         48.0004
 -19481757.51449 -15143415.85548  20639402.7834   20639404.7164   20639403.137
        54.0004         49.0004
  -6904678.45647  -5345584.35447  23173194.6884   23173195.8434   23173194.280
        46.0004         42.0004
 -19032888.99649 -14790652.40748  21246044.4494   21246049.0874   21246043.902
        54.0004         50.0004
 -13989359.82448 -10843307.18747  22226759.1824   22226764.8504   22226759.460
        50.0004         45.0004
   6468435.13446   5053067.89545  25012597.0464   25012598.8524   25012597.934
        40.0004         35.0004
  -5720036.08547  -4412345.01546  23561438.8154   23561438.7544   23561440.337
        46.0004         41.0004
 15  1  8  1 46 30.0000000  0  9G12G05G15G18G21G24G25G13G22
 -20602106.19749 -16047319.34748  20978866.7684   20978868.2714   20978866.541
        54.0004         50.0004
   4285010.76746   3342915.44746  25137982.1844   25137985.2264   25137983.472
        41.0004         36.0004
 -18044842.83348 -14021199.98048  21875044.5314   21875046.3024   21875044.187
        52.0004         48.0004
 -19527099.44649 -15178747.23548  20630774.3644   20630776.4254   20630774.712
        54.0004         49.0004
  -6845052.92347  -5299122.92746  23184540.4934   23184542.0274   23184540.636
        46.0004         41.0004
 -18981988.70849 -14750989.86948  21255730.5334   21255734.6954   21255730.067
        54.0004         50.0004
 -14079706.81648 -10913707.41547  22209567.2234   22209572.0594   22209566.727
        50.0004         45.0004
   6508712.03746   5084452.43545  25020262.2744   25020265.6494   25020262.187
        40.0004         35.0004
  -5815804.55247  -4486969.79746  23543215.8514   23543215.3964   23543215.980
        46.0004         41.0004
 15  1  8  1 47  0.0000000  0  9G12G05G15G18G21G24G25G13G22
 -20638514.74249 -16075689.64448  20971938.4974   20971940.0584   20971938.070
        54.0004         50.0004
   4390168.47346   3424856.49046  25157991.8884   25157995.7494   25157993.672
        41.0004         36.0004
 -18035414.98448 -14013853.63248  21876838.3784   21876841.2714   21876837.425
        53.0004         48.0004
 -19571975.57949 -15213715.65248  20622235.0594   20622236.7094   20622235.216
        54.0004         49.0004
  -6785242.20147  -5252517.20947  23195921.4884   23195924.3604   23195922.713
        46.0004         42.0004
 -18930909.96049 -14711188.26448  21265450.4074   21265455.0944   21265449.967
        54.0004         50.0004
 -14169817.49548 -10983923.50447  22192419.3594   22192424.2564   22192419.495
        50.0004         46.0004
   6549027.75546   5115867.23245  25027930.4964   25027936.3834   25027932.336
        40.0004         35.0004
  -5911413.83647  -4561470.55346  23525022.3114   23525020.9084   23525023.080
        46.0004         41.0004
 15  1  8  1 47 30.0000000  0  9G12G05G15G18G21G24G25G13G22
 -20674420.31549 -16103668.01348  20965105.6574   20965107.5084   20965105.604
        54.0004         50.0004
   4495437.81846   3506884.49546  25178024.6294   25178028.6154   25178026.321
        41.0004         36.0004
 -18025861.58748 -14006409.45748  21878656.1694   21878659.0974   21878655.602
        52.0004         48.0004
 -19616384.56049 -15248320.05748  20613784.3074   20613785.7844   20613784.766
        54.0004         49.0004
  -6725250.08547  -5205770.11947  23207338.3654   23207338.9404   23207338.834
        47.0004         42.0004
 -18879655.51249 -14671249.75248  21275203.8624   21275208.3084   21275203.215
        54.0004         50.0004
 -14259689.54248 -11053953.64947  22175317.3994   22175321.4604   22175317.128
        50.0004         46.0004
   6589382.87246   5147312.71145  25035614.8224   25035616.6934   25035613.936
        40.0004         35.0004
  -6006862.24047  -4635845.94046  23506857.1044   23506859.4334   23506858.947
        46.0004         41.0004
 15  1  8  1 48  0.0000000  0  9G12G05G15G18G21G24G25G13G22
 -20709823.12149 -16131254.61848  20958368.7984   20958370.7344   20958368.373
        54.0004         50.0004
   4600815.17646   3588996.68646  25198076.5314   25198081.3804   25198077.367
        40.0004         36.0004
 -18016183.08648 -13998867.80348  21880497.9544   21880501.3344   21880496.931
        52.0004         48.0004
 -19660326.39349 -15282560.45548  20605422.5284   20605424.1744   20605422.801
        54.0004         49.0004
  -6665081.11447  -5158885.23847  23218788.2004   23218791.0364   23218788.619
        47.0004         42.0004
 -18828229.11849 -14631177.27148  21284989.9714   21284994.0294   21284989.344
        54.0004         50.0004
 -14349321.81048 -11123796.95447  22158260.4614   22158265.9084   22158259.779
        50.0004         46.0004
   6629776.79546   5178788.47545  25043297.4564   25043302.6504   25043300.052
        40.0004         35.0004
  -6102149.05147  -4710095.42146  23488725.3764   23488726.7934   23488725.868
        46.0004         41.0004
 15  1  8  1 48 30.0000000  0  9G12G05G15G18G21G24G25G13G22
 -20744719.71049 -16158446.76348  20951728.3224   20951730.1174   20951727.996
        54.0004         50.0004
  11007979.64846   8581592.33845  25218147.0814   25218153.9144   25218147.930
        40.0004         35.0004
 -18006376.85748 -13991226.61448  21882363.9604   21882366.7364   21882364.239
        52.0004         48.0004
 -19703797.63549 -15316434.15948  20597149.9884   20597152.0344   20597150.241
        54.0004         50.0004
  -6604736.78247  -5111863.69646  23230270.4224   23230273.7624   23230271.445
        46.0004         41.0004
 -18776631.38849 -14590971.27348  21294808.5334   21294813.1324   21294807.678
        54.0004         50.0004
 -14438709.91848 -11193450.02247  22141250.3124   22141255.5444   22141250.990
        51.0004         46.0004
   6670212.01646   5210296.37245  25050993.4334   25050999.9324   25050994.984
        40.0004         35.0004
  -6197270.15847  -4784215.76247  23470624.1824   23470626.7784   23470624.987
        46.0004         42.0004
 15  1  8  1 49  0.0000000  0  8G12G15G18G21G24G25G13G22
 -20779108.74449 -16185243.41348  20945184.0664   20945185.9544   20945183.741
        54.0004         50.0004
 -17996441.63448 -13983484.91448  21884255.2294   21884257.1864   21884255.070
        52.0004         48.0004
 -19746796.66049 -15349939.89648  20588967.4034   20588969.3974   20588968.170
        54.0004         50.0004
  -6544219.81647  -5064707.66046  23241788.1384   23241789.0534   23241787.158
        46.0004         41.0004
 -18724864.65349 -14550633.58648  21304659.5264   21304663.8204   21304658.800
        54.0004         50.0004
 -14527851.04248 -11262910.63147  22124287.3114   22124292.8444   22124286.663
        51.0004         46.0004
   6710689.51246   5241837.22846  25058695.3644   25058700.8554   25058696.996
        40.0004         36.0004
  -6292222.97847  -4858204.97247  23452554.9944   23452557.0444   23452556.252
        46.0004         42.0004
 15  1  8  1 49 30.0000000  0  8G12G15G18G21G24G25G13G22
 -20812987.24049 -16211642.24448  20938737.1504   20938738.7614   20938736.727
        54.0004         50.0004
 -17986375.24148 -13975640.99448  21886170.4784   21886172.6244   21886170.155
        52.0004         48.0004
 -19789320.68749 -15383075.51548  20580875.3114   20580876.9424   20580875.916
        54.0004         50.0004
  -6483532.46547  -5017418.84046  23253335.1574   23253337.9344   23253335.382
        46.0004         41.0004
 -18672929.94249 -14510165.00948  21314542.1764   21314547.0624   21314541.659
        54.0004         50.0004
 -14616741.22048 -11332175.68147  22107371.5184   22107377.8044   22107371.856
        51.0004         46.0004
   6751211.66946   5273412.89846  25066409.0934   25066412.3964   25066408.278
        40.0004         36.0004
  -6387004.32047  -4932060.57847  23434519.4204   23434520.5724   23434519.306
        47.0004         42.0004
 15  1  8  1 50  0.0000000  0  8G12G15G18G21G24G25G13G22
 -20846359.57149 -16237646.65648  20932386.6354   20932388.4224   20932386.554
        54.0004         50.0004
 -17976182.21148 -13967698.40348  21888110.3774   21888112.2004   21888109.728
        52.0004         48.0004
 -19831373.84449 -15415844.21548  20572872.6064   20572874.6184   20572873.302
        54.0004         50.0004
  -6422683.41947  -4970003.99147  23264914.7054   23264918.2054   23264914.970
        46.0004         42.0004
 -18620835.60149 -14469572.03948  21324455.3874   21324460.2874   21324454.837
        54.0004         50.0004
 -14705383.60448 -11401247.65047  22090503.5604   22090509.4614   22090503.907
        51.0004         46.0004
   6791773.24346   5305019.29846  25074126.7384   25074130.4614   25074126.023
        40.0004         36.0004
  -6481617.63947  -5005785.24347  23416514.6154   23416516.0464   23416515.851
        47.0004         42.0004
 15  1  8  1 50 30.0000000  0  8G12G15G18G21G24G25G13G22
 -20879214.25949 -16263247.72248  20926134.6354   20926136.5324   20926134.323
        54.0004         50.0004
 -17965851.73148 -13959648.71848  21890075.8314   21890078.5784   21890075.197
        52.0004         48.0004
 -19872944.68949 -15448237.08548  20564962.2844   20564964.0244   20564962.622
        54.0004         50.0004
  -6361666.05847  -4922458.01147  23276525.6064   23276529.1274   23276526.096
        46.0004         42.0004
 -18568573.59149 -14428848.42448  21334400.8434   21334405.3104   21334400.587
        54.0004         50.0004
 -14793765.56348 -11470116.69947  22073685.6164   22073691.6884   22073685.122
        51.0004         46.0004
   6832385.06846   5336664.80345  25081853.4584   25081857.3304   25081853.596
        40.0004         35.0004
  -6576050.69447  -5079369.45047  23398544.9484   23398545.7114   23398546.074
        47.0004         42.0004
 15  1  8  1 51  0.0000000  0  8G12G15G18G21G24G25G13G22
 -20911555.44349 -16288448.64348  20919980.4834   20919982.2774   20919979.886
        54.0004         50.0004
 -17955388.54048 -13951495.61348  21892066.9864   21892069.3384   21892067.233
        52.0004         48.0004
 -19914037.27449 -15480257.28548  20557142.4764   20557144.6564   20557143.014
        54.0004         50.0004
  -6300489.17847  -4874787.72946  23288167.9204   23288169.8324   23288167.764
        46.0004         41.0004
 -18516152.13149 -14388000.55748  21344375.9794   21344380.7974   21344375.532
        54.0004         49.0004
 -14881890.22748 -11538785.25347  22056915.2734   22056922.3014   22056915.504
        51.0004         46.0004
   6873042.07646   5368345.56145  25089591.8774   25089596.3024   25089592.072
        40.0004         35.0004
  -6670307.07547  -5152815.97247  23380608.3054   23380609.0674   23380608.930
        47.0004         42.0004
 15  1  8  1 51 30.0000000  0  8G12G15G18G21G24G25G13G22
 -20943383.35749 -16313249.62348  20913923.8944   20913925.6794   20913923.613
        55.0004         50.0004
 -17944792.75248 -13943239.18348  21894083.7324   21894086.5724   21894083.784
        52.0004         48.0004
 -19954651.72949 -15511904.92148  20549414.0774   20549415.9224   20549414.332
        54.0004         50.0004
  -6239157.23747  -4826996.62646  23299838.7864   23299839.5054   23299837.938
        46.0004         41.0004
 -18463574.76849 -14347031.21248  21354381.1244   21354386.1474   21354380.346
        54.0004         50.0004
 -14969756.22048 -11607252.25447  22040195.0084   22040200.8344   22040195.071
        51.0004         46.0004
   6913744.00846   5400061.29345  25097338.1664   25097342.9794   25097336.322
        40.0004         35.0004
  -6764385.47747  -5226123.82347  23362705.6634   23362705.6774   23362707.194
        47.0004         42.0004
 15  1  8  1 52  0.0000000  0  8G12G15G18G21G24G25G13G22
 -20974693.29949 -16337646.98548  20907965.7654   20907967.7494   20907965.351
        55.0004         50.0004
 -17934060.14448 -13934876.13448  21896125.8414   21896128.6254   21896125.273
        52.0004         48.0004
 -19994782.86749 -15543175.95348  20541777.3974   20541778.8604   20541777.779
        54.0004         50.0004
  -6177670.09547  -4779084.59046  23311538.9864   23311541.4814   23311539.235
        46.0004         41.0004
 -18410840.95949 -14305939.96148  21364416.6264   21364420.6914   21364416.096
        54.0004         49.0004
 -15057357.62348 -11675513.07647  22023525.7814   22023531.3394   22023525.421
        51.0004         46.0004
   6954495.01546   5431815.27745  25105093.8424   25105095.8814   25105093.651
        40.0004         35.0004
  -6858280.86647  -5299289.06347  23344838.4114   23344839.5414   23344839.510
        47.0004         42.0004
 15  1  8  1 52 30.0000000  0  8G12G15G18G21G24G25G13G22
 -21005481.13549 -16361637.51948  20902107.1344   20902108.6264   20902106.940
        55.0004         50.0004
 -17923187.43248 -13926403.92548  21898194.5574   21898197.6014   21898194.701
        52.0004         48.0004
 -20034426.98949 -15574067.48548  20534233.3644   20534235.0894   20534233.761
        54.0004         50.0004
  -6116028.52547  -4731052.21047  23323269.1914   23323272.3374   23323270.024
        46.0004         42.0004
 -18357950.08449 -14264726.33348  21374481.1384   21374486.1084   21374480.326
        54.0004         49.0004
 -15144689.46748 -11743563.84547  22006907.0874   22006912.2744   22006907.336
        51.0004         47.0004
   6995298.11546   5463609.81345  25112858.0404   25112859.9794   25112858.568
        40.0004         35.0004
  -6951988.49647  -5372308.00446  23327006.4044   23327007.4344   23327006.523
        46.0004         41.0004
 15  1  8  1 53  0.0000000  0  8G12G15G18G21G24G25G13G22
 -21035750.42849 -16385223.98948  20896346.7124   20896348.7804   20896346.474
        55.0004         50.0004
 -17912177.65848 -13917824.91548  21900290.1054   21900292.6834   21900288.856
        52.0004         48.0004
 -20073587.53949 -15604582.21248  20526781.6264   20526782.8774   20526782.176
        54.0004         50.0004
  -6054240.51947  -4682905.70147  23335026.4234   23335029.4364   23335026.568
        46.0004         42.0004
 -18304909.67649 -14223396.17448  21384574.4514   21384579.1744   21384574.003
        54.0004         49.0004
 -15231753.77048 -11811406.14447  21990338.7314   21990344.4134   21990338.867
        51.0004         47.0004
   7036149.71146   5495442.18145  25120633.1564   25120633.3764   25120631.244
        40.0004         35.0004
  -7045510.58647  -5445182.36546  23309210.0994   23309210.2484   23309210.928
        46.0004         41.0004
 15  1  8  1 53 30.0000000  0  8G12G15G18G21G24G25G13G22
 -21065496.50449 -16408402.75348  20890686.2344   20890688.2304   20890685.895
        55.0004         50.0004
 -17901027.00948 -13909136.13148  21902412.0684   21902414.1674   21902411.596
        52.0004         48.0004
 -20112259.53249 -15634716.24348  20519422.3544   20519424.1374   20519422.686
        54.0004         50.0004
  -5992306.26547  -4634645.26246  23346812.9834   23346815.3164   23346812.280
        46.0004         41.0004
 -18251718.24949 -14181948.33748  21394696.1934   21394701.5204   21394695.698
        54.0004         49.0004
 -15318544.40548 -11879035.19047  21973822.9554   21973828.7874   21973823.005
        51.0004         47.0004
   7077053.68146   5527315.33845  25128416.7394   25128418.5374   25128417.048
        40.0004         35.0004
  -7138841.47047  -5517907.73247  23291449.0714   23291449.0704   23291450.322
        46.0004         42.0004
 15  1  8  1 54  0.0000000  0  8G12G15G18G21G24G25G13G22
 -21094719.29549 -16431173.76648  20885125.5384   20885127.2034   20885125.304
        55.0004         50.0004
 -17889735.35648 -13900337.47748  21904560.6714   21904563.3944   21904560.726
        52.0004         48.0004
 -20150442.65349 -15664469.33648  20512156.2944   20512158.1604   20512156.808
        54.0004         50.0004
  -5930229.60447  -4586273.87246  23358626.9024   23358627.3014   23358626.618
        46.0004         41.0004
 -18198379.40949 -14140385.64148  21404846.3254   21404851.2554   21404845.559
        54.0004         49.0004
 -15405060.09848 -11946450.00147  21957359.8324   21957365.5824   21957359.686
        51.0004         47.0004
   7118009.67346   5559229.04746  25136209.4734   25136209.6734   25136207.895
        40.0004         36.0004
  -7231980.02447  -5590483.22747  23273725.7254   23273726.9034   23273726.544
        47.0004         42.0004
 15  1  8  1 54 30.0000000  0  8G12G15G18G21G24G25G13G22
 -21123416.81349 -16453535.47448  20879664.4694   20879666.3154   20879663.904
        55.0004         50.0004
 -17878300.99448 -13891427.61647  21906736.9964   21906739.1834   21906736.420
        52.0004         47.0004
 -20188134.57049 -15693839.66548  20504983.8594   20504985.4484   20504984.349
        54.0004         50.0004
  -5868012.69547  -4537793.19947  23370464.8934   23370468.2034   23370465.740
        46.0004         42.0004
 -18144894.57049 -14098709.17248  21415024.3684   21415029.3654   21415023.678
        54.0004         49.0004
 -15491297.24548 -12013647.76847  21940948.9784   21940954.8394   21940948.975
        51.0004         47.0004
   7159019.79446   5591184.90645  25144012.7154   25144016.1414   25144012.063
        40.0004         35.0004
  -7324922.94247  -5662906.26547  23256038.6064   23256040.2214   23256040.275
        47.0004         42.0004
 15  1  8  1 55  0.0000000  0  8G12G15G18G21G24G25G13G22
 -21151584.96849 -16475484.69148  20874304.2324   20874305.8374   20874303.865
        55.0004         50.0004
 -17866720.41548 -13882403.81547  21908940.7914   21908942.5034   21908940.395
        52.0004         47.0004
 -20225331.78749 -15722824.52748  20497905.3064   20497907.4364   20497905.964
        55.0004         50.0004
  -5805656.71747  -4489204.14346  23382331.1744   23382332.5714   23382331.289
        46.0004         41.0004
 -18091263.76149 -14056918.96348  21425229.6154   21425234.8314   21425229.052
        54.0004         49.0004
 -15577251.23048 -12080624.88947  21924593.2174   21924598.2624   21924592.520
        51.0004         47.0004
   7200086.60746   5623184.96846  25151826.7484   25151831.6574   25151827.311
        40.0004         36.0004
  -7417666.13147  -5735173.67947  23238390.9524   23238392.4594   23238391.720
        47.0004         42.0004
 15  1  8  1 55 30.0000000  0  8G12G15G18G21G24G25G13G22
 -21179227.92349 -16497024.66548  20869044.0494   20869045.8494   20869043.526
        54.0004         50.0004
 -17854997.36048 -13873269.00847  21911171.6194   21911173.6244   21911171.197
        52.0004         47.0004
 -20262037.82649 -15751426.64448  20490920.6444   20490922.3064   20490921.020
        55.0004         50.0004
  -5743169.81547  -4440513.03346  23394222.6834   23394224.2134   23394222.808
        46.0004         41.0004
 -18037494.18249 -14015020.62948  21435462.1254   21435467.3874   21435461.819
        54.0004         49.0004
 -15662924.06648 -12147382.93947  21908289.8124   21908295.0454   21908290.336
        51.0004         47.0004
   7241206.25646   5655226.20045  25159651.7014   25159657.0794   25159651.937
        40.0004         35.0004
  -7510212.07647  -5807287.40447  23220780.0844   23220780.7154   23220780.856
        47.0004         42.0004
 15  1  8  1 56  0.0000000  0  8G12G15G18G21G24G25G13G22
 -21206341.09349 -16518151.82448  20863884.6934   20863886.2454   20863884.401
        55.0004         50.0004
 -17843127.47848 -13864019.78047  21913430.1564   21913432.3074   21913429.417
        52.0004         47.0004
 -20298247.96849 -15779642.35348  20484029.8634   20484031.7644   20484030.102
        55.0004         50.0004
  -5680551.14247  -4391719.30146  23406138.5144   23406139.1164   23406138.562
        46.0004         41.0004
 -17983584.66449 -13973013.24648  21445720.5724   21445725.6934   21445720.036
        54.0004         49.0004
 -15748309.64348 -12213917.15347  21892041.2794   21892046.3034   21892040.772
        51.0004         47.0004
   7282383.39346   5687312.20145  25167485.9454   25167491.3864   25167487.730
        40.0004         35.0004
  -7602554.88947  -5879242.84947  23203208.7814   23203207.9074   23203208.970
        47.0004         42.0004
 15  1  8  1 56 30.0000000  0  8G12G15G18G21G24G25G13G22
 -21232921.53049 -16538863.86048  20858826.6574   20858828.4024   20858826.211
        55.0004         50.0004
 -17831107.98148 -13854653.97247  21915717.9964   21915719.6684   21915716.757
        52.0004         47.0004
 -20333958.98249 -15807469.13748  20477234.3074   20477236.1464   20477234.701
        55.0004         50.0004
  -5617802.91347  -4342824.60846  23418078.0344   23418081.7364   23418078.984
        46.0004         41.0004
 -17929535.78249 -13930897.27748  21456005.7214   21456010.9924   21456005.050
        54.0004         49.0004
 -15833403.99848 -12280224.43347  21875848.6634   21875853.7944   21875848.439
        51.0004         47.0004
   7323620.07846   5719444.59146  25175333.5314   25175336.8774   25175333.873
        40.0004         36.0004
  -7694690.82347  -5951037.08947  23185675.2614   23185676.3174   23185675.815
        47.0004         42.0004
 15  1  8  1 57  0.0000000  0  8G12G15G18G21G24G25G13G22
 -21258968.71249 -16559160.37448  20853870.2224   20853871.7674   20853869.990
        55.0004         50.0004
 -17818939.12548 -13845171.78847  21918032.9914   21918035.3174   21918032.569
        52.0004         47.0004
 -20369170.81049 -15834906.93548  20470533.7934   20470535.6844   20470534.000
        55.0004         50.0004
  -5554929.22247  -4293832.11146  23430042.1794   23430046.2844   23430042.522
        46.0004         41.0004
 -17875350.98249 -13888675.39148  21466317.0584   21466321.3764   21466316.359
        54.0004         49.0004
 -15918205.60748 -12346303.60147  21859711.3064   21859716.9344   21859711.679
        51.0004         47.0004
   7364915.82146   5751623.03946  25183193.5164   25183196.2884   25183193.698
        40.0004         36.0004
  -7786618.71747  -6022669.23647  23168182.0574   23168182.6734   23168182.504
        47.0004         42.0004
 15  1  8  1 57 30.0000000  0  8G12G15G18G21G24G25G13G22
 -21284481.73649 -16579040.65548  20849015.1634   20849016.7094   20849014.829
        55.0004         50.0004
 -17806619.72948 -13835572.29347  21920377.9624   21920379.3964   21920376.824
        52.0004         47.0004
 -20403882.14849 -15861954.74848  20463928.6124   20463930.2024   20463929.033
        55.0004         50.0004
  -5491932.52547  -4244743.75747  23442031.4044   23442033.3034   23442031.385
        46.0004         42.0004
 -17821032.47649 -13846349.33548  21476653.1374   21476658.4004   21476652.400
        54.0004         49.0004
 -16002711.62148 -12412152.43747  21843630.6734   21843635.7844   21843630.081
        51.0004         47.0004
   7406271.71246   5783848.31846  25191062.4154   25191065.6514   25191061.796
        40.0004         36.0004
  -7878336.00247  -6094137.24347  23150728.1684   23150728.5224   23150729.187
        47.0004         42.0004
 15  1  8  1 58  0.0000000  0  8G12G15G18G21G24G25G13G22
 -21309461.04049 -16598505.05448  20844261.7454   20844263.3384   20844261.499
        55.0004         50.0004
 -17794150.04148 -13825855.69248  21922750.5484   21922752.5924   21922750.558
        52.0004         48.0004
 -20438092.95049 -15888612.52748  20457418.1844   20457420.2104   20457418.603
        55.0004         50.0004
  -5428817.80247  -4195563.48347  23454040.2954   23454044.0354   23454041.277
        46.0004         42.0004
 -17766583.76448 -13803921.80148  21487014.6534   21487019.6344   21487014.235
        53.0004         49.0004
 -16086920.86348 -12477770.02247  21827605.8114   21827611.5404   21827605.337
        51.0004         47.0004
   7447687.21246   5816120.06846  25198942.8624   25198948.5084   25198944.585
        40.0004         36.0004
  -7969841.93747  -6165440.58447  23133315.9494   23133315.8904   23133316.291
        47.0004         43.0004
 15  1  8  1 58 30.0000000  0  8G12G15G18G21G24G25G13G22
 -21333901.56949 -16617549.63248  20839610.7134   20839612.5604   20839610.578
        55.0004         50.0004
 -17781525.13348 -13816018.13748  21925152.9924   21925155.7164   21925152.274
        52.0004         48.0004
 -20471798.24649 -15914876.40648  20451004.4614   20451006.3314   20451005.075
        55.0004         50.0004
  -5365584.45647  -4146290.75846  23466074.0704   23466076.0514   23466073.976
        46.0004         41.0004
 -17712003.40048 -13761391.68748  21497401.4034   21497406.0744   21497400.770
        53.0004         49.0004
 -16170827.10948 -12543151.51147  21811639.4274   21811644.3174   21811639.130
        52.0004         47.0004
   7489167.01346   5848441.93345  25206834.8594   25206839.2904   25206835.539
        40.0004         35.0004
  -8061130.48647  -6236574.52747  23115943.8044   23115945.6914   23115944.632
        47.0004         43.0004
 15  1  8  1 59  0.0000000  0  8G12G15G18G21G24G25G13G22
 -21357805.41049 -16636176.01748  20835061.4784   20835063.4184   20835061.187
        55.0004         50.0004
 -17768747.04448 -13806061.22447  21927584.0204   21927587.0954   21927583.823
        52.0004         47.0004
 -20504999.70049 -15940747.68448  20444686.4544   20444688.3314   20444686.907
        55.0004         50.0004
  -5302238.91747  -4096930.60146  23478128.4104   23478131.3884   23478128.519
        46.0004         41.0004
 -17657296.51848 -13718762.99748  21507811.6324   21507816.3254   21507810.865
        53.0004         49.0004
 -16254430.73448 -12608297.18747  21795730.2504   21795735.8104   21795729.983
        52.0004         47.0004
   7530708.62246   5880811.95845  25214738.7224   25214746.1804   25214741.818
        40.0004         35.0004
  -8152202.34647  -6307539.63147  23098613.3244   23098614.8004   23098614.442
        47.0004         43.0004
 15  1  8  1 59 30.0000000  0  8G12G15G18G21G24G25G13G22
 -21381169.97549 -16654382.18748  20830615.8684   20830617.6044   20830615.604
        55.0004         50.0004
 -17755813.13048 -13795982.88547  21930045.6964   21930048.6154   21930044.831
        52.0004         47.0004
 -20537694.51249 -15966224.17548  20438464.9074   20438466.9634   20438465.101
        55.0004         50.0004
  -5238782.05247  -4047483.71347  23490204.1634   23490206.4304   23490204.622
        46.0004         42.0004
 -17602463.68148 -13676036.15348  21518246.1454   21518250.8354   21518245.416
        53.0004         49.0004
 -16337727.64248 -12673203.86747  21779878.8184   21779884.7994   21779878.752
        52.0004         47.0004
   7572314.51946   5913232.07746  25222657.5284   25222663.5324   25222659.405
        40.0004         36.0004
  -8243053.59347  -6378332.81347  23081325.0654   23081326.2614   23081325.995
        47.0004         43.0004
 15  1  8  2  0  0.0000000  0  8G12G15G18G21G24G25G13G22
 -21403992.10149 -16672165.66948  20826272.9454   20826274.6564   20826272.525
        55.0004         50.0004
 -17742720.25948 -13785780.68347  21932536.7724   21932539.6734   21932536.079
        52.0004         47.0004
 -20569879.11949 -15991303.10048  20432340.4934   20432342.2374   20432340.754
        55.0004         50.0004
  -5175215.17847  -3997951.12247  23502300.1294   23502302.6994   23502300.879
        47.0004         42.0004
 -17547505.34348 -13633211.51748  21528704.4174   21528709.0234   21528703.978
        53.0004         49.0004
 -16420713.06248 -12737867.82047  21764087.1744   21764093.1004   21764087.339
        52.0004         47.0004
   7613987.90646   5945704.79646  25230589.3584   25230592.9174   25230591.621
        40.0004         36.0004
  -8333679.77947  -6448950.63447  23064079.3114   23064080.7304   23064079.780
        47.0004         43.0004
 15  1  8  2  0 30.0000000  0  8G12G15G18G21G24G25G13G22
 -21426273.36349 -16689527.70548  20822033.1804   20822034.9254   20822032.861
        55.0004         50.0004
 -17729469.98948 -13775455.83347  21935058.5924   21935061.3344   21935058.405
        52.0004         47.0004
 -20601555.54749 -16015986.04348  20426312.7554   20426314.6514   20426312.929
        55.0004         50.0004
  -5111544.69047  -3948337.76846  23514415.3684   23514418.9604   23514416.031
        46.0004         41.0004
 -17492426.24948 -13590292.78248  21539185.6184   21539190.2064   21539184.684
        53.0004         49.0004
 -16503387.26948 -12802289.27647  21748355.0574   21748361.2414   21748354.776
        52.0004         47.0004
   7655726.54546   5978228.33946  25238533.1874   25238537.6314   25238530.927
        40.0004         36.0004
  -8424081.57148  -6519393.59847  23046876.0884   23046877.8504   23046877.094
        48.0004         43.0004
 15  1  8  2  1  0.0000000  0  8G12G15G18G21G24G25G13G22
 -21448012.79049 -16706467.53248  20817896.3104   20817897.6334   20817895.671
        55.0004         50.0004
 -17716061.02648 -13765007.33347  21937609.9904   21937612.5414   21937609.996
        52.0004         47.0004
 -20632722.19149 -16040271.75348  20420381.8274   20420383.5844   20420382.168
        55.0004         50.0004
  -5047773.07747  -3898645.62747  23526551.0594   23526554.2704   23526551.585
        46.0004         42.0004
 -17437228.37948 -13547281.49348  21549689.6314   21549694.0744   21549688.817
        53.0004         49.0004
 -16585747.47548 -12866466.05947  21732682.2334   21732688.2654   21732681.691
        52.0004         47.0004
   7697531.64846   6010803.67246  25246490.3344   25246492.9564   25246487.669
        41.0004         36.0004
  -8514256.17948  -6589659.54047  23029717.0554   23029718.0464   23029718.183
        48.0004         43.0004
 15  1  8  2  1 30.0000000  0  8G12G15G18G21G24G25G13G22
 -21469207.97149 -16722983.27348  20813862.9404   20813864.5504   20813862.964
        55.0004         50.0004
 -17702491.02548 -13754433.34147  21940192.5244   21940194.6414   21940191.825
        52.0004         47.0004
 -20663376.74149 -16064158.43148  20414548.3474   20414550.4394   20414548.638
        55.0004         50.0004
  -4983901.65347  -3848875.70447  23538705.8984   23538708.2204   23538706.852
        46.0004         42.0004
 -17381912.65448 -13504178.37348  21560215.6284   21560220.5814   21560214.918
        53.0004         49.0004
 -16667789.86248 -12930395.19547  21717069.9454   21717076.0334   21717070.259
        52.0004         47.0004
   7739405.04946   6043432.20546  25254456.3244   25254461.9304   25254457.533
        41.0004         36.0004
  -8604200.16848  -6659745.76747  23012601.4644   23012601.7804   23012602.036
        48.0004         43.0004
 15  1  8  2  2  0.0000000  0  8G12G15G18G21G24G25G13G22
 -21489854.68649 -16739071.63648  20809934.0464   20809935.7294   20809933.681
        55.0004         50.0004
 -17688755.43948 -13743730.32847  21942806.3984   21942808.3424   21942806.265
        52.0004         47.0004
 -20693514.32249 -16087642.27748  20408813.5294   20408815.5824   20408813.915
        55.0004         50.0004
  -4919930.39047  -3799027.97047  23550878.6904   23550882.0424   23550879.863
        46.0004         42.0004
 -17326477.93648 -13460982.53248  21570764.2074   21570769.5764   21570763.870
        53.0004         49.0004
 -16749508.35148 -12994071.94747  21701519.6244   21701525.5764   21701519.709
        52.0004         47.0004
   7781351.34746   6076117.53546  25262439.3394   25262440.1294   25262437.889
        40.0004         36.0004
  -8693907.49048  -6729647.56547  22995530.0564   22995531.4504   22995531.602
        48.0004         44.0004
 15  1  8  2  2 30.0000000  0  8G12G15G18G21G24G25G13G22
 -21509957.20149 -16754735.95048  20806108.4204   20806110.2874   20806107.901
        55.0004         50.0004
 -17674858.81948 -13732901.83347  21945451.1664   21945453.0184   21945450.417
        52.0004         47.0004
 -20723139.25149 -16110726.65248  20403176.0844   20403177.7624   20403176.253
        55.0004         50.0004
  -4855868.41547  -3749109.55246  23563068.1544   23563073.2734   23563069.804
        46.0004         41.0004
 -17270931.61348 -13417699.72848  21581334.3764   21581339.2944   21581333.622
        53.0004         49.0004
 -16830905.87848 -13057498.59047  21686030.5164   21686035.1264   21686030.107
        52.0004         47.0004
   7823365.55546   6108855.78945  25270433.1784   25270437.3014   25270435.715
        40.0004         35.0004
  -8783381.66748  -6799367.72647  22978504.2384   22978504.8904   22978504.614
        48.0004         44.0004
 15  1  8  2  3  0.0000000  0  8G12G15G18G21G24G25G13G22
 -21529508.69849 -16769970.89748  20802387.9084   20802389.7494   20802387.736
        55.0004         50.0004
 -17660793.76648 -13721942.08947  21948127.7954   21948130.0654   21948126.887
        52.0004         47.0004
 -20752244.75249 -16133406.28348  20397637.7174   20397639.0954   20397638.006
        55.0004         50.0004
  -4791712.34247  -3699117.83346  23575278.2874   23575280.4724   23575279.242
        46.0004         41.0004
 -17215269.77448 -13374326.92248  21591926.3494   21591931.7174   21591926.017
        53.0004         49.0004
 -16911973.99748 -13120668.55347  21670603.6744   21670608.9024   21670603.377
        52.0004         47.0004
   7865454.70846   6141652.44045  25278441.3404   25278443.2564   25278442.005
        40.0004         35.0004
  -8872614.24148  -6868899.63547  22961524.2964   22961524.3774   22961524.393
        48.0004         43.0004
 15  1  8  2  3 30.0000000  0  8G12G15G18G21G24G25G13G22
 -21548516.72449 -16784782.36648  20798770.8554   20798772.7414   20798770.517
        55.0004         50.0004
 -17646567.76048 -13710856.93247  21950834.5584   21950836.8974   21950834.451
        52.0004         47.0004
 -20780838.04249 -16155686.78648  20392195.7914   20392197.9174   20392196.674
        55.0004         50.0004
  -4727473.52647  -3649061.64546  23587502.4204   23587505.3414   23587503.073
        46.0004         41.0004
 -17159503.18248 -13330872.47848  21602538.1634   21602543.6164   21602537.757
        53.0004         49.0004
 -16992718.42148 -13183586.28347  21655238.2034   21655243.6154   21655238.064
        52.0004         47.0004
   7907611.24946   6174501.59945  25286464.7904   25286469.9004   25286465.613
        39.0004         34.0004
  -8961611.16148  -6938247.90247  22944587.3794   22944588.8894   22944589.428
        48.0004         43.0004
 15  1  8  2  4  0.0000000  0  8G12G15G18G21G24G25G13G22
 -21566971.69349 -16799162.87348  20795258.7144   20795260.7874   20795258.529
        55.0004         50.0004
 -17632170.87048 -13699638.61847  21953574.0764   21953576.7414   21953573.169
        52.0004         47.0004
 -20808909.52249 -16177560.68148  20386854.1974   20386856.3544   20386854.544
        55.0004         50.0004
  -4663146.57547  -3598936.75346  23599743.1794   23599744.8064   23599743.375
        45.0004         41.0004
 -17103625.14748 -13287331.21148  21613171.6704   21613177.0364   21613171.199
        53.0004         49.0004
 -17073128.01748 -13246243.11147  21639936.6724   21639941.4984   21639936.524
        52.0004         47.0004
   7949844.66446   6207410.71845  25294500.1964   25294506.0964   25294502.534
        39.0004         35.0004
  -9050361.45448  -7007404.00647  22927698.2044   22927700.4874   22927699.318
        48.0004         43.0004
 15  1  8  2  4 30.0000000  0  8G12G15G18G21G24G25G13G22
 -21584876.14549 -16813114.41648  20791851.7514   20791853.6054   20791850.986
        55.0004         50.0004
 -17617605.35848 -13688288.90647  21956346.0224   21956348.3854   21956345.421
        52.0004         47.0004
 -20836460.70349 -16199029.15248  20381611.4184   20381613.3354   20381612.033
        55.0004         50.0004
  -4598737.87947  -3548748.16346  23612000.5404   23612001.8704   23612000.954
        46.0004         41.0004
 -17047641.14848 -13243707.36748  21623825.7864   21623830.2844   21623825.208
        53.0004         49.0004
 -17153203.50848 -13308639.60547  21624698.8204   21624704.2504   21624698.583
        52.0004         47.0004
   7992152.53746   6240377.83545  25302551.4434   25302556.1134   25302552.445
        39.0004         35.0004
  -9138866.14848  -7076368.72947  22910857.0374   22910858.4454   22910858.296
        48.0004         43.0004
 15  1  8  2  5  0.0000000  0  8G12G15G18G21G24G25G13G22
 -21602226.38649 -16826634.10048  20788550.3274   20788552.3204   20788550.417
        55.0004         50.0004
 -17602867.55148 -13676804.94047  21959150.4774   21959153.4794   21959150.188
        52.0004         47.0004
 -20863488.05449 -16220089.44448  20376468.3264   20376470.5734   20376468.723
        55.0004         50.0004
  -4534247.64547  -3498496.06146  23624272.5474   23624275.3284   23624273.859
        46.0004         41.0004
 -16991550.72148 -13200000.58648  21634499.1604   21634504.1844   21634498.554
        53.0004         49.0004
 -17232939.78848 -13370771.77747  21609525.2534   21609531.0584   21609525.901
        52.0004         47.0004
   8034538.21046   6273405.55845  25310618.1404   25310621.5414   25310617.668
        40.0004         35.0004
  -9227120.07848  -7145138.02647  22894063.4084   22894064.8784   22894064.719
        48.0004         44.0004
 15  1  8  2  5 30.0000000  0  8G12G15G18G21G24G25G13G22
 -21619026.95149 -16839725.46748  20785353.3964   20785355.1244   20785352.868
        55.0004         50.0004
 -17587961.15648 -13665189.59447  21961986.7614   21961989.6124   21961986.408
        52.0004         47.0004
 -20889995.87849 -16240744.91148  20371424.4944   20371426.3114   20371424.898
        55.0004         50.0004
  -4469683.85647  -3448186.62046  23636556.3984   23636559.7044   23636558.109
        45.0004         40.0004
 -16935360.91548 -13156216.37048  21645191.7714   21645196.5144   21645191.196
        53.0004         48.0004
 -17312339.16748 -13432641.42547  21594416.1394   21594421.9354   21594416.470
        52.0004         47.0004
   8076997.62446   6306490.75245  25318699.0044   25318701.5254   25318699.593
        40.0004         35.0004
  -9315126.19048  -7213714.22247  22877317.4764   22877317.6274   22877317.449
        48.0004         44.0004
 15  1  8  2  6  0.0000000  0  8G12G15G18G21G24G25G13G22
 -21635272.34349 -16852384.22948  20782262.1884   20782263.5704   20782262.103
        55.0004         50.0004
 -17572880.55248 -13653438.51347  21964857.4304   21964859.0244   21964856.282
        52.0004         47.0004
 -20915978.54049 -16260991.16648  20366479.7984   20366481.9904   20366480.327
        55.0004         50.0004
  -4405045.31847  -3397818.93846  23648858.3264   23648860.2794   23648858.705
        45.0004         41.0004
 -16879068.88648 -13112352.50248  21655903.9734   21655908.6494   21655903.261
        53.0004         48.0004
 -17391394.72848 -13494243.16147  21579372.4584   21579378.2004   21579372.011
        52.0004         47.0004
   8119536.03446   6339637.44746  25326795.8314   25326797.7504   25326796.451
        40.0004         36.0004
  -9402877.54648  -7282091.92147  22860618.2974   22860618.8534   22860618.701
        48.0004         44.0004
 15  1  8  2  6 30.0000000  0  8G12G15G18G21G24G25G13G22
 -21650962.30949 -16864610.19648  20779276.3074   20779278.1674   20779275.753
        55.0004         50.0004
 -17557624.76948 -13641550.93347  21967759.7204   21967761.8804   21967759.384
        52.0004         47.0004
 -20941435.02249 -16280827.41348  20361635.9124   20361637.6604   20361636.293
        55.0004         51.0004
  -4340335.19647  -3347395.48346  23661172.8544   23661174.3444   23661172.548
        45.0004         40.0004
 -16822677.61648 -13068411.30748  21666635.0934   21666639.5964   21666634.479
        53.0004         48.0004
 -17470104.26348 -13555575.27648  21564394.4804   21564400.6894   21564394.791
        52.0004         48.0004
   8162153.88146   6372846.08346  25334903.4464   25334907.1504   25334904.108
        40.0004         36.0004
  -9490371.88148  -7350269.33847  22843968.7244   22843969.7454   22843969.671
        48.0004         44.0004
 15  1  8  2  7  0.0000000  0  8G12G15G18G21G24G25G13G22
 -21666096.68349 -16876403.23348  20776396.2024   20776398.1024   20776396.059
        55.0004         50.0004
 -17542193.90748 -13629526.92847  21970695.9914   21970698.3694   21970695.866
        52.0004         47.0004
 -20966365.59849 -16300253.85648  20356891.8364   20356893.8994   20356892.162
        55.0004         51.0004
  -4275557.63447  -3296919.47146  23673498.0214   23673501.3474   23673498.218
        45.0004         40.0004
 -16766189.43748 -13024394.60148  21677383.6544   21677389.1554   21677383.306
        53.0004         48.0004
 -17548466.06548 -13616636.43248  21549483.0754   21549488.2604   21549483.373
        52.0004         48.0004
   8204851.47646   6406116.84546  25343030.1324   25343032.6234   25343030.647
        41.0004         36.0004
  -9577607.66648  -7418245.27947  22827368.9054   22827368.9784   22827369.536
        49.0004         44.0004
 15  1  8  2  7 30.0000000  0  8G12G15G18G21G24G25G13G22
 -21680671.79549 -16887760.47848  20773622.4514   20773624.6644   20773622.068
        55.0004         50.0004
 -17526583.85348 -13617363.29847  21973667.1754   21973669.2084   21973666.733
        52.0004         47.0004
 -20990766.25949 -16319267.38348  20352248.5724   20352250.8374   20352248.621
        55.0004         50.0004
  -4210712.02047  -3246390.45646  23685839.6724   23685842.0194   23685839.423
        45.0004         40.0004
 -16709604.01048 -12980302.11548  21688151.7004   21688157.1754   21688150.836
        53.0004         48.0004
 -17626474.62748 -13677422.33648  21534637.9444   21534644.2324   21534637.894
        52.0004         48.0004
   8247632.34746   6439452.49345  25351170.2664   25351171.2694   25351169.284
        40.0004         35.0004
  -9664579.72448  -7486015.72747  22810818.1874   22810818.4744   22810819.010
        49.0004         44.0004
 15  1  8  2  8  0.0000000  0  8G12G15G18G21G24G25G13G22
 -21694694.00949 -16898686.90248  20770954.3214   20770956.2954   20770954.229
        55.0004         50.0004
 -17510800.21248 -13605064.39147  21976670.8764   21976672.7064   21976670.530
        52.0004         47.0004
 -21014642.86949 -16337872.55848  20347704.5114   20347707.1204   20347705.265
        55.0004         50.0004
  -4145808.83147  -3195816.56246  23698189.8474   23698191.2084   23698190.500
        45.0004         41.0004
 -16652929.94748 -12936140.56548  21698936.6754   21698941.5114   21698936.019
        53.0004         48.0004
 -17704134.52048 -13737936.54348  21519860.5764   21519865.5314   21519860.923
        52.0004         48.0004
   8290490.50646   6472848.36246  25359328.7024   25359328.4464   25359326.035
        40.0004         36.0004
  -9751292.55048  -7553584.18947  22794316.8224   22794317.8994   22794317.698
        49.0004         44.0004
 15  1  8  2  8 30.0000000  0  8G12G15G18G21G24G25G13G22
 -21708157.84149 -16909178.22048  20768392.2794   20768394.4854   20768391.713
        55.0004         50.0004
 -17494836.74048 -13592625.36547  21979708.4714   21979710.6494   21979707.926
        52.0004         47.0004
 -21037989.27249 -16356064.58948  20343262.1674   20343264.3474   20343262.505
        55.0004         50.0004
  -4080845.98647  -3145196.17546  23710551.8194   23710554.5664   23710551.627
        45.0004         40.0004
 -16596164.20648 -12891907.58048  21709738.8314   21709744.2784   21709738.321
        53.0004         48.0004
 -17781438.20348 -13798173.19248  21505150.2864   21505155.2434   21505149.867
        53.0004         48.0004
   8333431.66246   6506308.90845  25367499.3164   25367500.9434   25367495.731
        40.0004         35.0004
  -9837738.92948  -7620945.02447  22777866.5834   22777868.2994   22777867.840
        49.0004         45.0004
 15  1  8  2  9  0.0000000  0  8G12G15G18G21G24G25G13G22
 -21721059.56949 -16919231.53648  20765937.2114   20765939.1134   20765936.982
        55.0004         50.0004
 -17478689.53048 -13580043.16047  21982780.7384   21982783.9544   21982780.835
        52.0004         47.0004
 -21060801.71649 -16373840.54248  20338921.0534   20338923.2764   20338921.439
        55.0004         50.0004
  -4015823.58447  -3094529.39746  23722924.5554   23722928.3494   23722924.666
        45.0004         41.0004
 -16539305.85748 -12847602.42448  21720558.4814   21720563.5754   21720557.633
        53.0004         48.0004
 -17858380.09448 -13858127.91948  21490508.6084   21490513.5294   21490508.260
        53.0004         48.0004
   8376459.81046   6539837.28245  25375684.1634   25375689.2554   25375684.309
        40.0004         35.0004
  -9923913.43448  -7688094.00547  22761468.6164   22761469.4864   22761468.848
        49.0004         45.0004
 15  1  8  2  9 30.0000000  0  8G12G15G18G21G24G25G13G22
 -21733403.33749 -16928850.07348  20763588.5774   20763590.2484   20763588.215
        55.0004         50.0004
 -17462362.09748 -13567320.52647  21985888.0974   21985890.5864   21985887.625
        52.0004         47.0004
 -21083084.06649 -16391203.42848  20334680.9584   20334683.0714   20334681.190
        55.0004         50.0004
  -3950749.48747  -3043822.34646  23735308.6974   23735311.5974   23735308.596
        45.0004         41.0004
 -16482361.85948 -12803230.54148  21731394.4324   21731400.5114   21731394.214
        52.0004         48.0004
 -17934962.71748 -13917802.69148  21475935.1954   21475940.9204   21475935.428
        53.0004         48.0004
   8419570.64646   6573430.06945  25383886.5844   25383890.5834   25383884.148
        39.0004         35.0004
 -10009819.06448  -7755033.48147  22745120.5504   22745121.8544   22745121.276
        49.0004         44.0004
 15  1  8  2 10  0.0000000  0  8G12G15G18G21G24G25G13G22
 -21745182.32249 -16938028.52748  20761346.9234   20761348.6034   20761346.351
        55.0004         50.0004
 -17445847.10548 -13554451.74047  21989030.5654   21989033.7634   21989030.386
        52.0004         47.0004
 -21104829.12549 -16408147.65848  20330543.2834   20330545.1514   20330543.211
        55.0004         50.0004
  -3885620.10947  -2993072.19946  23747701.9084   23747705.4734   23747702.090
        45.0004         41.0004
 -16425327.96548 -12758788.60848  21742247.7594   21742252.8924   21742247.417
        52.0004         48.0004
 -18011177.26848 -13977190.66448  21461432.0244   21461437.3264   21461431.973
        53.0004         48.0004
   8462771.20346   6607092.79845  25392108.7344   25392112.0874   25392106.007
        40.0004         35.0004
 -10095446.42248  -7821756.13647  22728826.6234   22728827.9184   22728827.476
        49.0004         44.0004
 15  1  8  2 10 30.0000000  0  8G12G15G18G21G24G25G13G22
 -21756404.75349 -16946773.29948  20759211.5654   20759213.0314   20759211.228
        55.0004         50.0004
 -17429152.44048 -13541442.94547  21992207.9044   21992210.7354   21992207.202
        52.0004         47.0004
 -21126045.47649 -16424679.90348  20326505.8044   20326507.9694   20326506.236
        55.0004         50.0004
  -3820447.61447  -2942288.44546  23760102.9844   23760105.3854   23760104.437
        45.0004         41.0004
 -16368215.39948 -12714285.37048  21753115.9644   21753121.2434   21753115.419
        52.0004         48.0004
 -18087030.34848 -14036296.97548  21446998.0704   21447003.4484   21446997.871
        53.0004         48.0004
   8506053.57846   6640819.24345  25400343.9324   25400352.3864   25400345.842
        39.0004         35.0004
 -10180802.46148  -7888267.36347  22712584.3544   22712585.3064   22712584.855
        49.0004         44.0004
 15  1  8  2 11  0.0000000  0  8G12G15G18G21G24G25G13G22
 -21767060.20149 -16955076.26548  20757183.8914   20757185.4004   20757183.700
        55.0004         50.0004
 -17412266.95748 -13528285.46147  21995421.1414   21995423.4424   21995421.029
        52.0004         47.0004
 -21146721.99149 -16440791.49148  20322571.1764   20322573.1164   20322571.559
        55.0004         50.0004
  -3755224.67247  -2891465.40646  23772515.6134   23772518.3164   23772515.907
        45.0004         40.0004
 -16311015.21248 -12669713.84948  21764001.4384   21764006.1644   21764000.520
        52.0004         48.0004
 -18162509.37048 -14095111.80948  21432634.8674   21432640.2554   21432635.300
        53.0004         48.0004
   8549428.60146   6674617.88745  25408601.1054   25408603.0794   25408597.369
        40.0004         35.0004
 -10265874.61248  -7954557.38747  22696395.2914   22696395.4164   22696395.681
        49.0004         44.0004
 15  1  8  2 11 30.0000000  0  8G12G15G18G21G24G25G13G22
 -21777157.94549 -16962944.65748  20755262.3804   20755263.9634   20755261.827
        55.0004         50.0004
 -17395199.44048 -13514986.13547  21998669.6174   21998671.8594   21998668.032
        52.0004         47.0004
 -21166867.75049 -16456489.50848  20318737.6404   20318739.5234   20318738.009
        55.0004         50.0004
  -3689964.31447  -2840613.20146  23784934.8464   23784936.4104   23784934.204
        45.0004         40.0004
 -16253740.23048 -12625084.04748  21774900.0374   21774905.2804   21774899.088
        52.0004         48.0004
 -18237621.87848 -14153641.04448  21418341.2584   21418347.0854   21418341.166
        53.0004         48.0004
   8592887.24546   6708481.66045  25416869.5404   25416873.7964   25416870.635
        40.0004         35.0004
 -10350670.54448  -8020632.16847  22680258.9764   22680260.6924   22680259.756
        49.0004         44.0004
 15  1  8  2 12  0.0000000  0  8G12G15G18G21G24G25G13G22
 -21786688.33049 -16970370.95248  20753448.8634   20753450.4984   20753448.580
        55.0004         50.0004
 -17377939.17748 -13501536.63147  22001953.1704   22001955.8074   22001953.173
        52.0004         47.0004
 -21186472.40549 -16471765.89148  20315006.9054   20315008.8744   20315007.366
        55.0004         50.0004
  -3624660.08247  -2789726.79546  23797360.9024   23797364.5504   23797361.671
        45.0004         41.0004
 -16196382.41148 -12580389.71148  21785815.6654   21785820.6904   21785815.040
        52.0004         48.0004
 -18312355.93648 -14211875.38748  21404120.1374   21404125.4884   21404119.802
        53.0004         48.0004
   8636439.69146   6742418.52045  25425157.6104   25425163.1284   25425156.572
        40.0004         35.0004
 -10435178.45648  -8086482.50247  22664178.1904   22664179.2454   22664178.801
        49.0004         44.0004
 15  1  8  2 12 30.0000000  0  8G12G15G18G21G24G25G13G22
 -21795655.63749 -16977358.48848  20751742.2944   20751744.3714   20751741.737
        55.0004         50.0004
 -17360490.18948 -13487940.05347  22005274.1714   22005276.6334   22005273.820
        52.0004         47.0004
 -21205540.35549 -16486624.05848  20311378.3514   20311380.4144   20311378.777
        55.0004         50.0004
  -3559320.06447  -2738812.52046  23809794.8204   23809798.4794   23809794.982
        45.0004         41.0004
 -16138948.84248 -12535636.34348  21796744.5134   21796749.5884   21796744.031
        52.0004         48.0004
 -18386714.21148 -14269816.91248  21389970.1944   21389975.4514   21389970.286
        53.0004         48.0004
   8680081.90046   6776425.34945  25433460.3914   25433466.3604   25433461.155
        40.0004         35.0004
 -10519401.16148  -8152110.58647  22648151.0064   22648151.8384   22648152.102
        49.0004         44.0004
 15  1  8  2 13  0.0000000  0  8G12G15G18G21G24G25G13G22
 -21804058.51549 -16983906.21248  20750143.4184   20750145.2044   20750142.877
        55.0004         50.0004
 -17342850.12648 -13474194.58847  22008630.8294   22008633.1954   22008630.148
        52.0004         47.0004
 -21224069.57149 -16501062.43648  20307852.5584   20307854.6644   20307852.865
        55.0004         50.0004
  -3493946.06247  -2687871.74946  23822235.1844   23822237.6054   23822235.260
        45.0004         40.0004
 -16081440.37348 -12490824.61448  21807687.6184   21807693.3914   21807687.277
        52.0004         48.0004
 -18460693.08348 -14327462.80748  21375892.2304   21375897.9604   21375891.709
        53.0004         48.0004
   8723815.42046   6810503.28046  25441785.7174   25441790.1854   25441785.051
        40.0004         36.0004
 -10603335.06148  -8217513.65447  22632178.6664   22632180.0314   22632179.232
        49.0004         44.0004
 15  1  8  2 13 30.0000000  0  9G12G15G18G21G24G25G13G22G29
 -21811895.81149 -16990013.22048  20748651.9044   20748654.0354   20748651.828
        55.0004         50.0004
 -17325017.27648 -13460298.90447  22012024.4144   22012026.5904   22012023.802
        52.0004         47.0004
 -21242058.52349 -16515079.83448  20304429.3714   20304431.4864   20304429.941
        55.0004         51.0004
  -3428540.11647  -2636906.11046  23834680.2274   23834684.2804   23834681.579
        45.0004         40.0004
 -16023858.51148 -12445955.69848  21818645.6814   21818650.9754   21818644.703
        52.0004         48.0004
 -18534289.61948 -14384810.76948  21361887.2644   21361893.1534   21361887.171
        53.0004         48.0004
   8767641.82146   6844653.63345  25450122.2354   25450129.9034   25450124.829
        40.0004         35.0004
 -10686977.02848  -8282689.23847  22616262.8634   22616263.4784   22616262.785
        49.0004         44.0004
   -989377.17047   -756543.29546  25194611.3714   25194613.6824   25194610.606
        43.0004         38.0004
 15  1  8  2 14  0.0000000  0  9G12G15G18G21G24G25G13G22G29
 -21819166.49249 -16995678.71148  20747268.5494   20747270.0554   20747267.901
        55.0004         50.0004
 -17306989.66448 -13446251.45247  22015455.1044   22015457.2524   22015454.452
        52.0004         47.0004
 -21259506.04849 -16528675.33548  20301109.1784   20301111.0774   20301109.371
        55.0004         50.0004
  -3363104.54047  -2585917.36546  23847133.4374   23847136.4264   23847133.895
        44.0004         40.0004
 -15966203.67948 -12401029.92547  21829616.7564   21829622.2144   21829616.233
        52.0004         47.0004
 -18607500.53948 -14441858.24948  21347955.3234   21347961.1344   21347955.509
        53.0004         48.0004
   8811562.86846   6878877.74845  25458482.5184   25458488.0694   25458480.432
        40.0004         35.0004
 -10770324.05248  -8347635.01047  22600401.7924   22600402.8434   22600402.556
        49.0004         44.0004
  -1029915.42747   -788131.59246  25186897.2574   25186900.2524   25186896.796
        43.0004         38.0004
 15  1  8  2 14 30.0000000  0  9G12G15G18G21G24G25G13G22G29
 -21825872.53849 -17000904.22348  20745992.2594   20745994.1154   20745991.823
        55.0004         50.0004
 -17288768.78948 -13432053.41247  22018922.3304   22018924.6364   22018921.527
        52.0004         47.0004
 -21276413.66349 -16541850.12748  20297891.5314   20297893.8664   20297892.293
        55.0004         51.0004
  -3297644.94747  -2534909.89846  23859590.8134   23859592.9644   23859590.253
        45.0004         40.0004
 -15908480.75348 -12356051.09147  21840601.4554   21840606.5274   21840601.085
        52.0004         47.0004
 -18680326.08148 -14498605.43948  21334097.2374   21334103.3614   21334097.302
        53.0004         48.0004
   8855576.69246   6913174.15245  25466856.8924   25466862.4134   25466856.930
        40.0004         35.0004
 -10853376.11348  -8412350.93047  22584598.0564   22584597.8584   22584598.124
        49.0004         44.0004
  -1070779.88447   -819974.06446  25179120.3394   25179123.2544   25179120.552
        43.0004         38.0004
 15  1  8  2 15  0.0000000  0  9G12G15G18G21G24G25G13G22G29
 -21832010.81549 -17005687.32248  20744824.0744   20744825.8614   20744823.892
        55.0004         50.0004
 -17270350.70248 -13417701.69247  22022427.3884   22022429.5504   22022426.967
        52.0004         47.0004
 -21292778.24449 -16554601.77848  20294777.3844   20294779.6014   20294777.908
        55.0004         50.0004
  -3232161.34947  -2483883.74746  23872052.1184   23872053.2214   23872052.489
        45.0004         40.0004
 -15850689.04948 -12311018.66447  21851598.7734   21851603.9204   21851597.985
        52.0004         47.0004
 -18752761.12848 -14555048.34348  21320313.3764   21320319.1104   21320313.644
        53.0004         48.0004
   8899687.05646   6947545.78045  25475250.7964   25475257.5904   25475248.702
        40.0004         35.0004
 -10936128.25948  -8476833.16947  22568850.4834   22568851.4724   22568850.652
        49.0004         44.0004
  -1111966.63047   -852067.70446  25171282.0804   25171284.3504   25171281.973
        42.0004         37.0004
 15  1  8  2 15 30.0000000  0  9G12G15G18G21G24G25G13G22G29
 -21837582.03849 -17010028.56148  20743764.0624   20743765.5334   20743764.074
        55.0004         50.0004
 -17251734.99448 -13403195.97747  22025969.5454   22025972.1044   22025968.883
        52.0004         47.0004
 -21308600.09949 -16566930.52248  20291766.9114   20291768.8914   20291767.208
        55.0004         50.0004
  -3166657.25847  -2432841.61446  23884517.0024   23884518.6974   23884516.886
        44.0004         40.0004
 -15792831.55248 -12265934.96747  21862608.7674   21862613.8254   21862607.526
        52.0004         47.0004
 -18824804.16848 -14611185.79448  21306604.2884   21306609.5424   21306604.254
        53.0004         49.0004
   8943893.53046   6981992.30445  25483663.7774   25483670.2834   25483667.001
        40.0004         35.0004
 -11018579.45548  -8541080.87547  22553160.3704   22553161.5584   22553161.239
        49.0004         44.0004
  -1153475.75046   -884412.49846  25163381.8554   25163386.7864   25163381.726
        41.0004         36.0004
 15  1  8  2 16  0.0000000  0  8G12G15G18G21G24G25G22G29
 -21842585.30549 -17013927.23648  20742811.7854   20742813.5904   20742811.564
        55.0004         50.0004
 -17232920.16648 -13388535.11447  22029549.8124   22029552.3284   22029549.534
        52.0004         47.0004
 -21323877.91649 -16578835.34448  20288859.6304   20288862.0824   20288860.100
        55.0004         50.0004
  -3101135.37547  -2381785.62846  23896984.5944   23896987.2974   23896985.305
        45.0004         40.0004
 -15734908.97948 -12220800.57547  21873630.9404   21873636.0814   21873630.942
        52.0004         47.0004
 -18896452.28548 -14667015.50648  21292970.0394   21292975.1644   21292969.701
        53.0004         49.0004
 -11100726.30748  -8605091.42547  22537528.2124   22537529.3844   22537529.229
        49.0004         45.0004
  -1195305.30856   -917006.97856  25155420.1945   25155426.9955   25155417.808
        41.0004         36.0004
 15  1  8  2 16 30.0000000  0  9G14G12G15G18G21G24G25G22G29
   -527617.77747   -386604.10245  24327166.9534   24327168.1224   24327165.473
        47.0004         35.0004
 -21847025.05349 -17017386.80448  20741967.3234   20741968.7354   20741967.011
        55.0004         50.0004
 -17213909.92248 -13373721.97547  22033167.5834   22033170.1634   22033167.090
        52.0004         47.0004
 -21338615.74749 -16590319.39548  20286054.9444   20286057.2324   20286055.198
        55.0004         50.0004
  -3035603.63947  -2330721.96946  23909455.7804   23909458.6644   23909456.042
        45.0004         40.0004
 -15676928.26648 -12175620.85647  21884664.0954   21884669.5884   21884663.824
        52.0004         47.0004
 -18967707.97348 -14722539.43348  21279410.6024   21279416.1194   21279410.609
        53.0004         49.0004
 -11182571.33148  -8668866.78047  22521954.1044   22521955.0244   22521954.586
        50.0004         45.0004
  -1237460.10346   -949854.85046  25147402.8844   25147406.3464   25147402.404
        41.0004         36.0004
 15  1  8  2 17  0.0000000  0  9G14G12G15G18G21G24G25G22G29
   -589310.87647   -434676.67645  24315426.1104   24315428.2414   24315424.653
        43.0004         35.0004
 -21850894.90149 -17020402.29448  20741230.7174   20741232.4004   20741230.267
        55.0004         50.0004
 -17194697.00148 -13358750.90247  22036823.2304   22036826.3184   22036822.925
        51.0004         47.0004
 -21352806.98149 -16601377.52848  20283354.4784   20283356.7804   20283355.087
        55.0004         50.0004
  -2970058.33247  -2279647.73146  23921928.1934   23921930.7234   23921929.067
        45.0004         40.0004
 -15618885.05248 -12130392.43647  21895710.1984   21895715.0384   21895708.934
        52.0004         47.0004
 -19038562.85248 -14777751.03648  21265927.3114   21265933.1464   21265927.131
        53.0004         49.0004
 -11264106.45348  -8732400.67647  22506438.3694   22506438.9944   22506439.014
        50.0004         45.0004
  -1279931.97846   -982949.89346  25139320.7164   25139325.2654   25139319.181
        41.0004         37.0004
 15  1  8  2 17 30.0000000  0  9G14G12G15G18G21G24G25G22G29
   -651095.26746   -482820.38845  24303669.7924   24303672.6774   24303669.850
        41.0004         35.0004
 -21854194.18049 -17022973.19048  20740603.0264   20740604.6414   20740602.480
        55.0004         50.0004
 -17175279.48948 -13343620.41147  22040518.9664   22040521.0564   22040518.470
        51.0004         47.0004
 -21366450.38449 -16612008.78148  20280758.4494   20280760.7944   20280758.889
        55.0004         50.0004
  -2904501.70547  -2228564.65346  23934403.1554   23934405.5814   23934403.963
        45.0004         40.0004
 -15560780.42748 -12085116.17847  21906766.5594   21906771.8354   21906765.711
        52.0004         47.0004
 -19109013.84848 -14832647.92948  21252521.0604   21252526.4814   21252520.873
        53.0004         49.0004
 -11345328.21848  -8795690.39747  22490982.1394   22490983.0904   22490982.863
        49.0004         44.0004
  -1322719.83947  -1016291.12146  25131178.5054   25131181.8914   25131178.412
        42.0004         38.0004
 15  1  8  2 18  0.0000000  0  9G14G12G15G18G21G24G25G22G29
   -712972.80746   -531036.67045  24291890.7784   24291893.3884   24291892.965
        40.0004         35.0004
 -21856924.09449 -17025100.42548  20740083.2044   20740085.1104   20740083.316
        55.0004         50.0004
 -17155657.95948 -13328330.94247  22044252.3624   22044255.2784   22044252.208
        51.0004         47.0004
 -21379547.13649 -16622214.06848  20278266.1064   20278268.3294   20278266.620
        55.0004         50.0004
  -2838938.48247  -2177476.43946  23946878.2804   23946882.6854   23946879.163
        45.0004         40.0004
 -15502618.27248 -12039795.07947  21917833.9314   21917839.8234   21917833.437
        52.0004         47.0004
 -19179060.32048 -14887229.61748  21239191.4154   21239196.7684   21239191.518
        53.0004         49.0004
 -11426236.09248  -8858735.52347  22475585.9904   22475587.1904   22475586.713
        49.0004         44.0004
  -1365824.07647  -1049878.89846  25122976.7784   25122978.9114   25122976.050
        42.0004         38.0004
 15  1  8  2 18 30.0000000  0  9G14G12G15G18G21G24G25G22G29
   -774940.51046   -579323.21046  24280101.6404   24280105.2024   24280101.613
        40.0004         36.0004
 -21859081.41149 -17026781.48148  20739672.9114   20739674.7594   20739672.230
        55.0004         50.0004
 -17135828.02148 -13312879.07647  22048026.3364   22048028.8624   22048024.705
        51.0004         47.0004
 -21392093.22349 -16631990.27348  20275878.8584   20275881.0774   20275879.134
        55.0004         50.0004
  -2773368.48647  -2126382.98046  23959356.9194   23959360.2284   23959356.665
        45.0004         40.0004
 -15444396.61048 -11994427.61447  21928913.1614   21928919.5304   21928912.930
        52.0004         47.0004
 -19248696.89548 -14941491.89848  21225940.4444   21225945.9874   21225940.330
        53.0004         49.0004
 -11506824.65148  -8921531.83747  22460251.2084   22460251.8164   22460251.331
        49.0004         45.0004
  -1409240.98747  -1083710.30846  25114714.0534   25114717.1094   25114712.691
        42.0004         37.0004
 15  1  8  2 19  0.0000000  0  9G14G12G15G18G21G24G25G22G29
   -837001.52346   -627682.48046  24268290.4854   24268295.2174   24268291.114
        41.0004         36.0004
 -21860669.07949 -17028018.65448  20739370.7464   20739372.7464   20739370.376
        55.0004         50.0004
 -17115791.76148 -13297266.44947  22051838.4044   22051841.6664   22051838.197
        51.0004         47.0004
 -21404091.41149 -16641339.54048  20273595.7694   20273598.1304   20273596.136
        55.0004         51.0004
  -2707797.15147  -2075288.45146  23971834.6974   23971838.3174   23971834.411
        45.0004         40.0004
 -15386120.78548 -11949017.94147  21940003.6934   21940008.5184   21940002.579
        52.0004         47.0004
 -19317924.23749 -14995435.29648  21212766.3444   21212772.4184   21212766.358
        54.0004         49.0004
 -11587094.26848  -8984079.64647  22444975.3024   22444977.4614   22444976.042
        49.0004         44.0004
  -1452972.06347  -1117786.49246  25106395.2024   25106394.4804   25106396.209
        42.0004         37.0004
 15  1  8  2 19 30.0000000  0  9G14G12G15G18G21G24G25G22G29
   -899155.76046   -676114.33946  24256463.2194   24256468.4694   24256463.319
        41.0004         36.0004
 -21861686.47349 -17028811.45848  20739177.2284   20739179.3794   20739176.913
        55.0004         50.0004
 -17095547.35648 -13281491.62447  22055691.2694   22055693.9494   22055691.102
        51.0004         47.0004
 -21415540.79449 -16650261.16148  20271417.1974   20271419.2694   20271417.401
        55.0004         51.0004
  -2642226.99247  -2024194.83946  23984312.5764   23984316.8134   23984312.882
        45.0004         40.0004
 -15327791.92248 -11903566.94447  21951102.9794   21951108.8914   21951102.805
        52.0004         47.0004
 -19386739.57049 -15049057.64648  21199671.4934   21199677.3164   21199671.817
        54.0004         49.0004
 -11667042.33048  -9046376.88447  22429762.4594   22429763.1464   22429762.921
        49.0004         45.0004
  -1497016.16147  -1152106.65746  25098014.0484   25098013.1754   25098013.716
        42.0004         37.0004
 15  1  8  2 20  0.0000000  0  9G14G12G15G18G21G24G25G22G29
   -961405.24846   -724620.45946  24244617.9694   24244619.5514   24244617.428
        41.0004         36.0004
 -21862135.44749 -17029161.34248  20739092.0064   20739093.5814   20739091.618
        55.0004         50.0004
 -17075095.81848 -13265555.40047  22059583.1364   22059586.0574   22059583.257
        51.0004         47.0004
 -21426442.91649 -16658756.35248  20269342.3584   20269344.4774   20269342.793
        55.0004         50.0004
  -2576662.74147  -1973105.83946  23996788.0264   23996791.3824   23996788.168
        45.0004         40.0004
 -15269413.95148 -11858077.69047  21962211.9704   21962218.0054   21962211.718
        52.0004         47.0004
 -19455142.66048 -15102358.77948  21186654.7644   21186660.4234   21186654.735
        53.0004         49.0004
 -11746668.65648  -9108423.38647  22414609.8264   22414609.8314   22414610.907
        49.0004         45.0004
  -1541373.94846  -1186671.20846  25089570.8494   25089572.7794   25089570.066
        41.0004         36.0004
 15  1  8  2 20 30.0000000  0  9G14G12G15G18G21G24G25G22G29
  -1023746.41546   -773198.02846  24232755.9294   24232756.8094   24232755.774
        41.0004         37.0004
 -21862012.37449 -17029065.47148  20739115.5734   20739117.3914   20739115.098
        55.0004         50.0004
 -17054432.58348 -13249454.21447  22063514.8364   22063517.8454   22063514.139
        51.0004         47.0004
 -21436794.00949 -16666822.16748  20267372.8834   20267374.9794   20267373.218
        55.0004         51.0004
  -2511103.87147  -1922021.02846  24009263.4584   24009266.5234   24009264.626
        44.0004         40.0004
 -15210984.91348 -11812548.63247  21973330.8314   21973336.7754   21973330.256
        52.0004         47.0004
 -19523127.68048 -15155334.13748  21173717.6344   21173723.0874   21173717.425
        53.0004         49.0004
 -11825967.26648  -9170214.52647  22399519.0564   22399521.2484   22399519.952
        49.0004         44.0004
  -1586040.64646  -1221476.45546  25081069.5874   25081074.2714   25081072.698
        41.0004         36.0004
 15  1  8  2 21  0.0000000  0  9G14G12G15G18G21G24G25G22G29
  -1086180.22146   -821847.78346  24220874.4834   24220879.3434   24220875.031
        41.0004         37.0004
 -21861318.11349 -17028524.52148  20739247.5044   20739249.1554   20739246.925
        55.0004         50.0004
 -17033557.17048 -13233187.69647  22067488.5204   22067490.4434   22067487.134
        51.0004         47.0004
 -21446593.85649 -16674458.43648  20265507.6624   20265510.2284   20265507.906
        55.0004         51.0004
  -2445554.00847  -1870943.21746  24021738.6334   24021741.5204   24021738.792
        44.0004         40.0004
 -15152507.33248 -11766981.76447  21984459.5244   21984464.9094   21984458.412
        52.0004         47.0004
 -19590693.04648 -15207982.49948  21160860.5994   21160865.9724   21160860.362
        53.0004         49.0004
 -11904936.48248  -9231749.02547  22384492.6494   22384493.6324   22384492.514
        49.0004         44.0004
  -1631016.25446  -1256522.45145  25072507.3784   25072509.6574   25072511.138
        40.0004         34.0004
 15  1  8  2 21 30.0000000  0  9G14G12G15G18G21G24G25G22G29
  -1148709.10746   -870571.64746  24208975.9404   24208978.1634   24208977.066
        41.0004         37.0004
 -21860054.59049 -17027539.98748  20739487.7124   20739489.6994   20739487.891
        55.0004         50.0004
 -17012470.65548 -13216756.68947  22071500.7404   22071503.1674   22071500.375
        51.0004         47.0004
 -21455844.12549 -16681666.46448  20263747.5294   20263749.4164   20263748.227
        55.0004         50.0004
  -2380018.15747  -1819876.34646  24034208.6834   24034212.6344   24034209.007
        45.0004         40.0004
 -15093984.95848 -11721379.98347  21995595.9284   21995601.0734   21995595.431
        52.0004         47.0004
 -19657838.94848 -15260304.00248  21148082.8064   21148088.4114   21148083.122
        53.0004         49.0004
 -11983576.24048  -9293026.77847  22369527.5464   22369528.1454   22369528.759
        49.0004         44.0004
  -1676301.82546  -1291809.97145  25063891.9174   25063890.9934   25063890.378
        38.0004         34.0004
 15  1  8  2 22  0.0000000  0  9G14G12G15G18G21G24G25G22G29
  -1211328.48847   -919366.02846  24197060.5574   24197063.0104   24197060.834
        42.0004         37.0004
 -21858217.44449 -17026108.47248  20739837.5274   20739839.3154   20739836.807
        55.0004         50.0004
 -16991167.20648 -13200156.63947  22075554.6484   22075556.7114   22075553.779
        51.0004         47.0004
 -21464540.29449 -16688442.72948  20262092.6494   20262095.0084   20262093.059
        55.0004         51.0004
  -2314494.50147  -1768819.00046  24046676.9914   24046680.1354   24046677.392
        45.0004         40.0004
 -15035415.38848 -11675741.42547  22006741.0494   22006746.5664   22006740.364
        52.0004         47.0004
 -19724558.61749 -15312293.37448  21135386.4974   21135392.0694   21135386.692
        54.0004         49.0004
 -12061879.90548  -9354042.65547  22354626.5344   22354627.7764   22354627.249
        49.0004         44.0004
  -1721891.81156  -1327334.72655  25055215.0435   25055217.9005   25055213.795
        38.0004         33.0004
 15  1  8  2 22 30.0000000  0  8G14G12G15G18G21G24G25G22
  -1274042.29647   -968234.03446  24185126.6904   24185128.6974   24185126.745
        42.0004         37.0004
 -21855810.22649 -17024232.74448  20740295.6944   20740297.5224   20740295.254
        55.0004         51.0004
 -16969649.50948 -13183389.62947  22079649.0914   22079651.5334   22079648.569
        51.0004         47.0004
 -21472686.05649 -16694790.09748  20260542.5864   20260544.9114   20260542.940
        55.0004         50.0004
  -2248989.22147  -1717775.94046  24059143.6294   24059146.3344   24059144.518
        45.0004         40.0004
 -14976803.94348 -11630070.23047  22017894.1734   22017900.1754   22017893.852
        52.0004         47.0004
 -19790853.36149 -15363951.62148  21122771.2574   21122776.8174   21122771.139
        54.0004         49.0004
 -12139848.57048  -9414797.49747  22339790.5044   22339791.6664   22339790.728
        49.0004         45.0004
 15  1  8  2 23  0.0000000  0  8G14G12G15G18G21G24G25G22
  -1336850.57747  -1017175.60546  24173174.3694   24173177.2784   24173174.248
        42.0004         38.0004
 -21852832.99249 -17021912.85048  20740861.9694   20740864.3144   20740861.809
        55.0004         50.0004
 -16947916.71348 -13166455.02447  22083784.5164   22083787.7064   22083784.349
        51.0004         47.0004
 -21480280.59449 -16700707.94248  20259097.4344   20259099.5054   20259097.794
        55.0004         50.0004
  -2183505.52047  -1666749.71546  24071605.7184   24071606.9194   24071605.491
        45.0004         40.0004
 -14918152.31048 -11584367.72047  22029055.2974   22029061.5344   22029054.611
        51.0004         47.0004
 -19856721.13349 -15415277.16948  21110237.2194   21110242.3394   21110237.360
        54.0004         49.0004
 -12217480.15648  -9475289.68047  22325018.1334   22325018.3564   22325018.612
        50.0004         45.0004
 15  1  8  2 23 30.0000000  0  8G14G12G15G18G21G24G25G22
  -1399750.36347  -1066188.46346  24161204.2634   24161207.5254   24161203.991
        43.0004         38.0004
 -21849283.60149 -17019147.12248  20741537.3154   20741539.7914   20741536.973
        55.0004         50.0004
 -16925964.63548 -13149349.55047  22087961.9814   22087964.4424   22087961.404
        51.0004         47.0004
 -21487321.14549 -16706194.11348  20257757.5344   20257759.9424   20257757.790
        55.0004         50.0004
  -2118043.36947  -1615740.26046  24084061.5584   24084064.6124   24084060.881
        45.0004         40.0004
 -14859459.55048 -11538633.16447  22040223.6934   22040229.6194   22040223.586
        51.0004         47.0004
 -19922157.24549 -15466266.36448  21097785.3814   21097790.6214   21097785.175
        54.0004         49.0004
 -12294769.86148  -9535515.46247  22310309.1994   22310311.2874   22310310.614
        50.0004         45.0004
 15  1  8  2 24  0.0000000  0  8G14G12G15G18G21G24G25G22
  -1462744.45847  -1115274.82046  24149216.0884   24149220.5904   24149217.317
        42.0004         38.0004
 -21845164.46349 -17015937.43948  20742321.4484   20742323.7344   20742321.158
        55.0004         50.0004
 -16903794.95148 -13132074.50547  22092180.9454   22092183.2034   22092180.056
        51.0004         47.0004
 -21493809.82849 -16711250.25148  20256522.6604   20256525.2994   20256523.253
        55.0004         50.0004
  -2052608.01147  -1564751.71446  24096512.9644   24096515.1684   24096513.370
        45.0004         40.0004
 -14800729.93048 -11492869.89347  22051399.9064   22051405.6114   22051399.301
        51.0004         47.0004
 -19987161.87749 -15516919.34048  21085415.5594   21085420.4784   21085415.675
        54.0004         49.0004
 -12371717.63748  -9595474.80947  22295667.3664   22295667.8954   22295667.451
        50.0004         45.0004
 15  1  8  2 24 30.0000000  0  9G14G12G15G18G21G24G25G22G29
  -1525829.61847  -1164432.11446  24137211.6004   24137213.9444   24137211.718
        42.0004         37.0004
 -21840472.36749 -17012281.29548  20743214.2964   20743216.4044   20743214.003
        55.0004         50.0004
 -16881403.49248 -13114626.66147  22096441.5944   22096444.1604   22096441.772
        51.0004         47.0004
 -21499743.08649 -16715873.60148  20255393.6564   20255396.0204   20255394.138
        55.0004         50.0004
  -1987199.23747  -1513783.86746  24108959.5374   24108962.7604   24108960.744
        44.0004         40.0004
 -14741961.66648 -11447076.52747  22062584.2254   22062589.3584   22062583.351
        51.0004         47.0004
 -20051729.74949 -15567231.99648  21073128.4284   21073134.1694   21073128.320
        54.0004         49.0004
 -12448318.04348  -9655163.49047  22281090.9174   22281091.5074   22281091.600
        50.0004         45.0004
   -504822.36748   -388591.39546  25010972.1394   25010976.0594   25010972.730
        52.0004         36.0004
 15  1  8  2 25  0.0000000  0  9G14G12G15G18G21G24G25G22G29
  -1589006.51547  -1213660.93146  24125189.2604   24125192.9414   24125190.784
        42.0004         38.0004
 -21835207.83949 -17008179.10048  20744216.1954   20744218.1934   20744215.809
        55.0004         50.0004
 -16858789.15348 -13097005.14447  22100745.5004   22100748.3034   22100744.744
        51.0004         47.0004
 -21505121.25349 -16720064.40848  20254370.2864   20254372.6774   20254370.754
        55.0004         50.0004
  -1921819.88647  -1462838.96746  24121400.1904   24121403.7914   24121400.790
        44.0004         40.0004
 -14683157.20348 -11401254.93647  22073773.6134   22073778.9994   22073773.380
        51.0004         46.0004
 -20115859.07149 -15617202.91348  21060925.0974   21060930.5844   21060924.959
        54.0004         49.0004
 -12524569.17548  -9714579.99747  22266580.7644   22266581.2024   22266581.406
        50.0004         45.0004
   -552226.81447   -425530.10646  25001953.3884   25001953.1994   25001953.199
        47.0004         37.0004
 15  1  8  2 25 30.0000000  0  9G14G12G15G18G21G24G25G22G29
  -1652277.99147  -1262963.38646  24113149.6884   24113153.9654   24113151.118
        43.0004         38.0004
 -21829374.02549 -17003633.29548  20745326.3584   20745328.0764   20745326.160
        55.0004         50.0004
 -16835953.98948 -13079211.55247  22105089.7244   22105093.7814   22105089.521
        51.0004         46.0004
 -21509947.20449 -16723824.91048  20253452.5284   20253454.7804   20253452.795
        55.0004         51.0004
  -1856475.89347  -1411921.58246  24133835.9964   24133838.4064   24133836.455
        44.0004         40.0004
 -14624320.59348 -11355408.29447  22084969.4984   22084975.4454   22084968.680
        51.0004         46.0004
 -20179550.72949 -15666832.78748  21048804.6194   21048810.5584   21048804.963
        54.0004         49.0004
 -12600471.64148  -9773724.81447  22252136.3654   22252137.9734   22252137.166
        50.0004         45.0004
   -599931.21347   -462702.48546  24992873.1334   24992876.0984   24992872.561
        43.0004         37.0004
 15  1  8  2 26  0.0000000  0  9G14G12G15G18G21G24G25G22G29
  -1715640.62847  -1312336.91546  24101092.4614   24101095.1194   24101092.765
        43.0004         38.0004
 -21822967.96649 -16998641.59248  20746545.6384   20746547.4754   20746545.027
        55.0004         50.0004
 -16812893.64948 -13061242.50447  22109478.6114   22109481.8804   22109477.992
        51.0004         46.0004
 -21514217.04949 -16727152.09048  20252639.7504   20252641.9664   20252639.729
        55.0004         50.0004
  -1791166.81447  -1361031.41946  24146264.5634   24146265.1754   24146264.931
        44.0004         39.0004
 -14565450.63448 -11309535.67247  22096172.3324   22096177.2784   22096171.773
        51.0004         46.0004
 -20242799.36049 -15716117.45748  21036768.7154   21036774.8394   21036768.791
        54.0004         49.0004
 -12676019.93648  -9832593.64247  22237760.4414   22237761.5184   22237761.259
        49.0004         45.0004
   -647930.72347   -500104.78646  24983740.4364   24983743.6464   24983740.757
        42.0004         37.0004
 15  1  8  2 26 30.0000000  0  9G14G12G15G18G21G24G25G22G29
  -1779096.89047  -1361783.43346  24089016.3734   24089019.8034   24089016.361
        43.0004         38.0004
 -21815992.28449 -16993206.02648  20747872.7934   20747875.2024   20747872.444
        55.0004         51.0004
 -16789609.43448 -13043098.99647  22113909.0164   22113912.1334   22113908.867
        51.0004         46.0004
 -21517933.32849 -16730047.92448  20251932.5444   20251934.7754   20251933.185
        55.0004         51.0004
  -1725897.55047  -1310172.28146  24158684.5674   24158686.3914   24158684.293
        44.0004         39.0004
 -14506551.55848 -11263640.34847  22107380.2744   22107386.2834   22107379.236
        51.0004         46.0004
 -20305605.23249 -15765057.11448  21024816.9894   21024822.9734   21024816.733
        54.0004         49.0004
 -12751214.36348  -9891186.71347  22223452.2034   22223452.5794   22223452.500
        50.0004         45.0004
   -696226.76147   -537738.17046  24974551.0834   24974554.0654   24974551.509
        42.0004         38.0004
 15  1  8  2 27  0.0000000  0  9G14G12G15G18G21G24G25G22G29
  -1842644.50147  -1411301.07346  24076924.4804   24076928.1244   24076925.056
        43.0004         38.0004
 -21808444.85949 -16987324.94748  20749309.1454   20749311.2174   20749308.885
        55.0004         51.0004
 -16766098.06348 -13024778.49447  22118383.4664   22118386.5224   22118383.182
        51.0004         46.0004
 -21521093.63849 -16732510.52448  20251331.1004   20251333.5654   20251331.444
        55.0004         51.0004
  -1660668.64747  -1259344.59646  24171096.7514   24171100.2624   24171097.877
        44.0004         39.0004
 -14447622.13148 -11217721.38047  22118594.2184   22118600.3284   22118593.622
        51.0004         46.0004
 -20367964.13249 -15813648.48448  21012950.6734   21012956.8244   21012950.875
        54.0004         49.0004
 -12826050.39748  -9949500.52747  22209211.0544   22209211.9254   22209211.505
        50.0004         46.0004
   -744815.86847   -575599.92346  24965305.1334   24965308.1774   24965304.894
        42.0004         38.0004
 15  1  8  2 27 30.0000000  0  9G14G12G15G18G21G24G25G22G29
  -1906285.20447  -1460891.26146  24064814.2374   24064816.9814   24064814.759
        43.0004         39.0004
 -21800327.70649 -16980999.92348  20750853.8584   20750856.2044   20750853.662
        55.0004         51.0004
 -16742359.95448 -13006281.30447  22122901.0394   22122904.0904   22122900.521
        51.0004         46.0004
 -21523699.46249 -16734541.06248  20250835.4614   20250837.7974   20250835.757
        55.0004         51.0004
  -1595484.31547  -1208551.62646  24183501.6994   24183504.3174   24183502.194
        44.0004         39.0004
 -14388665.71748 -11171781.38747  22129813.4684   22129819.2514   22129813.182
        51.0004         46.0004
 -20429875.50749 -15861891.13048  21001169.2604   21001175.2954   21001168.946
        54.0004         49.0004
 -12900527.31648 -10007534.51947  22195038.5474   22195039.8964   22195039.233
        50.0004         46.0004
   -793698.14647   -613690.09846  24956002.3104   24956004.8304   24956000.631
        42.0004         37.0004
 15  1  8  2 28  0.0000000  0  9G14G12G15G18G21G24G25G22G29
  -1970017.17347  -1510552.60646  24052686.2954   24052689.8484   24052687.330
        43.0004         39.0004
 -21791639.30349 -16974229.77348  20752507.1194   20752509.3174   20752506.795
        55.0004         51.0004
 -16718392.55048 -12987605.44647  22127462.2914   22127464.6324   22127461.299
        51.0004         46.0004
 -21525748.75549 -16736137.94548  20250445.4584   20250447.7244   20250445.839
        55.0004         51.0004
  -1530345.41347  -1157794.06346  24195897.3514   24195898.4004   24195897.649
        44.0004         40.0004
 -14329682.52248 -11125820.52547  22141037.9964   22141043.7634   22141037.405
        51.0004         46.0004
 -20491335.59049 -15909782.12348  20989474.3684   20989479.8294   20989474.640
        54.0004         49.0004
 -12974641.07448 -10065285.53847  22180935.3654   22180936.0704   22180935.816
        51.0004         46.0004
   -842870.93646   -652006.66846  24946646.2174   24946645.4784   24946644.453
        41.0004         37.0004
 15  1  8  2 28 30.0000000  0  9G14G12G15G18G21G24G25G22G29
  -2033840.57347  -1560285.18446  24040541.6904   24040543.6824   24040541.362
        43.0004         38.0004
 -21782380.44949 -16967015.11848  20754269.3424   20754271.0124   20754269.214
        55.0004         51.0004
 -16694194.56948 -12968749.91747  22132066.7124   22132069.9724   22132066.257
        51.0004         47.0004
 -21527241.96349 -16737301.51348  20250161.3274   20250163.6454   20250161.796
        55.0004         51.0004
  -1465255.34747  -1107074.59346  24208282.7084   24208285.0394   24208283.726
        44.0004         40.0004
 -14270674.44448 -11079840.27347  22152267.0874   22152272.3604   22152266.474
        51.0004         46.0004
 -20552342.71549 -15957320.16448  20977864.7714   20977870.6244   20977864.483
        54.0004         50.0004
 -13048389.96548 -10122752.24847  22166900.8234   22166902.6074   22166901.236
        51.0004         46.0004
   -892332.86946   -690548.53446  24937232.2624   24937235.1354   24937233.492
        41.0004         36.0004
 15  1  8  2 29  0.0000000  0  9G14G12G15G18G21G24G25G22G29
  -2097756.39247  -1610089.76146  24028379.5564   24028381.7404   24028379.782
        43.0004         39.0004
 -21772552.52349 -16959357.02648  20756139.0934   20756141.2884   20756138.774
        55.0004         50.0004
 -16669766.47748 -12949715.08447  22136714.8664   22136718.8534   22136714.932
        51.0004         47.0004
 -21528180.25249 -16738032.67948  20249982.5584   20249985.0804   20249982.958
        55.0004         50.0004
  -1400217.71147  -1056395.93446  24220659.0644   24220662.1104   24220659.769
        44.0004         40.0004
 -14211644.15648 -11033842.71747  22163499.6564   22163506.1974   22163499.525
        51.0004         46.0004
 -20612896.02149 -16004504.57348  20966342.1494   20966348.1464   20966342.375
        54.0004         50.0004
 -13121772.61348 -10179933.57047  22152936.4394   22152938.0424   22152937.177
        50.0004         46.0004
   -942084.13346   -729315.87346  24927761.1964   24927767.4154   24927762.026
        41.0004         36.0004
 15  1  8  2 29 30.0000000  0  9G14G12G15G18G21G24G25G22G29
  -2161760.91447  -1659963.48146  24016199.6704   24016201.7794   24016199.195
        43.0004         38.0004
 -21762151.89249 -16951252.66648  20758118.1524   20758120.6724   20758117.848
        55.0004         50.0004
 -16645103.03148 -12930496.85347  22141408.9654   22141411.1694   22141408.454
        51.0004         47.0004
 -21528559.59449 -16738328.30348  20249910.7124   20249912.9634   20249911.062
        55.0004         51.0004
  -1335231.03247  -1005757.00146  24233026.3014   24233029.1424   24233026.108
        45.0004         40.0004
 -14152588.74048 -10987825.57847  22174738.1294   22174743.7614   22174737.024
        51.0004         46.0004
 -20672989.53149 -16051330.69848  20954906.6294   20954912.2774   20954906.694
        54.0004         50.0004
 -13194783.10648 -10236824.89547  22139043.7604   22139044.2554   22139043.956
        50.0004         46.0004
   -992119.21946   -768304.28746  24918240.1094   24918246.5954   24918240.972
        40.0004         36.0004
 15  1  8  2 30  0.0000000  0  9G14G12G15G18G21G24G25G22G29
  -2225861.79147  -1709912.26646  24004000.9024   24004001.9074   24004000.523
        43.0004         38.0004
 -21751187.20549 -16942708.78248  20760204.6274   20760207.1654   20760204.507
        55.0004         50.0004
 -16620211.14348 -12911100.60847  22146144.9714   22146148.4494   22146145.207
        51.0004         46.0004
 -21528387.70949 -16738194.39248  20249943.2064   20249945.8134   20249943.522
        55.0004         51.0004
  -1270306.32747   -955166.37346  24245380.1944   24245384.8724   24245380.588
        44.0004         40.0004
 -14093518.23448 -10941796.68747  22185979.2864   22185985.0094   22185978.774
        51.0004         46.0004
 -20732629.27849 -16097803.24648  20943557.7144   20943563.3014   20943557.859
        54.0004         50.0004
 -13267426.92148 -10293430.49447  22125219.4274   22125220.6464   22125220.398
        50.0004         46.0004
  -1042444.72246   -807519.07346  24908662.8434   24908670.4714   24908664.208
        41.0004         36.0004
 15  1  8  2 30 30.0000000  0  9G14G12G15G18G21G24G25G22G29
  -2290050.29147  -1759929.33946  23991785.2954   23991788.8174   23991786.135
        42.0004         38.0004
 -21739650.04949 -16933718.82048  20762400.0654   20762402.8104   20762399.539
        55.0004         50.0004
 -16595081.30448 -12891518.95147  22150927.4634   22150930.5234   22150927.020
        51.0004         46.0004
 -21527656.20949 -16737624.42748  20250082.5714   20250085.0224   20250082.869
        55.0004         50.0004
  -1205437.23047   -904619.05646  24257724.8394   24257728.7134   24257725.659
        44.0004         39.0004
 -14034425.85648 -10895750.74347  22197224.2394   22197229.5274   22197223.909
        51.0004         46.0004
 -20791804.60049 -16143913.90548  20932296.9174   20932302.0934   20932296.614
        54.0004         49.0004
 -13339693.29648 -10349741.98347  22111468.0874   22111468.5364   22111468.494
        50.0004         46.0004
  -1093050.54246   -846952.26046  24899034.1384   24899038.2364   24899034.024
        40.0004         36.0004
 15  1  8  2 31  0.0000000  0  9G14G12G15G18G21G24G25G22G29
  -2354331.41047  -1810018.53346  23979554.0784   23979558.0224   23979554.923
        43.0004         38.0004
 -21727545.83149 -16924286.99448  20764703.5384   20764706.0574   20764703.184
        55.0004         50.0004
 -16569717.56148 -12871755.03147  22155753.6364   22155756.5444   22155753.070
        51.0004         46.0004
 -21526369.90049 -16736622.14048  20250327.2404   20250329.6884   20250327.821
        55.0004         51.0004
  -1140631.43347   -854121.06346  24270056.8874   24270059.1384   24270057.993
        44.0004         39.0004
 -13975317.43548 -10849692.29847  22208471.8684   22208478.0304   22208470.700
        51.0004         46.0004
 -20850518.56349 -16189665.06148  20921123.7594   20921129.2524   20921123.714
        54.0004         50.0004
 -13411584.86948 -10405761.39947  22097787.4124   22097788.7794   22097788.247
        51.0004         46.0004
  -1143941.03646   -886607.26645  24889349.3094   24889354.2044   24889347.037
        40.0004         35.0004
 15  1  8  2 31 30.0000000  0  8G14G12G15G18G21G24G25G22
  -2418702.55847  -1860177.89646  23967305.4594   23967306.5864   23967305.377
        43.0004         38.0004
 -21714872.67849 -16914411.84648  20767115.8364   20767117.6114   20767115.433
        55.0004         50.0004
 -16544116.16748 -12851805.94547  22160626.0684   22160628.9324   22160625.801
        51.0004         46.0004
 -21524526.84349 -16735186.02248  20250678.1394   20250680.6754   20250678.421
        55.0004         51.0004
  -1075889.30347   -803672.67746  24282377.6794   24282380.1764   24282377.716
        44.0004         39.0004
 -13916192.29148 -10803620.83547  22219722.7364   22219727.4924   22219721.634
        51.0004         46.0004
 -20908766.86249 -16235053.36748  20910039.6674   20910045.3174   20910039.566
        54.0004         50.0004
 -13483097.67948 -10461485.69047  22084179.2514   22084180.0714   22084179.895
        51.0004         46.0004
 15  1  8  2 32  0.0000000  0  8G14G12G15G18G21G24G25G22
  -2483164.12847  -1910407.75346  23955038.9554   23955039.3974   23955038.360
        43.0004         38.0004
 -21701631.93249 -16904094.40948  20769634.9514   20769637.2054   20769634.888
        55.0004         51.0004
 -16518276.89948 -12831671.49647  22165542.7374   22165545.7334   22165542.699
        51.0004         46.0004
 -21522127.27649 -16733316.25948  20251134.7424   20251137.1244   20251135.181
        55.0004         51.0004
  -1011214.13047   -753276.47846  24294684.1534   24294687.4564   24294684.328
        44.0004         39.0004
 -13857052.64448 -10757538.05647  22230976.3374   22230982.1204   22230976.484
        51.0004         46.0004
 -20966548.19949 -16280077.79848  20899044.2894   20899049.6434   20899044.213
        54.0004         49.0004
 -13554229.54948 -10516913.16147  22070642.9404   22070644.6874   22070643.612
        51.0004         46.0004
 15  1  8  2 32 30.0000000  0  8G14G12G15G18G21G24G25G22
  -2547714.72047  -1960706.96646  23942753.7844   23942758.0374   23942754.726
        43.0004         38.0004
 -21687822.46649 -16893333.82448  20772263.1914   20772265.1664   20772262.739
        55.0004         50.0004
 -16492197.48648 -12811349.92247  22170505.8324   22170508.8884   22170505.383
        51.0004         46.0004
 -21519170.49749 -16731012.30848  20251697.4364   20251699.7764   20251698.060
        55.0004         51.0004
   -946607.41247   -702933.60346  24306977.9394   24306983.1194   24306979.261
        44.0004         39.0004
 -13797898.69248 -10711444.14747  22242233.1074   22242239.6794   22242233.336
        51.0004         46.0004
 -21023859.50849 -16324735.97748  20888138.4424   20888143.6224   20888138.479
        54.0004         50.0004
 -13624977.20348 -10572041.23447  22057180.8924   22057182.1714   22057181.211
        51.0004         46.0004
 15  1  8  2 33  0.0000000  0  8G14G12G15G18G21G24G25G22
  -2612353.29947  -2011074.75246  23930454.7584   23930457.6044   23930455.186
        43.0004         38.0004
 -21673443.64249 -16882129.57348  20774999.2844   20775001.3614   20774999.139
        55.0004         50.0004
 -16465875.46848 -12790839.30747  22175514.6214   22175518.2984   22175513.956
        51.0004         46.0004
 -21515655.13649 -16728273.09748  20252366.4464   20252368.6624   20252366.800
        55.0004         51.0004
   -882070.44047   -652645.08446  24319259.7854   24319263.0814   24319259.950
        44.0004         39.0004
 -13738730.72248 -10665339.30247  22253492.9924   22253498.6214   22253492.900
        51.0004         46.0004
 -21080697.78149 -16369025.55648  20877322.3204   20877327.6704   20877322.390
        54.0004         50.0004
 -13695337.51548 -10626867.48347  22043791.7674   22043792.9564   22043791.708
        51.0004         46.0004
 15  1  8  2 33 30.0000000  0  9G14G12G15G18G21G24G25G22G29
  -2677084.48347  -2061514.67946  23918136.3604   23918139.5134   23918135.645
        43.0004         38.0004
 -21658501.86049 -16870486.65648  20777842.7044   20777844.8104   20777842.287
        55.0004         50.0004
 -16439315.06948 -12770142.93747  22180568.8924   22180571.6544   22180568.458
        51.0004         46.0004
 -21511586.44649 -16725102.72148  20253140.8114   20253143.1854   20253141.114
        55.0004         51.0004
   -817610.70247   -602416.78946  24331525.9064   24331528.9674   24331526.579
        44.0004         39.0004
 -13679555.46848 -10619228.78547  22264753.0844   22264759.0444   22264752.778
        51.0004         46.0004
 -21137065.99349 -16412948.85548  20866595.6154   20866601.1694   20866595.768
        54.0004         50.0004
 -13765313.10548 -10681393.95847  22030475.6494   22030476.4024   22030476.075
        51.0004         46.0004
   -644898.54048   -493623.35946  24840134.4294   24840139.0024   24840135.050
        48.0004         36.0004
 15  1  8  2 34  0.0000000  0  9G14G12G15G18G21G24G25G22G29
  -2741905.87047  -2112024.91746  23905801.3174   23905804.6744   23905801.441
        42.0004         38.0004
 -21642995.18149 -16858403.56248  20780793.6704   20780795.4094   20780793.128
        55.0004         50.0004
 -16412512.85348 -12749258.14147  22185669.3544   22185672.2454   22185669.775
        51.0004         46.0004
 -21506962.51849 -16721499.68748  20254020.9164   20254023.3724   20254021.136
        55.0004         51.0004
   -753228.69647   -552249.03146  24343777.9754   24343781.2084   24343777.458
        44.0004         39.0004
 -13620371.69448 -10573111.62947  22276015.6734   22276021.4724   22276015.162
        51.0004         46.0004
 -21192960.16949 -16456502.77748  20855959.5154   20855965.3374   20855959.611
        54.0004         50.0004
 -13834899.76048 -10735617.34047  22017233.7974   22017234.9864   22017234.248
        51.0004         46.0004
   -697452.04647   -534574.20946  24830135.8274   24830140.8774   24830133.625
        44.0004         37.0004
 15  1  8  2 34 30.0000000  0  9G14G12G15G18G21G24G25G22G29
  -2806813.89147  -2162602.67546  23893450.3754   23893451.1964   23893450.122
        42.0004         38.0004
 -21626920.32849 -16845877.73548  20783852.8544   20783854.2344   20783852.632
        55.0004         50.0004
 -16385464.52748 -12728181.57147  22190816.7924   22190819.8254   22190816.011
        51.0004         46.0004
 -21501780.29349 -16717461.62548  20255006.6224   20255009.3674   20255007.231
        55.0004         51.0004
   -688923.90047   -502141.42246  24356013.9454   24356016.5014   24356014.823
        44.0004         39.0004
 -13561177.93148 -10526986.69547  22287280.0044   22287286.3024   22287279.287
        51.0004         46.0004
 -21248375.06749 -16499683.23448  20845414.2974   20845420.1514   20845414.226
        54.0004         50.0004
 -13904091.75648 -10789533.21147  22004066.6324   22004068.3784   22004067.552
        51.0004         46.0004
   -750275.34547   -575735.28946  24820084.6144   24820088.6164   24820085.050
        42.0004         37.0004
 15  1  8  2 35  0.0000000  0  9G14G12G15G18G21G24G25G22G29
  -2871813.23047  -2213251.55946  23881080.4244   23881084.0694   23881081.030
        43.0004         38.0004
 -21610283.31549 -16832913.85848  20787018.6714   20787020.5104   20787018.700
        55.0004         51.0004
 -16358174.07548 -12706916.31847  22196009.8344   22196013.2054   22196008.762
        51.0004         46.0004
 -21496044.88849 -16712992.50748  20256098.4304   20256100.7084   20256099.008
        55.0004         51.0004
   -624703.23047   -452099.40646  24368235.8834   24368237.2454   24368235.915
        43.0004         39.0004
 -13501980.46748 -10480858.86747  22298544.9244   22298550.9854   22298544.551
        51.0004         46.0004
 -21303314.05649 -16542492.85548  20834959.9324   20834965.9414   20834960.098
        55.0004         50.0004
 -13972892.04048 -10843143.86047  21990974.4594   21990976.2074   21990975.261
        51.0004         46.0004
   -803371.42647   -617108.98246  24809982.5974   24809984.7984   24809981.955
        42.0004         37.0004
